{"type": "FeatureCollection", "name": "stops", "crs": {"type": "name", "properties": {"name": "urn:ogc:def:crs:OGC:1.3:CRS84"}}, "features": [{"type": "Feature", "properties": {"stop_id": "1_01", "stop_name": "喜多村", "zone_id": "1_01", "location_type": "0"}, "geometry": {"type": "Point", "coordinates": [137.1494599, 36.2231028]}}, {"type": "Feature", "properties": {"stop_id": "10_01", "stop_name": "飛騨古川駅", "zone_id": "10_01", "location_type": "0"}, "geometry": {"type": "Point", "coordinates": [137.1889388, 36.2369969]}}, {"type": "Feature", "properties": {"stop_id": "11_01", "stop_name": "古川小学校", "zone_id": "11_01", "location_type": "0"}, "geometry": {"type": "Point", "coordinates": [137.1928776, 36.2345504]}}, {"type": "Feature", "properties": {"stop_id": "13_01", "stop_name": "吉城高校口", "zone_id": "13_01", "location_type": "0"}, "geometry": {"type": "Point", "coordinates": [137.1938875, 36.2422233]}}, {"type": "Feature", "properties": {"stop_id": "14_01", "stop_name": "和光園下", "zone_id": "14_01", "location_type": "0"}, "geometry": {"type": "Point", "coordinates": [137.1897669, 36.2439956]}}, {"type": "Feature", "properties": {"stop_id": "15_01", "stop_name": "旧太江学校前", "zone_id": "15_01", "location_type": "0"}, "geometry": {"type": "Point", "coordinates": [137.170019, 36.2533553]}}, {"type": "Feature", "properties": {"stop_id": "16_01", "stop_name": "太江公民館", "zone_id": "16_01", "location_type": "0"}, "geometry": {"type": "Point", "coordinates": [137.1758111, 36.2557862]}}, {"type": "Feature", "properties": {"stop_id": "17_01", "stop_name": "太江火の見", "zone_id": "17_01", "location_type": "0"}, "geometry": {"type": "Point", "coordinates": [137.1802552, 36.2570375]}}, {"type": "Feature", "properties": {"stop_id": "18_01", "stop_name": "太江上野中", "zone_id": "18_01", "location_type": "0"}, "geometry": {"type": "Point", "coordinates": [137.1984701, 36.2616877]}}, {"type": "Feature", "properties": {"stop_id": "19_01", "stop_name": "文化交流センター前", "zone_id": "19_01", "location_type": "0"}, "geometry": {"type": "Point", "coordinates": [137.1886982, 36.2384041]}}, {"type": "Feature", "properties": {"stop_id": "2_01", "stop_name": "上組作業場", "zone_id": "2_01", "location_type": "0"}, "geometry": {"type": "Point", "coordinates": [137.1359967, 36.2158445]}}, {"type": "Feature", "properties": {"stop_id": "20_01", "stop_name": "杉崎", "zone_id": "20_01", "location_type": "0"}, "geometry": {"type": "Point", "coordinates": [137.168467, 36.249631]}}, {"type": "Feature", "properties": {"stop_id": "20_02", "stop_name": "杉崎", "zone_id": "20_02", "location_type": "0"}, "geometry": {"type": "Point", "coordinates": [137.168541, 36.249666]}}, {"type": "Feature", "properties": {"stop_id": "201_01", "stop_name": "和佐府", "zone_id": "201_01", "location_type": "0"}, "geometry": {"type": "Point", "coordinates": [137.3964785, 36.3993147]}}, {"type": "Feature", "properties": {"stop_id": "202_01", "stop_name": "打保橋", "zone_id": "202_01", "location_type": "0"}, "geometry": {"type": "Point", "coordinates": [137.4023414, 36.3957098]}}, {"type": "Feature", "properties": {"stop_id": "203_01", "stop_name": "神明神社前", "zone_id": "203_01", "location_type": "0"}, "geometry": {"type": "Point", "coordinates": [137.3752691, 36.3961222]}}, {"type": "Feature", "properties": {"stop_id": "204_01", "stop_name": "重機センター", "zone_id": "204_01", "location_type": "0"}, "geometry": {"type": "Point", "coordinates": [137.3833289, 36.3952077]}}, {"type": "Feature", "properties": {"stop_id": "205_01", "stop_name": "下之本", "zone_id": "205_01", "location_type": "0"}, "geometry": {"type": "Point", "coordinates": [137.3853391, 36.3948623]}}, {"type": "Feature", "properties": {"stop_id": "206_01", "stop_name": "岩井谷", "zone_id": "206_01", "location_type": "0"}, "geometry": {"type": "Point", "coordinates": [137.378547, 36.387467]}}, {"type": "Feature", "properties": {"stop_id": "207_01", "stop_name": "山之村小中学校", "zone_id": "207_01", "location_type": "0"}, "geometry": {"type": "Point", "coordinates": [137.3723097, 36.3779026]}}, {"type": "Feature", "properties": {"stop_id": "208_01", "stop_name": "森茂南", "zone_id": "208_01", "location_type": "0"}, "geometry": {"type": "Point", "coordinates": [137.3755539, 36.3698421]}}, {"type": "Feature", "properties": {"stop_id": "209_01", "stop_name": "森茂", "zone_id": "209_01", "location_type": "0"}, "geometry": {"type": "Point", "coordinates": [137.369772, 36.377917]}}, {"type": "Feature", "properties": {"stop_id": "21_01", "stop_name": "古川西小学校", "zone_id": "21_01", "location_type": "0"}, "geometry": {"type": "Point", "coordinates": [137.15798, 36.25481]}}, {"type": "Feature", "properties": {"stop_id": "210_01", "stop_name": "森茂センター", "zone_id": "210_01", "location_type": "0"}, "geometry": {"type": "Point", "coordinates": [137.363817, 36.382282]}}, {"type": "Feature", "properties": {"stop_id": "211_01", "stop_name": "森茂農協前", "zone_id": "211_01", "location_type": "0"}, "geometry": {"type": "Point", "coordinates": [137.3602951, 36.3822211]}}, {"type": "Feature", "properties": {"stop_id": "212_01", "stop_name": "伊西下", "zone_id": "212_01", "location_type": "0"}, "geometry": {"type": "Point", "coordinates": [137.3497439, 36.3819981]}}, {"type": "Feature", "properties": {"stop_id": "213_01", "stop_name": "伊西上", "zone_id": "213_01", "location_type": "0"}, "geometry": {"type": "Point", "coordinates": [137.3411381, 36.3725129]}}, {"type": "Feature", "properties": {"stop_id": "214_01", "stop_name": "和佐保", "zone_id": "214_01", "location_type": "0"}, "geometry": {"type": "Point", "coordinates": [137.322255, 36.338539]}}, {"type": "Feature", "properties": {"stop_id": "215_01", "stop_name": "神岡大橋", "zone_id": "215_01", "location_type": "0"}, "geometry": {"type": "Point", "coordinates": [137.300836, 36.324235]}}, {"type": "Feature", "properties": {"stop_id": "215_02", "stop_name": "神岡大橋", "zone_id": "215_02", "location_type": "0"}, "geometry": {"type": "Point", "coordinates": [137.300739, 36.324179]}}, {"type": "Feature", "properties": {"stop_id": "216_01", "stop_name": "殿", "zone_id": "216_01", "location_type": "0"}, "geometry": {"type": "Point", "coordinates": [137.303841, 36.325594]}}, {"type": "Feature", "properties": {"stop_id": "216_02", "stop_name": "殿", "zone_id": "216_02", "location_type": "0"}, "geometry": {"type": "Point", "coordinates": [137.303781, 36.325653]}}, {"type": "Feature", "properties": {"stop_id": "217_01", "stop_name": "江馬館前", "zone_id": "217_01", "location_type": "0"}, "geometry": {"type": "Point", "coordinates": [137.3101786, 36.3264811]}}, {"type": "Feature", "properties": {"stop_id": "218_01", "stop_name": "殿村", "zone_id": "218_01", "location_type": "0"}, "geometry": {"type": "Point", "coordinates": [137.306883, 36.327085]}}, {"type": "Feature", "properties": {"stop_id": "218_02", "stop_name": "殿村", "zone_id": "218_02", "location_type": "0"}, "geometry": {"type": "Point", "coordinates": [137.306864, 36.327151]}}, {"type": "Feature", "properties": {"stop_id": "219_01", "stop_name": "たかはら", "zone_id": "219_01", "location_type": "0"}, "geometry": {"type": "Point", "coordinates": [137.3079802, 36.3242562]}}, {"type": "Feature", "properties": {"stop_id": "22_01", "stop_name": "谷研修センター前", "zone_id": "22_01", "location_type": "0"}, "geometry": {"type": "Point", "coordinates": [137.1357147, 36.2634336]}}, {"type": "Feature", "properties": {"stop_id": "220_01", "stop_name": "スカイドーム神岡", "zone_id": "220_01", "location_type": "0"}, "geometry": {"type": "Point", "coordinates": [137.306913, 36.328916]}}, {"type": "Feature", "properties": {"stop_id": "223_01", "stop_name": "神岡小学校", "zone_id": "223_01", "location_type": "0"}, "geometry": {"type": "Point", "coordinates": [137.297241, 36.32975]}}, {"type": "Feature", "properties": {"stop_id": "224_01", "stop_name": "神岡振興事務所", "zone_id": "224_01", "location_type": "0"}, "geometry": {"type": "Point", "coordinates": [137.301605, 36.332325]}}, {"type": "Feature", "properties": {"stop_id": "225_01", "stop_name": "飛騨市民病院", "zone_id": "225_01", "location_type": "0"}, "geometry": {"type": "Point", "coordinates": [137.300474, 36.334583]}}, {"type": "Feature", "properties": {"stop_id": "226_01", "stop_name": "西里", "zone_id": "226_01", "location_type": "0"}, "geometry": {"type": "Point", "coordinates": [137.297413, 36.332889]}}, {"type": "Feature", "properties": {"stop_id": "226_02", "stop_name": "西里", "zone_id": "226_02", "location_type": "0"}, "geometry": {"type": "Point", "coordinates": [137.297387, 36.332831]}}, {"type": "Feature", "properties": {"stop_id": "227_01", "stop_name": "千歳橋", "zone_id": "227_01", "location_type": "0"}, "geometry": {"type": "Point", "coordinates": [137.295842, 36.333629]}}, {"type": "Feature", "properties": {"stop_id": "227_02", "stop_name": "千歳橋", "zone_id": "227_02", "location_type": "0"}, "geometry": {"type": "Point", "coordinates": [137.295771, 36.333553]}}, {"type": "Feature", "properties": {"stop_id": "228_01", "stop_name": "濃飛バス神岡営業所", "zone_id": "228_01", "location_type": "0"}, "geometry": {"type": "Point", "coordinates": [137.295244, 36.336906]}}, {"type": "Feature", "properties": {"stop_id": "23_01", "stop_name": "信包農協前", "zone_id": "23_01", "location_type": "0"}, "geometry": {"type": "Point", "coordinates": [137.127228, 36.25308]}}, {"type": "Feature", "properties": {"stop_id": "237_01", "stop_name": "割石温泉", "zone_id": "237_01", "location_type": "0"}, "geometry": {"type": "Point", "coordinates": [137.281875, 36.366965]}}, {"type": "Feature", "properties": {"stop_id": "238_01", "stop_name": "西里橋", "zone_id": "238_01", "location_type": "0"}, "geometry": {"type": "Point", "coordinates": [137.299549, 36.332662]}}, {"type": "Feature", "properties": {"stop_id": "238_02", "stop_name": "西里橋", "zone_id": "238_02", "location_type": "0"}, "geometry": {"type": "Point", "coordinates": [137.299298, 36.332614]}}, {"type": "Feature", "properties": {"stop_id": "239_01", "stop_name": "下今公園前", "zone_id": "239_01", "location_type": "0"}, "geometry": {"type": "Point", "coordinates": [137.29529, 36.33165]}}, {"type": "Feature", "properties": {"stop_id": "239_02", "stop_name": "下今公園前", "zone_id": "239_02", "location_type": "0"}, "geometry": {"type": "Point", "coordinates": [137.295349, 36.331627]}}, {"type": "Feature", "properties": {"stop_id": "24_01", "stop_name": "笹ヶ洞公民館", "zone_id": "24_01", "location_type": "0"}, "geometry": {"type": "Point", "coordinates": [137.1289495, 36.2474366]}}, {"type": "Feature", "properties": {"stop_id": "240_01", "stop_name": "飛騨神岡駅", "zone_id": "240_01", "location_type": "0"}, "geometry": {"type": "Point", "coordinates": [137.294405, 36.331107]}}, {"type": "Feature", "properties": {"stop_id": "240_02", "stop_name": "飛騨神岡駅", "zone_id": "240_02", "location_type": "0"}, "geometry": {"type": "Point", "coordinates": [137.294524, 36.331013]}}, {"type": "Feature", "properties": {"stop_id": "241_01", "stop_name": "梨ヶ根公園前", "zone_id": "241_01", "location_type": "0"}, "geometry": {"type": "Point", "coordinates": [137.2871926, 36.3253177]}}, {"type": "Feature", "properties": {"stop_id": "242_01", "stop_name": "寺林公民館", "zone_id": "242_01", "location_type": "0"}, "geometry": {"type": "Point", "coordinates": [137.2754929, 36.3162083]}}, {"type": "Feature", "properties": {"stop_id": "243_01", "stop_name": "伏方公民館前", "zone_id": "243_01", "location_type": "0"}, "geometry": {"type": "Point", "coordinates": [137.2515808, 36.309847]}}, {"type": "Feature", "properties": {"stop_id": "244_01", "stop_name": "柏原", "zone_id": "244_01", "location_type": "0"}, "geometry": {"type": "Point", "coordinates": [137.2404913, 36.2688757]}}, {"type": "Feature", "properties": {"stop_id": "245_01", "stop_name": "山田細川前", "zone_id": "245_01", "location_type": "0"}, "geometry": {"type": "Point", "coordinates": [137.2534586, 36.2909196]}}, {"type": "Feature", "properties": {"stop_id": "246_01", "stop_name": "山田楢木前", "zone_id": "246_01", "location_type": "0"}, "geometry": {"type": "Point", "coordinates": [137.254817, 36.2931803]}}, {"type": "Feature", "properties": {"stop_id": "247_01", "stop_name": "山田神社前", "zone_id": "247_01", "location_type": "0"}, "geometry": {"type": "Point", "coordinates": [137.2530623, 36.2978305]}}, {"type": "Feature", "properties": {"stop_id": "248_01", "stop_name": "西", "zone_id": "248_01", "location_type": "0"}, "geometry": {"type": "Point", "coordinates": [137.2446604, 36.3035036]}}, {"type": "Feature", "properties": {"stop_id": "249_01", "stop_name": "流葉スキー場", "zone_id": "249_01", "location_type": "0"}, "geometry": {"type": "Point", "coordinates": [137.245292, 36.306826]}}, {"type": "Feature", "properties": {"stop_id": "249_02", "stop_name": "流葉スキー場", "zone_id": "249_02", "location_type": "0"}, "geometry": {"type": "Point", "coordinates": [137.24561, 36.30677]}}, {"type": "Feature", "properties": {"stop_id": "25_01", "stop_name": "すぱーふる桃源郷温泉", "zone_id": "25_01", "location_type": "0"}, "geometry": {"type": "Point", "coordinates": [137.1146335, 36.2422952]}}, {"type": "Feature", "properties": {"stop_id": "250_01", "stop_name": "西公民館", "zone_id": "250_01", "location_type": "0"}, "geometry": {"type": "Point", "coordinates": [137.248151, 36.305267]}}, {"type": "Feature", "properties": {"stop_id": "250_02", "stop_name": "西公民館", "zone_id": "250_02", "location_type": "0"}, "geometry": {"type": "Point", "coordinates": [137.247942, 36.305423]}}, {"type": "Feature", "properties": {"stop_id": "251_01", "stop_name": "流葉口", "zone_id": "251_01", "location_type": "0"}, "geometry": {"type": "Point", "coordinates": [137.251064, 36.302774]}}, {"type": "Feature", "properties": {"stop_id": "251_02", "stop_name": "流葉口", "zone_id": "251_02", "location_type": "0"}, "geometry": {"type": "Point", "coordinates": [137.251198, 36.303339]}}, {"type": "Feature", "properties": {"stop_id": "252_01", "stop_name": "山田局前", "zone_id": "252_01", "location_type": "0"}, "geometry": {"type": "Point", "coordinates": [137.2517801, 36.3031767]}}, {"type": "Feature", "properties": {"stop_id": "253_01", "stop_name": "杉越トンネル山田口", "zone_id": "253_01", "location_type": "0"}, "geometry": {"type": "Point", "coordinates": [137.254112, 36.2998396]}}, {"type": "Feature", "properties": {"stop_id": "254_01", "stop_name": "阿弥陀堂前", "zone_id": "254_01", "location_type": "0"}, "geometry": {"type": "Point", "coordinates": [137.2911869, 36.307369]}}, {"type": "Feature", "properties": {"stop_id": "255_01", "stop_name": "上小萱", "zone_id": "255_01", "location_type": "0"}, "geometry": {"type": "Point", "coordinates": [137.307419, 36.300568]}}, {"type": "Feature", "properties": {"stop_id": "256_01", "stop_name": "野首公民館前", "zone_id": "256_01", "location_type": "0"}, "geometry": {"type": "Point", "coordinates": [137.3158607, 36.3042146]}}, {"type": "Feature", "properties": {"stop_id": "257_01", "stop_name": "飛騨神岡高校", "zone_id": "257_01", "location_type": "0"}, "geometry": {"type": "Point", "coordinates": [137.30658, 36.308437]}}, {"type": "Feature", "properties": {"stop_id": "258_01", "stop_name": "釜崎", "zone_id": "258_01", "location_type": "0"}, "geometry": {"type": "Point", "coordinates": [137.304953, 36.322164]}}, {"type": "Feature", "properties": {"stop_id": "258_02", "stop_name": "釜崎", "zone_id": "258_02", "location_type": "0"}, "geometry": {"type": "Point", "coordinates": [137.304927, 36.322109]}}, {"type": "Feature", "properties": {"stop_id": "259_01", "stop_name": "弥生町", "zone_id": "259_01", "location_type": "0"}, "geometry": {"type": "Point", "coordinates": [137.3062561, 36.3178419]}}, {"type": "Feature", "properties": {"stop_id": "260_01", "stop_name": "旧奥飛騨温泉口駅", "zone_id": "260_01", "location_type": "0"}, "geometry": {"type": "Point", "coordinates": [137.306958, 36.319233]}}, {"type": "Feature", "properties": {"stop_id": "261_01", "stop_name": "坂巻", "zone_id": "261_01", "location_type": "0"}, "geometry": {"type": "Point", "coordinates": [137.3124885, 36.3195656]}}, {"type": "Feature", "properties": {"stop_id": "261_02", "stop_name": "坂巻", "zone_id": "261_02", "location_type": "0"}, "geometry": {"type": "Point", "coordinates": [137.3126503, 36.319493]}}, {"type": "Feature", "properties": {"stop_id": "262_01", "stop_name": "旭ヶ丘", "zone_id": "262_01", "location_type": "0"}, "geometry": {"type": "Point", "coordinates": [137.30945, 36.324841]}}, {"type": "Feature", "properties": {"stop_id": "262_02", "stop_name": "旭ヶ丘", "zone_id": "262_02", "location_type": "0"}, "geometry": {"type": "Point", "coordinates": [137.30895, 36.32518]}}, {"type": "Feature", "properties": {"stop_id": "263_01", "stop_name": "東雲", "zone_id": "263_01", "location_type": "0"}, "geometry": {"type": "Point", "coordinates": [137.3173208, 36.3122175]}}, {"type": "Feature", "properties": {"stop_id": "264_01", "stop_name": "下麻生野", "zone_id": "264_01", "location_type": "0"}, "geometry": {"type": "Point", "coordinates": [137.3209644, 36.3105172]}}, {"type": "Feature", "properties": {"stop_id": "265_01", "stop_name": "石神", "zone_id": "265_01", "location_type": "0"}, "geometry": {"type": "Point", "coordinates": [137.3386311, 36.3075596]}}, {"type": "Feature", "properties": {"stop_id": "266_01", "stop_name": "奥麻生野", "zone_id": "266_01", "location_type": "0"}, "geometry": {"type": "Point", "coordinates": [137.3402653, 36.3156958]}}, {"type": "Feature", "properties": {"stop_id": "267_02", "stop_name": "神岡城口", "zone_id": "267_02", "location_type": "0"}, "geometry": {"type": "Point", "coordinates": [137.305792, 36.329716]}}, {"type": "Feature", "properties": {"stop_id": "269_01", "stop_name": "柏原パーキング", "zone_id": "269_01", "location_type": "0"}, "geometry": {"type": "Point", "coordinates": [137.2355996, 36.2669176]}}, {"type": "Feature", "properties": {"stop_id": "27_01", "stop_name": "上野", "zone_id": "27_01", "location_type": "0"}, "geometry": {"type": "Point", "coordinates": [137.1684137, 36.2436465]}}, {"type": "Feature", "properties": {"stop_id": "270_01", "stop_name": "神岡", "zone_id": "270_01", "location_type": "0"}, "geometry": {"type": "Point", "coordinates": [137.297765, 36.334547]}}, {"type": "Feature", "properties": {"stop_id": "270_02", "stop_name": "神岡", "zone_id": "270_02", "location_type": "0"}, "geometry": {"type": "Point", "coordinates": [137.2977238, 36.3344843]}}, {"type": "Feature", "properties": {"stop_id": "271_01", "stop_name": "営農センター", "zone_id": "271_01", "location_type": "0"}, "geometry": {"type": "Point", "coordinates": [137.3286, 36.30761]}}, {"type": "Feature", "properties": {"stop_id": "271_02", "stop_name": "営農センター", "zone_id": "271_02", "location_type": "0"}, "geometry": {"type": "Point", "coordinates": [137.32857, 36.30733]}}, {"type": "Feature", "properties": {"stop_id": "272_01", "stop_name": "下数河", "zone_id": "272_01", "location_type": "0"}, "geometry": {"type": "Point", "coordinates": [137.33377, 36.30295]}}, {"type": "Feature", "properties": {"stop_id": "272_02", "stop_name": "下数河", "zone_id": "272_02", "location_type": "0"}, "geometry": {"type": "Point", "coordinates": [137.33447, 36.3022]}}, {"type": "Feature", "properties": {"stop_id": "273_01", "stop_name": "吉田精米所前", "zone_id": "273_01", "location_type": "0"}, "geometry": {"type": "Point", "coordinates": [137.2825104, 36.3053258]}}, {"type": "Feature", "properties": {"stop_id": "276_01", "stop_name": "上数河", "zone_id": "276_01", "location_type": "0"}, "geometry": {"type": "Point", "coordinates": [137.34101, 36.30205]}}, {"type": "Feature", "properties": {"stop_id": "276_02", "stop_name": "上数河", "zone_id": "276_02", "location_type": "0"}, "geometry": {"type": "Point", "coordinates": [137.34099, 36.30199]}}, {"type": "Feature", "properties": {"stop_id": "277_01", "stop_name": "和佐府橋", "zone_id": "277_01", "location_type": "0"}, "geometry": {"type": "Point", "coordinates": [137.3975, 36.40236]}}, {"type": "Feature", "properties": {"stop_id": "28_01", "stop_name": "中野公民館前", "zone_id": "28_01", "location_type": "0"}, "geometry": {"type": "Point", "coordinates": [137.1592465, 36.2462376]}}, {"type": "Feature", "properties": {"stop_id": "29_01", "stop_name": "下野", "zone_id": "29_01", "location_type": "0"}, "geometry": {"type": "Point", "coordinates": [137.1474952, 36.2529187]}}, {"type": "Feature", "properties": {"stop_id": "3_01", "stop_name": "東の谷公園前", "zone_id": "3_01", "location_type": "0"}, "geometry": {"type": "Point", "coordinates": [137.1484501, 36.2127537]}}, {"type": "Feature", "properties": {"stop_id": "30_01", "stop_name": "新栄", "zone_id": "30_01", "location_type": "0"}, "geometry": {"type": "Point", "coordinates": [137.180232, 36.241286]}}, {"type": "Feature", "properties": {"stop_id": "30_02", "stop_name": "新栄", "zone_id": "30_02", "location_type": "0"}, "geometry": {"type": "Point", "coordinates": [137.180498, 36.241188]}}, {"type": "Feature", "properties": {"stop_id": "31_01", "stop_name": "行真", "zone_id": "31_01", "location_type": "0"}, "geometry": {"type": "Point", "coordinates": [137.17495, 36.24497]}}, {"type": "Feature", "properties": {"stop_id": "31_02", "stop_name": "行真", "zone_id": "31_02", "location_type": "0"}, "geometry": {"type": "Point", "coordinates": [137.175869, 36.244436]}}, {"type": "Feature", "properties": {"stop_id": "32_01", "stop_name": "太江下野中", "zone_id": "32_01", "location_type": "0"}, "geometry": {"type": "Point", "coordinates": [137.192555, 36.260738]}}, {"type": "Feature", "properties": {"stop_id": "4_01", "stop_name": "平岩研修センター前", "zone_id": "4_01", "location_type": "0"}, "geometry": {"type": "Point", "coordinates": [137.1688241, 36.231371]}}, {"type": "Feature", "properties": {"stop_id": "401_01", "stop_name": "山王", "zone_id": "401_01", "location_type": "0"}, "geometry": {"type": "Point", "coordinates": [137.0519482, 36.2443448]}}, {"type": "Feature", "properties": {"stop_id": "402_01", "stop_name": "角川駅", "zone_id": "402_01", "location_type": "0"}, "geometry": {"type": "Point", "coordinates": [137.1136455, 36.300068]}}, {"type": "Feature", "properties": {"stop_id": "403_01", "stop_name": "河合保育園", "zone_id": "403_01", "location_type": "0"}, "geometry": {"type": "Point", "coordinates": [137.0992373, 36.3051412]}}, {"type": "Feature", "properties": {"stop_id": "404_01", "stop_name": "ゆうわーくはうす・河合診療所", "zone_id": "404_01", "location_type": "0"}, "geometry": {"type": "Point", "coordinates": [137.1010836, 36.3045713]}}, {"type": "Feature", "properties": {"stop_id": "405_01", "stop_name": "河合振興事務所", "zone_id": "405_01", "location_type": "0"}, "geometry": {"type": "Point", "coordinates": [137.1038825, 36.3044144]}}, {"type": "Feature", "properties": {"stop_id": "406_01", "stop_name": "農協前", "zone_id": "406_01", "location_type": "0"}, "geometry": {"type": "Point", "coordinates": [137.1074302, 36.305078]}}, {"type": "Feature", "properties": {"stop_id": "407_01", "stop_name": "月ヶ瀬", "zone_id": "407_01", "location_type": "0"}, "geometry": {"type": "Point", "coordinates": [137.0240845, 36.2583251]}}, {"type": "Feature", "properties": {"stop_id": "408_01", "stop_name": "荒町", "zone_id": "408_01", "location_type": "0"}, "geometry": {"type": "Point", "coordinates": [137.0270723, 36.2739803]}}, {"type": "Feature", "properties": {"stop_id": "409_01", "stop_name": "羽根", "zone_id": "409_01", "location_type": "0"}, "geometry": {"type": "Point", "coordinates": [137.0660152, 36.2949176]}}, {"type": "Feature", "properties": {"stop_id": "410_01", "stop_name": "大谷口", "zone_id": "410_01", "location_type": "0"}, "geometry": {"type": "Point", "coordinates": [137.1037878, 36.279348]}}, {"type": "Feature", "properties": {"stop_id": "411_01", "stop_name": "寺村", "zone_id": "411_01", "location_type": "0"}, "geometry": {"type": "Point", "coordinates": [137.0990827, 36.2572454]}}, {"type": "Feature", "properties": {"stop_id": "412_01", "stop_name": "脇谷", "zone_id": "412_01", "location_type": "0"}, "geometry": {"type": "Point", "coordinates": [137.087897, 36.2527636]}}, {"type": "Feature", "properties": {"stop_id": "413_01", "stop_name": "ふれあい広場", "zone_id": "413_01", "location_type": "0"}, "geometry": {"type": "Point", "coordinates": [137.1153773, 36.2501259]}}, {"type": "Feature", "properties": {"stop_id": "414_01", "stop_name": "寺地公民館", "zone_id": "414_01", "location_type": "0"}, "geometry": {"type": "Point", "coordinates": [137.1368086, 36.2392866]}}, {"type": "Feature", "properties": {"stop_id": "431_01", "stop_name": "桂上", "zone_id": "431_01", "location_type": "0"}, "geometry": {"type": "Point", "coordinates": [137.10138, 36.2686]}}, {"type": "Feature", "properties": {"stop_id": "5_01", "stop_name": "飛騨警察署前", "zone_id": "5_01", "location_type": "0"}, "geometry": {"type": "Point", "coordinates": [137.1796006, 36.2351968]}}, {"type": "Feature", "properties": {"stop_id": "5_02", "stop_name": "飛騨警察署前", "zone_id": "5_02", "location_type": "0"}, "geometry": {"type": "Point", "coordinates": [137.1795574, 36.2352697]}}, {"type": "Feature", "properties": {"stop_id": "6_01", "stop_name": "宮城橋", "zone_id": "6_01", "location_type": "0"}, "geometry": {"type": "Point", "coordinates": [137.1824046, 36.2365654]}}, {"type": "Feature", "properties": {"stop_id": "6_02", "stop_name": "宮城橋", "zone_id": "6_02", "location_type": "0"}, "geometry": {"type": "Point", "coordinates": [137.1823627, 36.2366368]}}, {"type": "Feature", "properties": {"stop_id": "602_01", "stop_name": "小豆沢", "zone_id": "602_01", "location_type": "0"}, "geometry": {"type": "Point", "coordinates": [137.199203, 36.428776]}}, {"type": "Feature", "properties": {"stop_id": "603_01", "stop_name": "まんが王国", "zone_id": "603_01", "location_type": "0"}, "geometry": {"type": "Point", "coordinates": [137.19, 36.41227]}}, {"type": "Feature", "properties": {"stop_id": "604_01", "stop_name": "平成橋", "zone_id": "604_01", "location_type": "0"}, "geometry": {"type": "Point", "coordinates": [137.180344, 36.38829]}}, {"type": "Feature", "properties": {"stop_id": "605_01", "stop_name": "打保", "zone_id": "605_01", "location_type": "0"}, "geometry": {"type": "Point", "coordinates": [137.181471, 36.3842888]}}, {"type": "Feature", "properties": {"stop_id": "606_01", "stop_name": "巣之内", "zone_id": "606_01", "location_type": "0"}, "geometry": {"type": "Point", "coordinates": [137.1822305, 36.3458225]}}, {"type": "Feature", "properties": {"stop_id": "607_01", "stop_name": "西忍", "zone_id": "607_01", "location_type": "0"}, "geometry": {"type": "Point", "coordinates": [137.1480415, 36.3320371]}}, {"type": "Feature", "properties": {"stop_id": "608_01", "stop_name": "宮川小学校", "zone_id": "608_01", "location_type": "0"}, "geometry": {"type": "Point", "coordinates": [137.1391516, 36.3289155]}}, {"type": "Feature", "properties": {"stop_id": "609_01", "stop_name": "宮川診療所", "zone_id": "609_01", "location_type": "0"}, "geometry": {"type": "Point", "coordinates": [137.138412, 36.327251]}}, {"type": "Feature", "properties": {"stop_id": "610_01", "stop_name": "牧戸", "zone_id": "610_01", "location_type": "0"}, "geometry": {"type": "Point", "coordinates": [137.152822, 36.3327827]}}, {"type": "Feature", "properties": {"stop_id": "611_01", "stop_name": "若田前", "zone_id": "611_01", "location_type": "0"}, "geometry": {"type": "Point", "coordinates": [137.1164371, 36.2957202]}}, {"type": "Feature", "properties": {"stop_id": "612_01", "stop_name": "宮川振興事務所(坂上駅)", "zone_id": "612_01", "location_type": "0"}, "geometry": {"type": "Point", "coordinates": [137.1407561, 36.3284216]}}, {"type": "Feature", "properties": {"stop_id": "7_01", "stop_name": "飛騨市役所", "zone_id": "7_01", "location_type": "0"}, "geometry": {"type": "Point", "coordinates": [137.18563, 36.237311]}}, {"type": "Feature", "properties": {"stop_id": "7_02", "stop_name": "飛騨市役所", "zone_id": "7_02", "location_type": "0"}, "geometry": {"type": "Point", "coordinates": [137.185637, 36.237449]}}, {"type": "Feature", "properties": {"stop_id": "8_01", "stop_name": "宮城保育園", "zone_id": "8_01", "location_type": "0"}, "geometry": {"type": "Point", "coordinates": [137.1783, 36.24187]}}, {"type": "Feature", "properties": {"stop_id": "9_01", "stop_name": "古川中学校", "zone_id": "9_01", "location_type": "0"}, "geometry": {"type": "Point", "coordinates": [137.1750843, 36.2448064]}}]}