{"type": "FeatureCollection", "name": "stops", "crs": {"type": "name", "properties": {"name": "urn:ogc:def:crs:OGC:1.3:CRS84"}}, "features": [{"type": "Feature", "properties": {"stop_id": "2_01", "stop_name": "海竜町", "zone_id": "2_01", "location_type": "0"}, "geometry": {"type": "Point", "coordinates": [137.126541, 36.773697]}}, {"type": "Feature", "properties": {"stop_id": "3_01", "stop_name": "大門高校", "zone_id": "3_01", "location_type": "0"}, "geometry": {"type": "Point", "coordinates": [137.063488, 36.725664]}}, {"type": "Feature", "properties": {"stop_id": "4_01", "stop_name": "南太閤山コミュニティセンター前", "zone_id": "4_01", "location_type": "0"}, "geometry": {"type": "Point", "coordinates": [137.096168857143, 36.700168]}}, {"type": "Feature", "properties": {"stop_id": "4_02", "stop_name": "南太閤山コミュニティセンター前", "zone_id": "4_02", "location_type": "0"}, "geometry": {"type": "Point", "coordinates": [137.096283142857, 36.700388]}}, {"type": "Feature", "properties": {"stop_id": "5_01", "stop_name": "富山短期大学前", "zone_id": "5_01", "location_type": "0"}, "geometry": {"type": "Point", "coordinates": [137.140644, 36.721712]}}, {"type": "Feature", "properties": {"stop_id": "6_02", "stop_name": "呉羽高校前（呉羽駅行き）", "zone_id": "6_02", "location_type": "0"}, "geometry": {"type": "Point", "coordinates": [137.160804, 36.716935]}}, {"type": "Feature", "properties": {"stop_id": "7_01", "stop_name": "呉羽駅前", "zone_id": "7_01", "location_type": "0"}, "geometry": {"type": "Point", "coordinates": [137.165546, 36.718668]}}, {"type": "Feature", "properties": {"stop_id": "8_01", "stop_name": "新生町", "zone_id": "8_01", "location_type": "0"}, "geometry": {"type": "Point", "coordinates": [137.08669652381, 36.7614183333333]}}, {"type": "Feature", "properties": {"stop_id": "8_02", "stop_name": "新生町", "zone_id": "8_02", "location_type": "0"}, "geometry": {"type": "Point", "coordinates": [137.08687747619, 36.7615933333333]}}, {"type": "Feature", "properties": {"stop_id": "9_01", "stop_name": "新湊幹部交番前", "zone_id": "9_01", "location_type": "0"}, "geometry": {"type": "Point", "coordinates": [137.081842, 36.774253]}}, {"type": "Feature", "properties": {"stop_id": "9_02", "stop_name": "新湊幹部交番前", "zone_id": "9_02", "location_type": "0"}, "geometry": {"type": "Point", "coordinates": [137.082087714286, 36.774348]}}, {"type": "Feature", "properties": {"stop_id": "10_01", "stop_name": "小杉駅南口", "zone_id": "10_01", "location_type": "0"}, "geometry": {"type": "Point", "coordinates": [137.091503, 36.720745]}}, {"type": "Feature", "properties": {"stop_id": "10_02", "stop_name": "小杉駅南口", "zone_id": "10_02", "location_type": "0"}, "geometry": {"type": "Point", "coordinates": [137.091651571429, 36.720705]}}, {"type": "Feature", "properties": {"stop_id": "10_03", "stop_name": "小杉駅南口", "zone_id": "10_03", "location_type": "0"}, "geometry": {"type": "Point", "coordinates": [137.091791428572, 36.72067]}}, {"type": "Feature", "properties": {"stop_id": "10_04", "stop_name": "小杉駅南口", "zone_id": "10_04", "location_type": "0"}, "geometry": {"type": "Point", "coordinates": [137.091912857143, 36.72064]}}, {"type": "Feature", "properties": {"stop_id": "11_01", "stop_name": "鷲塚口", "zone_id": "11_01", "location_type": "0"}, "geometry": {"type": "Point", "coordinates": [137.120695714286, 36.718338]}}, {"type": "Feature", "properties": {"stop_id": "12_01", "stop_name": "手崎", "zone_id": "12_01", "location_type": "0"}, "geometry": {"type": "Point", "coordinates": [137.110895857143, 36.718794]}}, {"type": "Feature", "properties": {"stop_id": "12_02", "stop_name": "手崎", "zone_id": "12_02", "location_type": "0"}, "geometry": {"type": "Point", "coordinates": [137.111701571429, 36.718559]}}, {"type": "Feature", "properties": {"stop_id": "13_01", "stop_name": "小杉東口", "zone_id": "13_01", "location_type": "0"}, "geometry": {"type": "Point", "coordinates": [137.103858, 36.719403]}}, {"type": "Feature", "properties": {"stop_id": "13_02", "stop_name": "小杉東口", "zone_id": "13_02", "location_type": "0"}, "geometry": {"type": "Point", "coordinates": [137.104063714286, 36.719218]}}, {"type": "Feature", "properties": {"stop_id": "14_01", "stop_name": "戸破", "zone_id": "14_01", "location_type": "0"}, "geometry": {"type": "Point", "coordinates": [137.09636, 36.720532]}}, {"type": "Feature", "properties": {"stop_id": "14_02", "stop_name": "戸破", "zone_id": "14_02", "location_type": "0"}, "geometry": {"type": "Point", "coordinates": [137.096354285714, 36.720312]}}, {"type": "Feature", "properties": {"stop_id": "15_01", "stop_name": "小杉高校前", "zone_id": "15_01", "location_type": "0"}, "geometry": {"type": "Point", "coordinates": [137.086182714286, 36.723747]}}, {"type": "Feature", "properties": {"stop_id": "15_02", "stop_name": "小杉高校前", "zone_id": "15_02", "location_type": "0"}, "geometry": {"type": "Point", "coordinates": [137.085799857143, 36.723662]}}, {"type": "Feature", "properties": {"stop_id": "16_01", "stop_name": "赤井口", "zone_id": "16_01", "location_type": "0"}, "geometry": {"type": "Point", "coordinates": [137.070240857143, 36.728986]}}, {"type": "Feature", "properties": {"stop_id": "16_02", "stop_name": "赤井口", "zone_id": "16_02", "location_type": "0"}, "geometry": {"type": "Point", "coordinates": [137.070166571429, 36.729736]}}, {"type": "Feature", "properties": {"stop_id": "17_01", "stop_name": "若杉南", "zone_id": "17_01", "location_type": "0"}, "geometry": {"type": "Point", "coordinates": [137.052369, 36.7413813333334]}}, {"type": "Feature", "properties": {"stop_id": "17_02", "stop_name": "若杉南", "zone_id": "17_02", "location_type": "0"}, "geometry": {"type": "Point", "coordinates": [137.052247095238, 36.741233]}}, {"type": "Feature", "properties": {"stop_id": "18_02", "stop_name": "今開発", "zone_id": "18_02", "location_type": "0"}, "geometry": {"type": "Point", "coordinates": [137.087438857143, 36.729754]}}, {"type": "Feature", "properties": {"stop_id": "20_01", "stop_name": "新港の森", "zone_id": "20_01", "location_type": "0"}, "geometry": {"type": "Point", "coordinates": [137.087691, 36.763702]}}, {"type": "Feature", "properties": {"stop_id": "20_02", "stop_name": "新港の森", "zone_id": "20_02", "location_type": "0"}, "geometry": {"type": "Point", "coordinates": [137.088043380952, 36.7636603333333]}}, {"type": "Feature", "properties": {"stop_id": "21_01", "stop_name": "小杉中学校前", "zone_id": "21_01", "location_type": "0"}, "geometry": {"type": "Point", "coordinates": [137.097140857143, 36.717573]}}, {"type": "Feature", "properties": {"stop_id": "21_02", "stop_name": "小杉中学校前", "zone_id": "21_02", "location_type": "0"}, "geometry": {"type": "Point", "coordinates": [137.097369428571, 36.717643]}}, {"type": "Feature", "properties": {"stop_id": "22_01", "stop_name": "太閤山北口", "zone_id": "22_01", "location_type": "0"}, "geometry": {"type": "Point", "coordinates": [137.091214, 36.71427]}}, {"type": "Feature", "properties": {"stop_id": "22_02", "stop_name": "太閤山北口", "zone_id": "22_02", "location_type": "0"}, "geometry": {"type": "Point", "coordinates": [137.091465428572, 36.71405]}}, {"type": "Feature", "properties": {"stop_id": "23_01", "stop_name": "太閤山団地口", "zone_id": "23_01", "location_type": "0"}, "geometry": {"type": "Point", "coordinates": [137.093311571429, 36.710296]}}, {"type": "Feature", "properties": {"stop_id": "23_02", "stop_name": "太閤山団地口", "zone_id": "23_02", "location_type": "0"}, "geometry": {"type": "Point", "coordinates": [137.093654428572, 36.710356]}}, {"type": "Feature", "properties": {"stop_id": "24_01", "stop_name": "太閤山コミュニティセンター前", "zone_id": "24_01", "location_type": "0"}, "geometry": {"type": "Point", "coordinates": [137.088921285714, 36.706656]}}, {"type": "Feature", "properties": {"stop_id": "26_01", "stop_name": "太閤山ランド前", "zone_id": "26_01", "location_type": "0"}, "geometry": {"type": "Point", "coordinates": [137.100679, 36.6968579999999]}}, {"type": "Feature", "properties": {"stop_id": "26_02", "stop_name": "太閤山ランド前", "zone_id": "26_02", "location_type": "0"}, "geometry": {"type": "Point", "coordinates": [137.100353285714, 36.6977929999999]}}, {"type": "Feature", "properties": {"stop_id": "27_01", "stop_name": "練合東口", "zone_id": "27_01", "location_type": "0"}, "geometry": {"type": "Point", "coordinates": [137.164085380952, 36.7607733333333]}}, {"type": "Feature", "properties": {"stop_id": "27_02", "stop_name": "練合東口", "zone_id": "27_02", "location_type": "0"}, "geometry": {"type": "Point", "coordinates": [137.16414252381, 36.76054]}}, {"type": "Feature", "properties": {"stop_id": "28_01", "stop_name": "練合", "zone_id": "28_01", "location_type": "0"}, "geometry": {"type": "Point", "coordinates": [137.161074666667, 36.7606083333333]}}, {"type": "Feature", "properties": {"stop_id": "28_02", "stop_name": "練合", "zone_id": "28_02", "location_type": "0"}, "geometry": {"type": "Point", "coordinates": [137.160284190476, 36.7603833333333]}}, {"type": "Feature", "properties": {"stop_id": "29_01", "stop_name": "海老江中町", "zone_id": "29_01", "location_type": "0"}, "geometry": {"type": "Point", "coordinates": [137.14807, 36.7652536666667]}}, {"type": "Feature", "properties": {"stop_id": "29_02", "stop_name": "海老江中町", "zone_id": "29_02", "location_type": "0"}, "geometry": {"type": "Point", "coordinates": [137.147993809524, 36.765062]}}, {"type": "Feature", "properties": {"stop_id": "29_03", "stop_name": "海老江中町", "zone_id": "29_03", "location_type": "0"}, "geometry": {"type": "Point", "coordinates": [137.148186020134, 36.7647246517024]}}, {"type": "Feature", "properties": {"stop_id": "30_01", "stop_name": "浜開", "zone_id": "30_01", "location_type": "0"}, "geometry": {"type": "Point", "coordinates": [137.138022, 36.768195]}}, {"type": "Feature", "properties": {"stop_id": "31_01", "stop_name": "射北中学校前", "zone_id": "31_01", "location_type": "0"}, "geometry": {"type": "Point", "coordinates": [137.135531142857, 36.768937]}}, {"type": "Feature", "properties": {"stop_id": "31_02", "stop_name": "射北中学校前", "zone_id": "31_02", "location_type": "0"}, "geometry": {"type": "Point", "coordinates": [137.135531142857, 36.768917]}}, {"type": "Feature", "properties": {"stop_id": "34_01", "stop_name": "堀岡中町", "zone_id": "34_01", "location_type": "0"}, "geometry": {"type": "Point", "coordinates": [137.122129, 36.772646]}}, {"type": "Feature", "properties": {"stop_id": "35_01", "stop_name": "新港東口", "zone_id": "35_01", "location_type": "0"}, "geometry": {"type": "Point", "coordinates": [137.118618184336, 36.7731628305472]}}, {"type": "Feature", "properties": {"stop_id": "35_02", "stop_name": "新港東口", "zone_id": "35_02", "location_type": "0"}, "geometry": {"type": "Point", "coordinates": [137.118589612907, 36.7732278305472]}}, {"type": "Feature", "properties": {"stop_id": "36_01", "stop_name": "太閤山１丁目", "zone_id": "36_01", "location_type": "0"}, "geometry": {"type": "Point", "coordinates": [137.094540428571, 36.713247]}}, {"type": "Feature", "properties": {"stop_id": "36_02", "stop_name": "太閤山１丁目", "zone_id": "36_02", "location_type": "0"}, "geometry": {"type": "Point", "coordinates": [137.094689, 36.713217]}}, {"type": "Feature", "properties": {"stop_id": "38_01", "stop_name": "土代", "zone_id": "38_01", "location_type": "0"}, "geometry": {"type": "Point", "coordinates": [137.114088571429, 36.692717]}}, {"type": "Feature", "properties": {"stop_id": "38_02", "stop_name": "土代", "zone_id": "38_02", "location_type": "0"}, "geometry": {"type": "Point", "coordinates": [137.114296037074, 36.6927434717878]}}, {"type": "Feature", "properties": {"stop_id": "39_01", "stop_name": "椎土", "zone_id": "39_01", "location_type": "0"}, "geometry": {"type": "Point", "coordinates": [137.117780285714, 36.688423]}}, {"type": "Feature", "properties": {"stop_id": "40_01", "stop_name": "大門地区センター前", "zone_id": "40_01", "location_type": "0"}, "geometry": {"type": "Point", "coordinates": [137.047883857143, 36.722641]}}, {"type": "Feature", "properties": {"stop_id": "40_02", "stop_name": "大門地区センター前", "zone_id": "40_02", "location_type": "0"}, "geometry": {"type": "Point", "coordinates": [137.048089571429, 36.722571]}}, {"type": "Feature", "properties": {"stop_id": "42_01", "stop_name": "大門中央", "zone_id": "42_01", "location_type": "0"}, "geometry": {"type": "Point", "coordinates": [137.048910714286, 36.735329]}}, {"type": "Feature", "properties": {"stop_id": "42_02", "stop_name": "大門中央", "zone_id": "42_02", "location_type": "0"}, "geometry": {"type": "Point", "coordinates": [137.049230714286, 36.7358639999999]}}, {"type": "Feature", "properties": {"stop_id": "43_01", "stop_name": "生源寺", "zone_id": "43_01", "location_type": "0"}, "geometry": {"type": "Point", "coordinates": [137.058198, 36.698851]}}, {"type": "Feature", "properties": {"stop_id": "44_01", "stop_name": "水戸田", "zone_id": "44_01", "location_type": "0"}, "geometry": {"type": "Point", "coordinates": [137.064625857143, 36.7049933333333]}}, {"type": "Feature", "properties": {"stop_id": "44_02", "stop_name": "水戸田", "zone_id": "44_02", "location_type": "0"}, "geometry": {"type": "Point", "coordinates": [137.064521095238, 36.7048016666667]}}, {"type": "Feature", "properties": {"stop_id": "46_01", "stop_name": "カモンパーク新湊", "zone_id": "46_01", "location_type": "0"}, "geometry": {"type": "Point", "coordinates": [137.083832857143, 36.751792]}}, {"type": "Feature", "properties": {"stop_id": "46_02", "stop_name": "カモンパーク新湊", "zone_id": "46_02", "location_type": "0"}, "geometry": {"type": "Point", "coordinates": [137.084078571429, 36.751927]}}, {"type": "Feature", "properties": {"stop_id": "47_01", "stop_name": "大門高校前", "zone_id": "47_01", "location_type": "0"}, "geometry": {"type": "Point", "coordinates": [137.062778142857, 36.726723]}}, {"type": "Feature", "properties": {"stop_id": "47_02", "stop_name": "大門高校前", "zone_id": "47_02", "location_type": "0"}, "geometry": {"type": "Point", "coordinates": [137.062646714286, 36.726558]}}, {"type": "Feature", "properties": {"stop_id": "48_01", "stop_name": "イータウン", "zone_id": "48_01", "location_type": "0"}, "geometry": {"type": "Point", "coordinates": [137.084062, 36.728347]}}, {"type": "Feature", "properties": {"stop_id": "49_01", "stop_name": "小杉駅前", "zone_id": "49_01", "location_type": "0"}, "geometry": {"type": "Point", "coordinates": [137.092713, 36.721319]}}, {"type": "Feature", "properties": {"stop_id": "49_02", "stop_name": "小杉駅前", "zone_id": "49_02", "location_type": "0"}, "geometry": {"type": "Point", "coordinates": [137.092684428571, 36.721199]}}, {"type": "Feature", "properties": {"stop_id": "49_03", "stop_name": "小杉駅前", "zone_id": "49_03", "location_type": "0"}, "geometry": {"type": "Point", "coordinates": [137.092737954908, 36.7210741929599]}}, {"type": "Feature", "properties": {"stop_id": "50_01", "stop_name": "朴木口", "zone_id": "50_01", "location_type": "0"}, "geometry": {"type": "Point", "coordinates": [137.080911285714, 36.762131]}}, {"type": "Feature", "properties": {"stop_id": "50_02", "stop_name": "朴木口", "zone_id": "50_02", "location_type": "0"}, "geometry": {"type": "Point", "coordinates": [137.081111285714, 36.762101]}}, {"type": "Feature", "properties": {"stop_id": "51_01", "stop_name": "市民病院", "zone_id": "51_01", "location_type": "0"}, "geometry": {"type": "Point", "coordinates": [137.081699619047, 36.7594936666667]}}, {"type": "Feature", "properties": {"stop_id": "51_02", "stop_name": "市民病院", "zone_id": "51_02", "location_type": "0"}, "geometry": {"type": "Point", "coordinates": [137.081690095238, 36.7594186666667]}}, {"type": "Feature", "properties": {"stop_id": "51_03", "stop_name": "市民病院", "zone_id": "51_03", "location_type": "0"}, "geometry": {"type": "Point", "coordinates": [137.081659461434, 36.7592644830728]}}, {"type": "Feature", "properties": {"stop_id": "52_01", "stop_name": "鏡宮北", "zone_id": "52_01", "location_type": "0"}, "geometry": {"type": "Point", "coordinates": [137.083015, 36.753442]}}, {"type": "Feature", "properties": {"stop_id": "52_02", "stop_name": "鏡宮北", "zone_id": "52_02", "location_type": "0"}, "geometry": {"type": "Point", "coordinates": [137.083255, 36.7534569999999]}}, {"type": "Feature", "properties": {"stop_id": "53_01", "stop_name": "高木農村公園前", "zone_id": "53_01", "location_type": "0"}, "geometry": {"type": "Point", "coordinates": [137.083553428571, 36.743764]}}, {"type": "Feature", "properties": {"stop_id": "53_02", "stop_name": "高木農村公園前", "zone_id": "53_02", "location_type": "0"}, "geometry": {"type": "Point", "coordinates": [137.083530571429, 36.743639]}}, {"type": "Feature", "properties": {"stop_id": "54_01", "stop_name": "布目分庁舎前", "zone_id": "54_01", "location_type": "0"}, "geometry": {"type": "Point", "coordinates": [137.079027, 36.745357]}}, {"type": "Feature", "properties": {"stop_id": "55_01", "stop_name": "大島企業団地", "zone_id": "55_01", "location_type": "0"}, "geometry": {"type": "Point", "coordinates": [137.076185714286, 36.743921]}}, {"type": "Feature", "properties": {"stop_id": "55_02", "stop_name": "大島企業団地", "zone_id": "55_02", "location_type": "0"}, "geometry": {"type": "Point", "coordinates": [137.076317142857, 36.743811]}}, {"type": "Feature", "properties": {"stop_id": "56_02", "stop_name": "北高木", "zone_id": "56_02", "location_type": "0"}, "geometry": {"type": "Point", "coordinates": [137.069068523809, 36.738879]}}, {"type": "Feature", "properties": {"stop_id": "57_01", "stop_name": "小島北", "zone_id": "57_01", "location_type": "0"}, "geometry": {"type": "Point", "coordinates": [137.066076428571, 36.737383]}}, {"type": "Feature", "properties": {"stop_id": "58_01", "stop_name": "小島", "zone_id": "58_01", "location_type": "0"}, "geometry": {"type": "Point", "coordinates": [137.062988285714, 36.7368280000001]}}, {"type": "Feature", "properties": {"stop_id": "58_02", "stop_name": "小島", "zone_id": "58_02", "location_type": "0"}, "geometry": {"type": "Point", "coordinates": [137.062959714286, 36.736658]}}, {"type": "Feature", "properties": {"stop_id": "59_01", "stop_name": "アプリオ前", "zone_id": "59_01", "location_type": "0"}, "geometry": {"type": "Point", "coordinates": [137.060448857143, 36.737158]}}, {"type": "Feature", "properties": {"stop_id": "59_02", "stop_name": "アプリオ前", "zone_id": "59_02", "location_type": "0"}, "geometry": {"type": "Point", "coordinates": [137.060568857142, 36.737003]}}, {"type": "Feature", "properties": {"stop_id": "59_03", "stop_name": "アプリオ前", "zone_id": "59_03", "location_type": "0"}, "geometry": {"type": "Point", "coordinates": [137.060255556492, 36.7359452874332]}}, {"type": "Feature", "properties": {"stop_id": "59_04", "stop_name": "アプリオ前", "zone_id": "59_04", "location_type": "0"}, "geometry": {"type": "Point", "coordinates": [137.059015473175, 36.7366351047651]}}, {"type": "Feature", "properties": {"stop_id": "60_01", "stop_name": "大島分庁舎前", "zone_id": "60_01", "location_type": "0"}, "geometry": {"type": "Point", "coordinates": [137.063787428572, 36.733292]}}, {"type": "Feature", "properties": {"stop_id": "60_02", "stop_name": "大島分庁舎前", "zone_id": "60_02", "location_type": "0"}, "geometry": {"type": "Point", "coordinates": [137.064124571429, 36.732787]}}, {"type": "Feature", "properties": {"stop_id": "61_01", "stop_name": "赤井市営住宅口", "zone_id": "61_01", "location_type": "0"}, "geometry": {"type": "Point", "coordinates": [137.066312142857, 36.7315200000002]}}, {"type": "Feature", "properties": {"stop_id": "61_02", "stop_name": "赤井市営住宅口", "zone_id": "61_02", "location_type": "0"}, "geometry": {"type": "Point", "coordinates": [137.066872142857, 36.7310650000001]}}, {"type": "Feature", "properties": {"stop_id": "62_01", "stop_name": "赤井コミュニティ21前", "zone_id": "62_01", "location_type": "0"}, "geometry": {"type": "Point", "coordinates": [137.068801714286, 36.7263799999999]}}, {"type": "Feature", "properties": {"stop_id": "62_02", "stop_name": "赤井コミュニティ21前", "zone_id": "62_02", "location_type": "0"}, "geometry": {"type": "Point", "coordinates": [137.069018857143, 36.7264]}}, {"type": "Feature", "properties": {"stop_id": "63_01", "stop_name": "大門中学校", "zone_id": "63_01", "location_type": "0"}, "geometry": {"type": "Point", "coordinates": [137.057702142857, 36.729374]}}, {"type": "Feature", "properties": {"stop_id": "63_02", "stop_name": "大門中学校", "zone_id": "63_02", "location_type": "0"}, "geometry": {"type": "Point", "coordinates": [137.057062142857, 36.729504]}}, {"type": "Feature", "properties": {"stop_id": "64_01", "stop_name": "JAいみず野前", "zone_id": "64_01", "location_type": "0"}, "geometry": {"type": "Point", "coordinates": [137.054601, 36.7311649999999]}}, {"type": "Feature", "properties": {"stop_id": "64_02", "stop_name": "JAいみず野前", "zone_id": "64_02", "location_type": "0"}, "geometry": {"type": "Point", "coordinates": [137.054303857143, 36.7311]}}, {"type": "Feature", "properties": {"stop_id": "65_01", "stop_name": "大島南部公園前", "zone_id": "65_01", "location_type": "0"}, "geometry": {"type": "Point", "coordinates": [137.053723285714, 36.7327610000001]}}, {"type": "Feature", "properties": {"stop_id": "65_02", "stop_name": "大島南部公園前", "zone_id": "65_02", "location_type": "0"}, "geometry": {"type": "Point", "coordinates": [137.053791857143, 36.732476]}}, {"type": "Feature", "properties": {"stop_id": "66_01", "stop_name": "越中大門駅", "zone_id": "66_01", "location_type": "0"}, "geometry": {"type": "Point", "coordinates": [137.054619, 36.734104]}}, {"type": "Feature", "properties": {"stop_id": "67_01", "stop_name": "足洗潟公園口", "zone_id": "67_01", "location_type": "0"}, "geometry": {"type": "Point", "coordinates": [137.167627142858, 36.759751]}}, {"type": "Feature", "properties": {"stop_id": "67_02", "stop_name": "足洗潟公園口", "zone_id": "67_02", "location_type": "0"}, "geometry": {"type": "Point", "coordinates": [137.167844285714, 36.7597143333334]}}, {"type": "Feature", "properties": {"stop_id": "68_02", "stop_name": "足洗公民館前", "zone_id": "68_02", "location_type": "0"}, "geometry": {"type": "Point", "coordinates": [137.173087, 36.758205]}}, {"type": "Feature", "properties": {"stop_id": "69_02", "stop_name": "本江コミュニティセンター前", "zone_id": "69_02", "location_type": "0"}, "geometry": {"type": "Point", "coordinates": [137.172199, 36.753421]}}, {"type": "Feature", "properties": {"stop_id": "70_01", "stop_name": "本江道番", "zone_id": "70_01", "location_type": "0"}, "geometry": {"type": "Point", "coordinates": [137.167325, 36.747385]}}, {"type": "Feature", "properties": {"stop_id": "71_02", "stop_name": "中新公民館前", "zone_id": "71_02", "location_type": "0"}, "geometry": {"type": "Point", "coordinates": [137.168536, 36.75353]}}, {"type": "Feature", "properties": {"stop_id": "72_02", "stop_name": "針山地蔵前", "zone_id": "72_02", "location_type": "0"}, "geometry": {"type": "Point", "coordinates": [137.162991571429, 36.757216]}}, {"type": "Feature", "properties": {"stop_id": "73_01", "stop_name": "富山高専口", "zone_id": "73_01", "location_type": "0"}, "geometry": {"type": "Point", "coordinates": [137.160020857143, 36.758758]}}, {"type": "Feature", "properties": {"stop_id": "74_01", "stop_name": "槍ケ崎", "zone_id": "74_01", "location_type": "0"}, "geometry": {"type": "Point", "coordinates": [137.156772142857, 36.761566]}}, {"type": "Feature", "properties": {"stop_id": "74_02", "stop_name": "槍ケ崎", "zone_id": "74_02", "location_type": "0"}, "geometry": {"type": "Point", "coordinates": [137.156707380953, 36.7614693333334]}}, {"type": "Feature", "properties": {"stop_id": "75_01", "stop_name": "海老江七軒", "zone_id": "75_01", "location_type": "0"}, "geometry": {"type": "Point", "coordinates": [137.154148761905, 36.7625496666667]}}, {"type": "Feature", "properties": {"stop_id": "75_02", "stop_name": "海老江七軒", "zone_id": "75_02", "location_type": "0"}, "geometry": {"type": "Point", "coordinates": [137.15385352381, 36.762383]}}, {"type": "Feature", "properties": {"stop_id": "76_01", "stop_name": "県営住宅前", "zone_id": "76_01", "location_type": "0"}, "geometry": {"type": "Point", "coordinates": [137.15104, 36.764067]}}, {"type": "Feature", "properties": {"stop_id": "77_01", "stop_name": "海老江西町東", "zone_id": "77_01", "location_type": "0"}, "geometry": {"type": "Point", "coordinates": [137.145973666667, 36.7656796666667]}}, {"type": "Feature", "properties": {"stop_id": "77_02", "stop_name": "海老江西町東", "zone_id": "77_02", "location_type": "0"}, "geometry": {"type": "Point", "coordinates": [137.146118428572, 36.7655196666667]}}, {"type": "Feature", "properties": {"stop_id": "78_01", "stop_name": "海老江西町", "zone_id": "78_01", "location_type": "0"}, "geometry": {"type": "Point", "coordinates": [137.144291428571, 36.766266]}}, {"type": "Feature", "properties": {"stop_id": "79_01", "stop_name": "海老江海浜公園口", "zone_id": "79_01", "location_type": "0"}, "geometry": {"type": "Point", "coordinates": [137.140543, 36.767605]}}, {"type": "Feature", "properties": {"stop_id": "80_01", "stop_name": "海竜スポーツランド", "zone_id": "80_01", "location_type": "0"}, "geometry": {"type": "Point", "coordinates": [137.134574952381, 36.771967]}}, {"type": "Feature", "properties": {"stop_id": "81_01", "stop_name": "草岡町前", "zone_id": "81_01", "location_type": "0"}, "geometry": {"type": "Point", "coordinates": [137.132091428571, 36.769633]}}, {"type": "Feature", "properties": {"stop_id": "81_02", "stop_name": "草岡町前", "zone_id": "81_02", "location_type": "0"}, "geometry": {"type": "Point", "coordinates": [137.132074285714, 36.769543]}}, {"type": "Feature", "properties": {"stop_id": "82_01", "stop_name": "堀岡古明神", "zone_id": "82_01", "location_type": "0"}, "geometry": {"type": "Point", "coordinates": [137.128450333333, 36.770175]}}, {"type": "Feature", "properties": {"stop_id": "82_02", "stop_name": "堀岡古明神", "zone_id": "82_02", "location_type": "0"}, "geometry": {"type": "Point", "coordinates": [137.128499857142, 36.770055]}}, {"type": "Feature", "properties": {"stop_id": "83_01", "stop_name": "堀岡東町", "zone_id": "83_01", "location_type": "0"}, "geometry": {"type": "Point", "coordinates": [137.124895, 36.771745]}}, {"type": "Feature", "properties": {"stop_id": "83_02", "stop_name": "堀岡東町", "zone_id": "83_02", "location_type": "0"}, "geometry": {"type": "Point", "coordinates": [137.124837857143, 36.771645]}}, {"type": "Feature", "properties": {"stop_id": "84_01", "stop_name": "新明町", "zone_id": "84_01", "location_type": "0"}, "geometry": {"type": "Point", "coordinates": [137.134031, 36.768272]}}, {"type": "Feature", "properties": {"stop_id": "84_02", "stop_name": "新明町", "zone_id": "84_02", "location_type": "0"}, "geometry": {"type": "Point", "coordinates": [137.134248142857, 36.767977]}}, {"type": "Feature", "properties": {"stop_id": "85_01", "stop_name": "七美中野", "zone_id": "85_01", "location_type": "0"}, "geometry": {"type": "Point", "coordinates": [137.134465, 36.760088]}}, {"type": "Feature", "properties": {"stop_id": "85_02", "stop_name": "七美中野", "zone_id": "85_02", "location_type": "0"}, "geometry": {"type": "Point", "coordinates": [137.134876428572, 36.760188]}}, {"type": "Feature", "properties": {"stop_id": "86_01", "stop_name": "二十六町口", "zone_id": "86_01", "location_type": "0"}, "geometry": {"type": "Point", "coordinates": [137.132315619048, 36.754908]}}, {"type": "Feature", "properties": {"stop_id": "86_02", "stop_name": "二十六町口", "zone_id": "86_02", "location_type": "0"}, "geometry": {"type": "Point", "coordinates": [137.131639428571, 36.7544246666667]}}, {"type": "Feature", "properties": {"stop_id": "87_01", "stop_name": "やんばいはうす片口前", "zone_id": "87_01", "location_type": "0"}, "geometry": {"type": "Point", "coordinates": [137.120679428571, 36.75896]}}, {"type": "Feature", "properties": {"stop_id": "87_02", "stop_name": "やんばいはうす片口前", "zone_id": "87_02", "location_type": "0"}, "geometry": {"type": "Point", "coordinates": [137.120965142857, 36.7590766666667]}}, {"type": "Feature", "properties": {"stop_id": "88_01", "stop_name": "片口北", "zone_id": "88_01", "location_type": "0"}, "geometry": {"type": "Point", "coordinates": [137.118121, 36.760382]}}, {"type": "Feature", "properties": {"stop_id": "89_01", "stop_name": "JAいみず野片口支店前", "zone_id": "89_01", "location_type": "0"}, "geometry": {"type": "Point", "coordinates": [137.11762, 36.757427]}}, {"type": "Feature", "properties": {"stop_id": "90_01", "stop_name": "片口小学校前", "zone_id": "90_01", "location_type": "0"}, "geometry": {"type": "Point", "coordinates": [137.117473285714, 36.75516]}}, {"type": "Feature", "properties": {"stop_id": "91_01", "stop_name": "高場口", "zone_id": "91_01", "location_type": "0"}, "geometry": {"type": "Point", "coordinates": [137.117237428571, 36.751749]}}, {"type": "Feature", "properties": {"stop_id": "92_01", "stop_name": "奈呉の江", "zone_id": "92_01", "location_type": "0"}, "geometry": {"type": "Point", "coordinates": [137.10341447619, 36.757549]}}, {"type": "Feature", "properties": {"stop_id": "92_02", "stop_name": "奈呉の江", "zone_id": "92_02", "location_type": "0"}, "geometry": {"type": "Point", "coordinates": [137.102490666667, 36.757824]}}, {"type": "Feature", "properties": {"stop_id": "93_01", "stop_name": "久々湊", "zone_id": "93_01", "location_type": "0"}, "geometry": {"type": "Point", "coordinates": [137.096964952381, 36.758021]}}, {"type": "Feature", "properties": {"stop_id": "93_02", "stop_name": "久々湊", "zone_id": "93_02", "location_type": "0"}, "geometry": {"type": "Point", "coordinates": [137.097184, 36.7578543333333]}}, {"type": "Feature", "properties": {"stop_id": "94_01", "stop_name": "新湊アイシン軽金属スポーツセンター前（新湊総合体育館前）", "zone_id": "94_01", "location_type": "0"}, "geometry": {"type": "Point", "coordinates": [137.092221, 36.760809]}}, {"type": "Feature", "properties": {"stop_id": "95_01", "stop_name": "新湊博物館前", "zone_id": "95_01", "location_type": "0"}, "geometry": {"type": "Point", "coordinates": [137.084765142857, 36.752806]}}, {"type": "Feature", "properties": {"stop_id": "95_02", "stop_name": "新湊博物館前", "zone_id": "95_02", "location_type": "0"}, "geometry": {"type": "Point", "coordinates": [137.084713714286, 36.752686]}}, {"type": "Feature", "properties": {"stop_id": "96_01", "stop_name": "サンビレッジ新湊前", "zone_id": "96_01", "location_type": "0"}, "geometry": {"type": "Point", "coordinates": [137.147083857143, 36.762553]}}, {"type": "Feature", "properties": {"stop_id": "96_02", "stop_name": "サンビレッジ新湊前", "zone_id": "96_02", "location_type": "0"}, "geometry": {"type": "Point", "coordinates": [137.147392428571, 36.762523]}}, {"type": "Feature", "properties": {"stop_id": "97_01", "stop_name": "八島口", "zone_id": "97_01", "location_type": "0"}, "geometry": {"type": "Point", "coordinates": [137.144715285714, 36.756587]}}, {"type": "Feature", "properties": {"stop_id": "97_02", "stop_name": "八島口", "zone_id": "97_02", "location_type": "0"}, "geometry": {"type": "Point", "coordinates": [137.144860047619, 36.7565803333333]}}, {"type": "Feature", "properties": {"stop_id": "98_01", "stop_name": "七美幼稚園前", "zone_id": "98_01", "location_type": "0"}, "geometry": {"type": "Point", "coordinates": [137.144318, 36.753746]}}, {"type": "Feature", "properties": {"stop_id": "98_02", "stop_name": "七美幼稚園前", "zone_id": "98_02", "location_type": "0"}, "geometry": {"type": "Point", "coordinates": [137.144318, 36.753721]}}, {"type": "Feature", "properties": {"stop_id": "99_01", "stop_name": "ケアハウス万葉前", "zone_id": "99_01", "location_type": "0"}, "geometry": {"type": "Point", "coordinates": [137.141703619048, 36.7518413333333]}}, {"type": "Feature", "properties": {"stop_id": "99_02", "stop_name": "ケアハウス万葉前", "zone_id": "99_02", "location_type": "0"}, "geometry": {"type": "Point", "coordinates": [137.141998857143, 36.7516413333333]}}, {"type": "Feature", "properties": {"stop_id": "100_02", "stop_name": "柳瀬公民館前", "zone_id": "100_02", "location_type": "0"}, "geometry": {"type": "Point", "coordinates": [137.14041452381, 36.7489983333333]}}, {"type": "Feature", "properties": {"stop_id": "101_01", "stop_name": "二十六町公民館前", "zone_id": "101_01", "location_type": "0"}, "geometry": {"type": "Point", "coordinates": [137.132775619048, 36.749416]}}, {"type": "Feature", "properties": {"stop_id": "102_02", "stop_name": "七美工業団地口", "zone_id": "102_02", "location_type": "0"}, "geometry": {"type": "Point", "coordinates": [137.132748904762, 36.751156]}}, {"type": "Feature", "properties": {"stop_id": "103_01", "stop_name": "リサイクルプラザ前", "zone_id": "103_01", "location_type": "0"}, "geometry": {"type": "Point", "coordinates": [137.124972333333, 36.74404]}}, {"type": "Feature", "properties": {"stop_id": "103_02", "stop_name": "リサイクルプラザ前", "zone_id": "103_02", "location_type": "0"}, "geometry": {"type": "Point", "coordinates": [137.125334238095, 36.7442816666667]}}, {"type": "Feature", "properties": {"stop_id": "104_01", "stop_name": "久々江公民館前", "zone_id": "104_01", "location_type": "0"}, "geometry": {"type": "Point", "coordinates": [137.118935, 36.7436926666667]}}, {"type": "Feature", "properties": {"stop_id": "105_01", "stop_name": "古高場", "zone_id": "105_01", "location_type": "0"}, "geometry": {"type": "Point", "coordinates": [137.113472571429, 36.745665]}}, {"type": "Feature", "properties": {"stop_id": "105_02", "stop_name": "古高場", "zone_id": "105_02", "location_type": "0"}, "geometry": {"type": "Point", "coordinates": [137.113426857143, 36.74549]}}, {"type": "Feature", "properties": {"stop_id": "106_01", "stop_name": "東津幡江公民館前", "zone_id": "106_01", "location_type": "0"}, "geometry": {"type": "Point", "coordinates": [137.108426285714, 36.745656]}}, {"type": "Feature", "properties": {"stop_id": "106_02", "stop_name": "東津幡江公民館前", "zone_id": "106_02", "location_type": "0"}, "geometry": {"type": "Point", "coordinates": [137.108540571429, 36.7454643333333]}}, {"type": "Feature", "properties": {"stop_id": "107_01", "stop_name": "西津幡江口", "zone_id": "107_01", "location_type": "0"}, "geometry": {"type": "Point", "coordinates": [137.100012714286, 36.745215]}}, {"type": "Feature", "properties": {"stop_id": "107_02", "stop_name": "西津幡江口", "zone_id": "107_02", "location_type": "0"}, "geometry": {"type": "Point", "coordinates": [137.100024142857, 36.745045]}}, {"type": "Feature", "properties": {"stop_id": "108_01", "stop_name": "作道小学校前", "zone_id": "108_01", "location_type": "0"}, "geometry": {"type": "Point", "coordinates": [137.090778238095, 36.746885]}}, {"type": "Feature", "properties": {"stop_id": "108_02", "stop_name": "作道小学校前", "zone_id": "108_02", "location_type": "0"}, "geometry": {"type": "Point", "coordinates": [137.090883, 36.74686]}}, {"type": "Feature", "properties": {"stop_id": "109_01", "stop_name": "野村", "zone_id": "109_01", "location_type": "0"}, "geometry": {"type": "Point", "coordinates": [137.094331857143, 36.7511473333333]}}, {"type": "Feature", "properties": {"stop_id": "110_01", "stop_name": "作道自治公民館前", "zone_id": "110_01", "location_type": "0"}, "geometry": {"type": "Point", "coordinates": [137.093095238095, 36.752365]}}, {"type": "Feature", "properties": {"stop_id": "111_01", "stop_name": "新湊南部中学校前", "zone_id": "111_01", "location_type": "0"}, "geometry": {"type": "Point", "coordinates": [137.083888285714, 36.7558663333333]}}, {"type": "Feature", "properties": {"stop_id": "111_02", "stop_name": "新湊南部中学校前", "zone_id": "111_02", "location_type": "0"}, "geometry": {"type": "Point", "coordinates": [137.083831142857, 36.7555996666667]}}, {"type": "Feature", "properties": {"stop_id": "112_02", "stop_name": "鏡宮公民館前", "zone_id": "112_02", "location_type": "0"}, "geometry": {"type": "Point", "coordinates": [137.084130428571, 36.748764]}}, {"type": "Feature", "properties": {"stop_id": "113_01", "stop_name": "殿村口", "zone_id": "113_01", "location_type": "0"}, "geometry": {"type": "Point", "coordinates": [137.090564142857, 36.746384]}}, {"type": "Feature", "properties": {"stop_id": "114_01", "stop_name": "殿村公民館前", "zone_id": "114_01", "location_type": "0"}, "geometry": {"type": "Point", "coordinates": [137.091529428571, 36.743699]}}, {"type": "Feature", "properties": {"stop_id": "114_02", "stop_name": "殿村公民館前", "zone_id": "114_02", "location_type": "0"}, "geometry": {"type": "Point", "coordinates": [137.091626571429, 36.743554]}}, {"type": "Feature", "properties": {"stop_id": "115_02", "stop_name": "今井神社前", "zone_id": "115_02", "location_type": "0"}, "geometry": {"type": "Point", "coordinates": [137.091159904762, 36.739896]}}, {"type": "Feature", "properties": {"stop_id": "116_01", "stop_name": "沖", "zone_id": "116_01", "location_type": "0"}, "geometry": {"type": "Point", "coordinates": [137.096239952381, 36.736931]}}, {"type": "Feature", "properties": {"stop_id": "117_01", "stop_name": "今井南口", "zone_id": "117_01", "location_type": "0"}, "geometry": {"type": "Point", "coordinates": [137.089942714286, 36.737486]}}, {"type": "Feature", "properties": {"stop_id": "118_01", "stop_name": "沖塚原", "zone_id": "118_01", "location_type": "0"}, "geometry": {"type": "Point", "coordinates": [137.070388428571, 36.749081]}}, {"type": "Feature", "properties": {"stop_id": "118_02", "stop_name": "沖塚原", "zone_id": "118_02", "location_type": "0"}, "geometry": {"type": "Point", "coordinates": [137.070399857143, 36.748966]}}, {"type": "Feature", "properties": {"stop_id": "119_01", "stop_name": "沖塚原西口", "zone_id": "119_01", "location_type": "0"}, "geometry": {"type": "Point", "coordinates": [137.067996, 36.749707]}}, {"type": "Feature", "properties": {"stop_id": "119_02", "stop_name": "沖塚原西口", "zone_id": "119_02", "location_type": "0"}, "geometry": {"type": "Point", "coordinates": [137.067950285714, 36.749587]}}, {"type": "Feature", "properties": {"stop_id": "120_01", "stop_name": "寺塚原公民館前", "zone_id": "120_01", "location_type": "0"}, "geometry": {"type": "Point", "coordinates": [137.061032, 36.749604]}}, {"type": "Feature", "properties": {"stop_id": "121_01", "stop_name": "寺塚原中", "zone_id": "121_01", "location_type": "0"}, "geometry": {"type": "Point", "coordinates": [137.057276, 36.749914]}}, {"type": "Feature", "properties": {"stop_id": "122_01", "stop_name": "寺塚原西口", "zone_id": "122_01", "location_type": "0"}, "geometry": {"type": "Point", "coordinates": [137.053448714286, 36.750993]}}, {"type": "Feature", "properties": {"stop_id": "122_02", "stop_name": "寺塚原西口", "zone_id": "122_02", "location_type": "0"}, "geometry": {"type": "Point", "coordinates": [137.053608714286, 36.750983]}}, {"type": "Feature", "properties": {"stop_id": "123_01", "stop_name": "坂東公民館前", "zone_id": "123_01", "location_type": "0"}, "geometry": {"type": "Point", "coordinates": [137.056625809524, 36.754659]}}, {"type": "Feature", "properties": {"stop_id": "124_01", "stop_name": "川口", "zone_id": "124_01", "location_type": "0"}, "geometry": {"type": "Point", "coordinates": [137.058243285714, 36.760398]}}, {"type": "Feature", "properties": {"stop_id": "125_01", "stop_name": "宮袋", "zone_id": "125_01", "location_type": "0"}, "geometry": {"type": "Point", "coordinates": [137.059668, 36.767414]}}, {"type": "Feature", "properties": {"stop_id": "126_01", "stop_name": "松木北口", "zone_id": "126_01", "location_type": "0"}, "geometry": {"type": "Point", "coordinates": [137.069425238095, 36.765276]}}, {"type": "Feature", "properties": {"stop_id": "126_02", "stop_name": "松木北口", "zone_id": "126_02", "location_type": "0"}, "geometry": {"type": "Point", "coordinates": [137.069806190476, 36.765526]}}, {"type": "Feature", "properties": {"stop_id": "127_01", "stop_name": "松木", "zone_id": "127_01", "location_type": "0"}, "geometry": {"type": "Point", "coordinates": [137.064209571429, 36.7609476666667]}}, {"type": "Feature", "properties": {"stop_id": "127_02", "stop_name": "松木", "zone_id": "127_02", "location_type": "0"}, "geometry": {"type": "Point", "coordinates": [137.064285761905, 36.7606726666667]}}, {"type": "Feature", "properties": {"stop_id": "128_01", "stop_name": "松木公民館前", "zone_id": "128_01", "location_type": "0"}, "geometry": {"type": "Point", "coordinates": [137.067254619048, 36.7595813333333]}}, {"type": "Feature", "properties": {"stop_id": "129_01", "stop_name": "松木東口", "zone_id": "129_01", "location_type": "0"}, "geometry": {"type": "Point", "coordinates": [137.070080238095, 36.760274]}}, {"type": "Feature", "properties": {"stop_id": "130_01", "stop_name": "タカギセイコー", "zone_id": "130_01", "location_type": "0"}, "geometry": {"type": "Point", "coordinates": [137.061090428571, 36.7595586666667]}}, {"type": "Feature", "properties": {"stop_id": "130_02", "stop_name": "タカギセイコー", "zone_id": "130_02", "location_type": "0"}, "geometry": {"type": "Point", "coordinates": [137.061261857143, 36.7593836666667]}}, {"type": "Feature", "properties": {"stop_id": "131_01", "stop_name": "坂東", "zone_id": "131_01", "location_type": "0"}, "geometry": {"type": "Point", "coordinates": [137.055493190476, 36.755675]}}, {"type": "Feature", "properties": {"stop_id": "131_02", "stop_name": "坂東", "zone_id": "131_02", "location_type": "0"}, "geometry": {"type": "Point", "coordinates": [137.055569380952, 36.7553916666667]}}, {"type": "Feature", "properties": {"stop_id": "132_01", "stop_name": "大島北野", "zone_id": "132_01", "location_type": "0"}, "geometry": {"type": "Point", "coordinates": [137.052136714286, 36.7446030000001]}}, {"type": "Feature", "properties": {"stop_id": "132_02", "stop_name": "大島北野", "zone_id": "132_02", "location_type": "0"}, "geometry": {"type": "Point", "coordinates": [137.052039571429, 36.744473]}}, {"type": "Feature", "properties": {"stop_id": "134_01", "stop_name": "いみず苑口", "zone_id": "134_01", "location_type": "0"}, "geometry": {"type": "Point", "coordinates": [137.143057047619, 36.7516366666667]}}, {"type": "Feature", "properties": {"stop_id": "135_01", "stop_name": "JAいみず野東部支店前", "zone_id": "135_01", "location_type": "0"}, "geometry": {"type": "Point", "coordinates": [137.151723571428, 36.742717]}}, {"type": "Feature", "properties": {"stop_id": "135_02", "stop_name": "JAいみず野東部支店前", "zone_id": "135_02", "location_type": "0"}, "geometry": {"type": "Point", "coordinates": [137.151792142857, 36.742562]}}, {"type": "Feature", "properties": {"stop_id": "136_01", "stop_name": "加茂コミュニティ施設前", "zone_id": "136_01", "location_type": "0"}, "geometry": {"type": "Point", "coordinates": [137.145245571428, 36.739875]}}, {"type": "Feature", "properties": {"stop_id": "137_01", "stop_name": "加茂中部西", "zone_id": "137_01", "location_type": "0"}, "geometry": {"type": "Point", "coordinates": [137.142678714286, 36.738462]}}, {"type": "Feature", "properties": {"stop_id": "138_01", "stop_name": "倉垣小杉口", "zone_id": "138_01", "location_type": "0"}, "geometry": {"type": "Point", "coordinates": [137.140188, 36.735314]}}, {"type": "Feature", "properties": {"stop_id": "138_02", "stop_name": "倉垣小杉口", "zone_id": "138_02", "location_type": "0"}, "geometry": {"type": "Point", "coordinates": [137.140279428571, 36.735029]}}, {"type": "Feature", "properties": {"stop_id": "139_01", "stop_name": "白石神社前", "zone_id": "139_01", "location_type": "0"}, "geometry": {"type": "Point", "coordinates": [137.138781857143, 36.732133]}}, {"type": "Feature", "properties": {"stop_id": "139_02", "stop_name": "白石神社前", "zone_id": "139_02", "location_type": "0"}, "geometry": {"type": "Point", "coordinates": [137.138953285714, 36.732013]}}, {"type": "Feature", "properties": {"stop_id": "140_01", "stop_name": "白石口", "zone_id": "140_01", "location_type": "0"}, "geometry": {"type": "Point", "coordinates": [137.137493142857, 36.729773]}}, {"type": "Feature", "properties": {"stop_id": "141_02", "stop_name": "今井公民館前", "zone_id": "141_02", "location_type": "0"}, "geometry": {"type": "Point", "coordinates": [137.090738238095, 36.7402603333333]}}, {"type": "Feature", "properties": {"stop_id": "142_01", "stop_name": "今開発北", "zone_id": "142_01", "location_type": "0"}, "geometry": {"type": "Point", "coordinates": [137.088898714286, 36.7325269999999]}}, {"type": "Feature", "properties": {"stop_id": "142_02", "stop_name": "今開発北", "zone_id": "142_02", "location_type": "0"}, "geometry": {"type": "Point", "coordinates": [137.089121571429, 36.732912]}}, {"type": "Feature", "properties": {"stop_id": "143_01", "stop_name": "一番町", "zone_id": "143_01", "location_type": "0"}, "geometry": {"type": "Point", "coordinates": [137.089529714286, 36.722652]}}, {"type": "Feature", "properties": {"stop_id": "143_02", "stop_name": "一番町", "zone_id": "143_02", "location_type": "0"}, "geometry": {"type": "Point", "coordinates": [137.089318285714, 36.722537]}}, {"type": "Feature", "properties": {"stop_id": "144_01", "stop_name": "昭和通り", "zone_id": "144_01", "location_type": "0"}, "geometry": {"type": "Point", "coordinates": [137.108299285714, 36.719022]}}, {"type": "Feature", "properties": {"stop_id": "144_02", "stop_name": "昭和通り", "zone_id": "144_02", "location_type": "0"}, "geometry": {"type": "Point", "coordinates": [137.108253571429, 36.718842]}}, {"type": "Feature", "properties": {"stop_id": "145_01", "stop_name": "手崎東口", "zone_id": "145_01", "location_type": "0"}, "geometry": {"type": "Point", "coordinates": [137.116114, 36.718365]}}, {"type": "Feature", "properties": {"stop_id": "145_02", "stop_name": "手崎東口", "zone_id": "145_02", "location_type": "0"}, "geometry": {"type": "Point", "coordinates": [137.116279714286, 36.71817]}}, {"type": "Feature", "properties": {"stop_id": "146_02", "stop_name": "鷲塚東", "zone_id": "146_02", "location_type": "0"}, "geometry": {"type": "Point", "coordinates": [137.120935857143, 36.7201503333333]}}, {"type": "Feature", "properties": {"stop_id": "147_01", "stop_name": "田町公民館前", "zone_id": "147_01", "location_type": "0"}, "geometry": {"type": "Point", "coordinates": [137.051270428571, 36.734233]}}, {"type": "Feature", "properties": {"stop_id": "147_02", "stop_name": "田町公民館前", "zone_id": "147_02", "location_type": "0"}, "geometry": {"type": "Point", "coordinates": [137.051356142857, 36.734213]}}, {"type": "Feature", "properties": {"stop_id": "148_01", "stop_name": "東洋紡前", "zone_id": "148_01", "location_type": "0"}, "geometry": {"type": "Point", "coordinates": [137.049190571429, 36.737752]}}, {"type": "Feature", "properties": {"stop_id": "148_02", "stop_name": "東洋紡前", "zone_id": "148_02", "location_type": "0"}, "geometry": {"type": "Point", "coordinates": [137.049442, 36.737742]}}, {"type": "Feature", "properties": {"stop_id": "149_01", "stop_name": "大門口", "zone_id": "149_01", "location_type": "0"}, "geometry": {"type": "Point", "coordinates": [137.049637, 36.740219]}}, {"type": "Feature", "properties": {"stop_id": "149_02", "stop_name": "大門口", "zone_id": "149_02", "location_type": "0"}, "geometry": {"type": "Point", "coordinates": [137.049814142857, 36.740194]}}, {"type": "Feature", "properties": {"stop_id": "150_01", "stop_name": "大島北野公民館前", "zone_id": "150_01", "location_type": "0"}, "geometry": {"type": "Point", "coordinates": [137.050173, 36.743789]}}, {"type": "Feature", "properties": {"stop_id": "151_01", "stop_name": "若杉北", "zone_id": "151_01", "location_type": "0"}, "geometry": {"type": "Point", "coordinates": [137.054422142857, 36.743272]}}, {"type": "Feature", "properties": {"stop_id": "152_01", "stop_name": "中野", "zone_id": "152_01", "location_type": "0"}, "geometry": {"type": "Point", "coordinates": [137.058696571429, 36.742328]}}, {"type": "Feature", "properties": {"stop_id": "152_02", "stop_name": "中野", "zone_id": "152_02", "location_type": "0"}, "geometry": {"type": "Point", "coordinates": [137.058690857143, 36.742108]}}, {"type": "Feature", "properties": {"stop_id": "153_01", "stop_name": "中野北", "zone_id": "153_01", "location_type": "0"}, "geometry": {"type": "Point", "coordinates": [137.060741, 36.74547]}}, {"type": "Feature", "properties": {"stop_id": "153_02", "stop_name": "中野北", "zone_id": "153_02", "location_type": "0"}, "geometry": {"type": "Point", "coordinates": [137.060735285714, 36.74553]}}, {"type": "Feature", "properties": {"stop_id": "154_01", "stop_name": "小島西", "zone_id": "154_01", "location_type": "0"}, "geometry": {"type": "Point", "coordinates": [137.058657, 36.740074]}}, {"type": "Feature", "properties": {"stop_id": "154_02", "stop_name": "小島西", "zone_id": "154_02", "location_type": "0"}, "geometry": {"type": "Point", "coordinates": [137.058519857142, 36.739974]}}, {"type": "Feature", "properties": {"stop_id": "156_01", "stop_name": "小杉中学校口", "zone_id": "156_01", "location_type": "0"}, "geometry": {"type": "Point", "coordinates": [137.090867095238, 36.7175903333333]}}, {"type": "Feature", "properties": {"stop_id": "156_02", "stop_name": "小杉中学校口", "zone_id": "156_02", "location_type": "0"}, "geometry": {"type": "Point", "coordinates": [137.091124238095, 36.7177736666667]}}, {"type": "Feature", "properties": {"stop_id": "157_01", "stop_name": "いみずのショッピングタウン前", "zone_id": "157_01", "location_type": "0"}, "geometry": {"type": "Point", "coordinates": [137.089015857143, 36.713656]}}, {"type": "Feature", "properties": {"stop_id": "157_02", "stop_name": "いみずのショッピングタウン前", "zone_id": "157_02", "location_type": "0"}, "geometry": {"type": "Point", "coordinates": [137.089227285714, 36.713701]}}, {"type": "Feature", "properties": {"stop_id": "158_01", "stop_name": "一条", "zone_id": "158_01", "location_type": "0"}, "geometry": {"type": "Point", "coordinates": [137.087397714286, 36.712446]}}, {"type": "Feature", "properties": {"stop_id": "158_02", "stop_name": "一条", "zone_id": "158_02", "location_type": "0"}, "geometry": {"type": "Point", "coordinates": [137.087352, 36.712336]}}, {"type": "Feature", "properties": {"stop_id": "159_01", "stop_name": "赤田", "zone_id": "159_01", "location_type": "0"}, "geometry": {"type": "Point", "coordinates": [137.085517666667, 36.7141766666667]}}, {"type": "Feature", "properties": {"stop_id": "159_02", "stop_name": "赤田", "zone_id": "159_02", "location_type": "0"}, "geometry": {"type": "Point", "coordinates": [137.085523380952, 36.7139866666666]}}, {"type": "Feature", "properties": {"stop_id": "160_01", "stop_name": "下条新", "zone_id": "160_01", "location_type": "0"}, "geometry": {"type": "Point", "coordinates": [137.080769904762, 36.7163073333333]}}, {"type": "Feature", "properties": {"stop_id": "160_02", "stop_name": "下条新", "zone_id": "160_02", "location_type": "0"}, "geometry": {"type": "Point", "coordinates": [137.080541333333, 36.7161906666667]}}, {"type": "Feature", "properties": {"stop_id": "161_01", "stop_name": "真生会富山病院前", "zone_id": "161_01", "location_type": "0"}, "geometry": {"type": "Point", "coordinates": [137.076931, 36.71749]}}, {"type": "Feature", "properties": {"stop_id": "162_01", "stop_name": "本田", "zone_id": "162_01", "location_type": "0"}, "geometry": {"type": "Point", "coordinates": [137.074002, 36.719322]}}, {"type": "Feature", "properties": {"stop_id": "162_02", "stop_name": "本田", "zone_id": "162_02", "location_type": "0"}, "geometry": {"type": "Point", "coordinates": [137.073904857143, 36.719197]}}, {"type": "Feature", "properties": {"stop_id": "163_01", "stop_name": "大門コミュニティセントー", "zone_id": "163_01", "location_type": "0"}, "geometry": {"type": "Point", "coordinates": [137.044374, 36.706739]}}, {"type": "Feature", "properties": {"stop_id": "164_01", "stop_name": "牧田", "zone_id": "164_01", "location_type": "0"}, "geometry": {"type": "Point", "coordinates": [137.040649, 36.704285]}}, {"type": "Feature", "properties": {"stop_id": "165_01", "stop_name": "串田本村北", "zone_id": "165_01", "location_type": "0"}, "geometry": {"type": "Point", "coordinates": [137.038710571429, 36.7005786666667]}}, {"type": "Feature", "properties": {"stop_id": "166_01", "stop_name": "串田本村", "zone_id": "166_01", "location_type": "0"}, "geometry": {"type": "Point", "coordinates": [137.038679571429, 36.695739]}}, {"type": "Feature", "properties": {"stop_id": "167_01", "stop_name": "西村構造改善センター前", "zone_id": "167_01", "location_type": "0"}, "geometry": {"type": "Point", "coordinates": [137.030001857143, 36.697074]}}, {"type": "Feature", "properties": {"stop_id": "168_01", "stop_name": "西広上", "zone_id": "168_01", "location_type": "0"}, "geometry": {"type": "Point", "coordinates": [137.017498333333, 36.7009833333333]}}, {"type": "Feature", "properties": {"stop_id": "169_01", "stop_name": "広上構造改善センター前", "zone_id": "169_01", "location_type": "0"}, "geometry": {"type": "Point", "coordinates": [137.025690285714, 36.700395]}}, {"type": "Feature", "properties": {"stop_id": "170_01", "stop_name": "ほたる野ヴィレッジ", "zone_id": "170_01", "location_type": "0"}, "geometry": {"type": "Point", "coordinates": [137.026994, 36.703737]}}, {"type": "Feature", "properties": {"stop_id": "171_01", "stop_name": "ほたる野ヴィレッジ北", "zone_id": "171_01", "location_type": "0"}, "geometry": {"type": "Point", "coordinates": [137.028839, 36.706554]}}, {"type": "Feature", "properties": {"stop_id": "172_01", "stop_name": "上条団地公民館前", "zone_id": "172_01", "location_type": "0"}, "geometry": {"type": "Point", "coordinates": [137.030416, 36.708145]}}, {"type": "Feature", "properties": {"stop_id": "173_01", "stop_name": "小泉口", "zone_id": "173_01", "location_type": "0"}, "geometry": {"type": "Point", "coordinates": [137.032696, 36.707401]}}, {"type": "Feature", "properties": {"stop_id": "174_02", "stop_name": "小泉", "zone_id": "174_02", "location_type": "0"}, "geometry": {"type": "Point", "coordinates": [137.031215714286, 36.703949]}}, {"type": "Feature", "properties": {"stop_id": "175_01", "stop_name": "浅井コミュニティセンター口", "zone_id": "175_01", "location_type": "0"}, "geometry": {"type": "Point", "coordinates": [137.038726285714, 36.713382]}}, {"type": "Feature", "properties": {"stop_id": "175_02", "stop_name": "浅井コミュニティセンター口", "zone_id": "175_02", "location_type": "0"}, "geometry": {"type": "Point", "coordinates": [137.039646285714, 36.713967]}}, {"type": "Feature", "properties": {"stop_id": "176_01", "stop_name": "土合南", "zone_id": "176_01", "location_type": "0"}, "geometry": {"type": "Point", "coordinates": [137.039943333333, 36.7186816666667]}}, {"type": "Feature", "properties": {"stop_id": "177_01", "stop_name": "土合公民館前", "zone_id": "177_01", "location_type": "0"}, "geometry": {"type": "Point", "coordinates": [137.040292, 36.721116]}}, {"type": "Feature", "properties": {"stop_id": "178_01", "stop_name": "土合", "zone_id": "178_01", "location_type": "0"}, "geometry": {"type": "Point", "coordinates": [137.04218, 36.723446]}}, {"type": "Feature", "properties": {"stop_id": "179_01", "stop_name": "土合北部公民館前", "zone_id": "179_01", "location_type": "0"}, "geometry": {"type": "Point", "coordinates": [137.04398547619, 36.7268713333333]}}, {"type": "Feature", "properties": {"stop_id": "180_01", "stop_name": "土合北部", "zone_id": "180_01", "location_type": "0"}, "geometry": {"type": "Point", "coordinates": [137.045116571429, 36.729529]}}, {"type": "Feature", "properties": {"stop_id": "180_02", "stop_name": "土合北部", "zone_id": "180_02", "location_type": "0"}, "geometry": {"type": "Point", "coordinates": [137.045088, 36.729779]}}, {"type": "Feature", "properties": {"stop_id": "181_01", "stop_name": "大門錦町中", "zone_id": "181_01", "location_type": "0"}, "geometry": {"type": "Point", "coordinates": [137.046749142857, 36.733226]}}, {"type": "Feature", "properties": {"stop_id": "182_01", "stop_name": "大門中町", "zone_id": "182_01", "location_type": "0"}, "geometry": {"type": "Point", "coordinates": [137.048665571429, 36.734691]}}, {"type": "Feature", "properties": {"stop_id": "184_01", "stop_name": "大門高校西", "zone_id": "184_01", "location_type": "0"}, "geometry": {"type": "Point", "coordinates": [137.062507142857, 36.725604]}}, {"type": "Feature", "properties": {"stop_id": "184_02", "stop_name": "大門高校西", "zone_id": "184_02", "location_type": "0"}, "geometry": {"type": "Point", "coordinates": [137.062745238095, 36.7254956666667]}}, {"type": "Feature", "properties": {"stop_id": "191_01", "stop_name": "上条", "zone_id": "191_01", "location_type": "0"}, "geometry": {"type": "Point", "coordinates": [137.032599, 36.710885]}}, {"type": "Feature", "properties": {"stop_id": "192_01", "stop_name": "布目沢集会所前", "zone_id": "192_01", "location_type": "0"}, "geometry": {"type": "Point", "coordinates": [137.047334285714, 36.7041616666666]}}, {"type": "Feature", "properties": {"stop_id": "192_02", "stop_name": "布目沢集会所前", "zone_id": "192_02", "location_type": "0"}, "geometry": {"type": "Point", "coordinates": [137.047311428571, 36.704]}}, {"type": "Feature", "properties": {"stop_id": "193_01", "stop_name": "布目沢", "zone_id": "193_01", "location_type": "0"}, "geometry": {"type": "Point", "coordinates": [137.048304, 36.701226]}}, {"type": "Feature", "properties": {"stop_id": "194_01", "stop_name": "南荒町", "zone_id": "194_01", "location_type": "0"}, "geometry": {"type": "Point", "coordinates": [137.047755, 36.695367]}}, {"type": "Feature", "properties": {"stop_id": "194_02", "stop_name": "南荒町", "zone_id": "194_02", "location_type": "0"}, "geometry": {"type": "Point", "coordinates": [137.047720714286, 36.695282]}}, {"type": "Feature", "properties": {"stop_id": "195_01", "stop_name": "松原公民館前", "zone_id": "195_01", "location_type": "0"}, "geometry": {"type": "Point", "coordinates": [137.042137, 36.692588]}}, {"type": "Feature", "properties": {"stop_id": "196_01", "stop_name": "弓の清水", "zone_id": "196_01", "location_type": "0"}, "geometry": {"type": "Point", "coordinates": [137.039441857143, 36.688846]}}, {"type": "Feature", "properties": {"stop_id": "197_01", "stop_name": "新田公民館前", "zone_id": "197_01", "location_type": "0"}, "geometry": {"type": "Point", "coordinates": [137.039584714286, 36.684158]}}, {"type": "Feature", "properties": {"stop_id": "198_01", "stop_name": "大久保公民館前", "zone_id": "198_01", "location_type": "0"}, "geometry": {"type": "Point", "coordinates": [137.038182571429, 36.679779]}}, {"type": "Feature", "properties": {"stop_id": "199_01", "stop_name": "竹原構造改善センター前", "zone_id": "199_01", "location_type": "0"}, "geometry": {"type": "Point", "coordinates": [137.041826857143, 36.678539]}}, {"type": "Feature", "properties": {"stop_id": "200_01", "stop_name": "梅ノ木公民館前", "zone_id": "200_01", "location_type": "0"}, "geometry": {"type": "Point", "coordinates": [137.044466142857, 36.683099]}}, {"type": "Feature", "properties": {"stop_id": "201_01", "stop_name": "宮新田", "zone_id": "201_01", "location_type": "0"}, "geometry": {"type": "Point", "coordinates": [137.047457428571, 36.691335]}}, {"type": "Feature", "properties": {"stop_id": "202_01", "stop_name": "北荒町", "zone_id": "202_01", "location_type": "0"}, "geometry": {"type": "Point", "coordinates": [137.051805428571, 36.695837]}}, {"type": "Feature", "properties": {"stop_id": "203_01", "stop_name": "パークゴルフ南郷前", "zone_id": "203_01", "location_type": "0"}, "geometry": {"type": "Point", "coordinates": [137.056198428571, 36.6969686666667]}}, {"type": "Feature", "properties": {"stop_id": "204_01", "stop_name": "円池口", "zone_id": "204_01", "location_type": "0"}, "geometry": {"type": "Point", "coordinates": [137.057219095238, 36.7018093333333]}}, {"type": "Feature", "properties": {"stop_id": "205_01", "stop_name": "大門企業団地", "zone_id": "205_01", "location_type": "0"}, "geometry": {"type": "Point", "coordinates": [137.04863152381, 36.7080086666667]}}, {"type": "Feature", "properties": {"stop_id": "205_02", "stop_name": "大門企業団地", "zone_id": "205_02", "location_type": "0"}, "geometry": {"type": "Point", "coordinates": [137.048875333333, 36.7081603333333]}}, {"type": "Feature", "properties": {"stop_id": "206_01", "stop_name": "堀内南", "zone_id": "206_01", "location_type": "0"}, "geometry": {"type": "Point", "coordinates": [137.049224857143, 36.712294]}}, {"type": "Feature", "properties": {"stop_id": "206_02", "stop_name": "堀内南", "zone_id": "206_02", "location_type": "0"}, "geometry": {"type": "Point", "coordinates": [137.049464857143, 36.712239]}}, {"type": "Feature", "properties": {"stop_id": "207_01", "stop_name": "堀内", "zone_id": "207_01", "location_type": "0"}, "geometry": {"type": "Point", "coordinates": [137.049211285714, 36.715429]}}, {"type": "Feature", "properties": {"stop_id": "208_01", "stop_name": "下条構造改善センター前", "zone_id": "208_01", "location_type": "0"}, "geometry": {"type": "Point", "coordinates": [137.045101, 36.717227]}}, {"type": "Feature", "properties": {"stop_id": "211_01", "stop_name": "大門総合会館前", "zone_id": "211_01", "location_type": "0"}, "geometry": {"type": "Point", "coordinates": [137.049669, 36.733329]}}, {"type": "Feature", "properties": {"stop_id": "211_02", "stop_name": "大門総合会館前", "zone_id": "211_02", "location_type": "0"}, "geometry": {"type": "Point", "coordinates": [137.050400428572, 36.732884]}}, {"type": "Feature", "properties": {"stop_id": "212_01", "stop_name": "太閤山小学校前", "zone_id": "212_01", "location_type": "0"}, "geometry": {"type": "Point", "coordinates": [137.087733, 36.710193]}}, {"type": "Feature", "properties": {"stop_id": "212_02", "stop_name": "太閤山小学校前", "zone_id": "212_02", "location_type": "0"}, "geometry": {"type": "Point", "coordinates": [137.087950142857, 36.710018]}}, {"type": "Feature", "properties": {"stop_id": "213_01", "stop_name": "二ノ井公民館前", "zone_id": "213_01", "location_type": "0"}, "geometry": {"type": "Point", "coordinates": [137.082866, 36.70679]}}, {"type": "Feature", "properties": {"stop_id": "214_01", "stop_name": "橋下条コミュニティセンター前", "zone_id": "214_01", "location_type": "0"}, "geometry": {"type": "Point", "coordinates": [137.080742, 36.706344]}}, {"type": "Feature", "properties": {"stop_id": "215_01", "stop_name": "橋下条", "zone_id": "215_01", "location_type": "0"}, "geometry": {"type": "Point", "coordinates": [137.075301142857, 36.7061196666667]}}, {"type": "Feature", "properties": {"stop_id": "215_02", "stop_name": "橋下条", "zone_id": "215_02", "location_type": "0"}, "geometry": {"type": "Point", "coordinates": [137.075329714286, 36.705953]}}, {"type": "Feature", "properties": {"stop_id": "216_01", "stop_name": "水戸田口", "zone_id": "216_01", "location_type": "0"}, "geometry": {"type": "Point", "coordinates": [137.071926, 36.705392]}}, {"type": "Feature", "properties": {"stop_id": "217_01", "stop_name": "匠の里口", "zone_id": "217_01", "location_type": "0"}, "geometry": {"type": "Point", "coordinates": [137.067919, 36.70489]}}, {"type": "Feature", "properties": {"stop_id": "218_01", "stop_name": "若林", "zone_id": "218_01", "location_type": "0"}, "geometry": {"type": "Point", "coordinates": [137.060220285714, 36.707561]}}, {"type": "Feature", "properties": {"stop_id": "219_01", "stop_name": "市井", "zone_id": "219_01", "location_type": "0"}, "geometry": {"type": "Point", "coordinates": [137.057844428571, 36.7050603333333]}}, {"type": "Feature", "properties": {"stop_id": "220_01", "stop_name": "グリーンヒルズ若草病院前", "zone_id": "220_01", "location_type": "0"}, "geometry": {"type": "Point", "coordinates": [137.051643, 36.708227]}}, {"type": "Feature", "properties": {"stop_id": "221_01", "stop_name": "藤巻公民館前", "zone_id": "221_01", "location_type": "0"}, "geometry": {"type": "Point", "coordinates": [137.053011619048, 36.7114396666667]}}, {"type": "Feature", "properties": {"stop_id": "221_02", "stop_name": "藤巻公民館前", "zone_id": "221_02", "location_type": "0"}, "geometry": {"type": "Point", "coordinates": [137.053089714286, 36.711298]}}, {"type": "Feature", "properties": {"stop_id": "222_01", "stop_name": "開口西", "zone_id": "222_01", "location_type": "0"}, "geometry": {"type": "Point", "coordinates": [137.0554, 36.713316]}}, {"type": "Feature", "properties": {"stop_id": "222_02", "stop_name": "開口西", "zone_id": "222_02", "location_type": "0"}, "geometry": {"type": "Point", "coordinates": [137.055257142857, 36.7130243333333]}}, {"type": "Feature", "properties": {"stop_id": "223_01", "stop_name": "大門本江", "zone_id": "223_01", "location_type": "0"}, "geometry": {"type": "Point", "coordinates": [137.054060666667, 36.716068]}}, {"type": "Feature", "properties": {"stop_id": "224_01", "stop_name": "あおば台", "zone_id": "224_01", "location_type": "0"}, "geometry": {"type": "Point", "coordinates": [137.052807952381, 36.7190136666667]}}, {"type": "Feature", "properties": {"stop_id": "224_02", "stop_name": "あおば台", "zone_id": "224_02", "location_type": "0"}, "geometry": {"type": "Point", "coordinates": [137.053141285714, 36.718797]}}, {"type": "Feature", "properties": {"stop_id": "225_01", "stop_name": "二口コミュニティセンター前", "zone_id": "225_01", "location_type": "0"}, "geometry": {"type": "Point", "coordinates": [137.052072, 36.721429]}}, {"type": "Feature", "properties": {"stop_id": "225_02", "stop_name": "二口コミュニティセンター前", "zone_id": "225_02", "location_type": "0"}, "geometry": {"type": "Point", "coordinates": [137.052205333333, 36.7218206666667]}}, {"type": "Feature", "properties": {"stop_id": "226_01", "stop_name": "大門小学校西", "zone_id": "226_01", "location_type": "0"}, "geometry": {"type": "Point", "coordinates": [137.051691142857, 36.723742]}}, {"type": "Feature", "properties": {"stop_id": "226_02", "stop_name": "大門小学校西", "zone_id": "226_02", "location_type": "0"}, "geometry": {"type": "Point", "coordinates": [137.051908285714, 36.723707]}}, {"type": "Feature", "properties": {"stop_id": "227_01", "stop_name": "中村", "zone_id": "227_01", "location_type": "0"}, "geometry": {"type": "Point", "coordinates": [137.052546714286, 36.724365]}}, {"type": "Feature", "properties": {"stop_id": "227_02", "stop_name": "中村", "zone_id": "227_02", "location_type": "0"}, "geometry": {"type": "Point", "coordinates": [137.052466714286, 36.72423]}}, {"type": "Feature", "properties": {"stop_id": "228_01", "stop_name": "一番町南", "zone_id": "228_01", "location_type": "0"}, "geometry": {"type": "Point", "coordinates": [137.089475714286, 36.719785]}}, {"type": "Feature", "properties": {"stop_id": "228_02", "stop_name": "一番町南", "zone_id": "228_02", "location_type": "0"}, "geometry": {"type": "Point", "coordinates": [137.089681428571, 36.71966]}}, {"type": "Feature", "properties": {"stop_id": "229_01", "stop_name": "伊勢領", "zone_id": "229_01", "location_type": "0"}, "geometry": {"type": "Point", "coordinates": [137.086686285714, 36.716288]}}, {"type": "Feature", "properties": {"stop_id": "230_01", "stop_name": "五歩一", "zone_id": "230_01", "location_type": "0"}, "geometry": {"type": "Point", "coordinates": [137.077274714286, 36.700015]}}, {"type": "Feature", "properties": {"stop_id": "231_01", "stop_name": "宿屋", "zone_id": "231_01", "location_type": "0"}, "geometry": {"type": "Point", "coordinates": [137.074365714286, 36.691235]}}, {"type": "Feature", "properties": {"stop_id": "232_01", "stop_name": "青井谷公民館前", "zone_id": "232_01", "location_type": "0"}, "geometry": {"type": "Point", "coordinates": [137.073392761905, 36.6885936666667]}}, {"type": "Feature", "properties": {"stop_id": "233_01", "stop_name": "金山小学校前", "zone_id": "233_01", "location_type": "0"}, "geometry": {"type": "Point", "coordinates": [137.074946142857, 36.688127]}}, {"type": "Feature", "properties": {"stop_id": "233_02", "stop_name": "金山小学校前", "zone_id": "233_02", "location_type": "0"}, "geometry": {"type": "Point", "coordinates": [137.074845292064, 36.6871324654223]}}, {"type": "Feature", "properties": {"stop_id": "234_01", "stop_name": "新屋敷", "zone_id": "234_01", "location_type": "0"}, "geometry": {"type": "Point", "coordinates": [137.069514714286, 36.678813]}}, {"type": "Feature", "properties": {"stop_id": "234_02", "stop_name": "新屋敷", "zone_id": "234_02", "location_type": "0"}, "geometry": {"type": "Point", "coordinates": [137.06971014322, 36.6787697835931]}}, {"type": "Feature", "properties": {"stop_id": "235_01", "stop_name": "三野", "zone_id": "235_01", "location_type": "0"}, "geometry": {"type": "Point", "coordinates": [137.068718857143, 36.674637]}}, {"type": "Feature", "properties": {"stop_id": "235_02", "stop_name": "三野", "zone_id": "235_02", "location_type": "0"}, "geometry": {"type": "Point", "coordinates": [137.068845772841, 36.6750104417825]}}, {"type": "Feature", "properties": {"stop_id": "236_01", "stop_name": "野手", "zone_id": "236_01", "location_type": "0"}, "geometry": {"type": "Point", "coordinates": [137.069709285714, 36.6704623333333]}}, {"type": "Feature", "properties": {"stop_id": "237_01", "stop_name": "林寺", "zone_id": "237_01", "location_type": "0"}, "geometry": {"type": "Point", "coordinates": [137.073228285714, 36.681342]}}, {"type": "Feature", "properties": {"stop_id": "238_01", "stop_name": "上浄土寺", "zone_id": "238_01", "location_type": "0"}, "geometry": {"type": "Point", "coordinates": [137.077433714286, 36.677989]}}, {"type": "Feature", "properties": {"stop_id": "239_01", "stop_name": "小杉カントリー口", "zone_id": "239_01", "location_type": "0"}, "geometry": {"type": "Point", "coordinates": [137.078569, 36.673799]}}, {"type": "Feature", "properties": {"stop_id": "240_01", "stop_name": "浄土寺公民館前", "zone_id": "240_01", "location_type": "0"}, "geometry": {"type": "Point", "coordinates": [137.075718285714, 36.682107]}}, {"type": "Feature", "properties": {"stop_id": "241_01", "stop_name": "上野南", "zone_id": "241_01", "location_type": "0"}, "geometry": {"type": "Point", "coordinates": [137.081472714286, 36.689931]}}, {"type": "Feature", "properties": {"stop_id": "241_02", "stop_name": "上野南", "zone_id": "241_02", "location_type": "0"}, "geometry": {"type": "Point", "coordinates": [137.081526321885, 36.6897859312327]}}, {"type": "Feature", "properties": {"stop_id": "242_01", "stop_name": "上野", "zone_id": "242_01", "location_type": "0"}, "geometry": {"type": "Point", "coordinates": [137.082254428572, 36.69394]}}, {"type": "Feature", "properties": {"stop_id": "244_01", "stop_name": "南太閤山8丁目", "zone_id": "244_01", "location_type": "0"}, "geometry": {"type": "Point", "coordinates": [137.090424285714, 36.695649]}}, {"type": "Feature", "properties": {"stop_id": "244_02", "stop_name": "南太閤山8丁目", "zone_id": "244_02", "location_type": "0"}, "geometry": {"type": "Point", "coordinates": [137.090715714286, 36.695734]}}, {"type": "Feature", "properties": {"stop_id": "245_01", "stop_name": "南太閤山14丁目", "zone_id": "245_01", "location_type": "0"}, "geometry": {"type": "Point", "coordinates": [137.099105857143, 36.699278]}}, {"type": "Feature", "properties": {"stop_id": "245_02", "stop_name": "南太閤山14丁目", "zone_id": "245_02", "location_type": "0"}, "geometry": {"type": "Point", "coordinates": [137.099597285714, 36.699068]}}, {"type": "Feature", "properties": {"stop_id": "246_01", "stop_name": "環境科学センター前", "zone_id": "246_01", "location_type": "0"}, "geometry": {"type": "Point", "coordinates": [137.098830714286, 36.699724]}}, {"type": "Feature", "properties": {"stop_id": "246_02", "stop_name": "環境科学センター前", "zone_id": "246_02", "location_type": "0"}, "geometry": {"type": "Point", "coordinates": [137.098647857143, 36.700479]}}, {"type": "Feature", "properties": {"stop_id": "247_01", "stop_name": "パスコ前", "zone_id": "247_01", "location_type": "0"}, "geometry": {"type": "Point", "coordinates": [137.095944285714, 36.703125]}}, {"type": "Feature", "properties": {"stop_id": "247_02", "stop_name": "パスコ前", "zone_id": "247_02", "location_type": "0"}, "geometry": {"type": "Point", "coordinates": [137.096064285714, 36.70294]}}, {"type": "Feature", "properties": {"stop_id": "248_01", "stop_name": "中太閤山小学校前", "zone_id": "248_01", "location_type": "0"}, "geometry": {"type": "Point", "coordinates": [137.094557857143, 36.6999389999999]}}, {"type": "Feature", "properties": {"stop_id": "248_02", "stop_name": "中太閤山小学校前", "zone_id": "248_02", "location_type": "0"}, "geometry": {"type": "Point", "coordinates": [137.094575, 36.699809]}}, {"type": "Feature", "properties": {"stop_id": "248_03", "stop_name": "中太閤山小学校前", "zone_id": "248_03", "location_type": "0"}, "geometry": {"type": "Point", "coordinates": [137.095232877541, 36.7005134029173]}}, {"type": "Feature", "properties": {"stop_id": "248_04", "stop_name": "中太閤山小学校前", "zone_id": "248_04", "location_type": "0"}, "geometry": {"type": "Point", "coordinates": [137.095429029655, 36.7005241019083]}}, {"type": "Feature", "properties": {"stop_id": "249_01", "stop_name": "小杉南中学校前", "zone_id": "249_01", "location_type": "0"}, "geometry": {"type": "Point", "coordinates": [137.095191714286, 36.6994790000001]}}, {"type": "Feature", "properties": {"stop_id": "250_01", "stop_name": "天池公園前", "zone_id": "250_01", "location_type": "0"}, "geometry": {"type": "Point", "coordinates": [137.095202, 36.69818]}}, {"type": "Feature", "properties": {"stop_id": "250_02", "stop_name": "天池公園前", "zone_id": "250_02", "location_type": "0"}, "geometry": {"type": "Point", "coordinates": [137.095424857143, 36.698095]}}, {"type": "Feature", "properties": {"stop_id": "251_01", "stop_name": "南太閤山12丁目", "zone_id": "251_01", "location_type": "0"}, "geometry": {"type": "Point", "coordinates": [137.095117, 36.695895]}}, {"type": "Feature", "properties": {"stop_id": "251_02", "stop_name": "南太閤山12丁目", "zone_id": "251_02", "location_type": "0"}, "geometry": {"type": "Point", "coordinates": [137.095317, 36.696095]}}, {"type": "Feature", "properties": {"stop_id": "252_01", "stop_name": "住吉町", "zone_id": "252_01", "location_type": "0"}, "geometry": {"type": "Point", "coordinates": [137.081566428571, 36.72401]}}, {"type": "Feature", "properties": {"stop_id": "252_02", "stop_name": "住吉町", "zone_id": "252_02", "location_type": "0"}, "geometry": {"type": "Point", "coordinates": [137.082069285714, 36.723995]}}, {"type": "Feature", "properties": {"stop_id": "253_01", "stop_name": "水上", "zone_id": "253_01", "location_type": "0"}, "geometry": {"type": "Point", "coordinates": [137.078356952381, 36.7222976666667]}}, {"type": "Feature", "properties": {"stop_id": "253_02", "stop_name": "水上", "zone_id": "253_02", "location_type": "0"}, "geometry": {"type": "Point", "coordinates": [137.077976, 36.7218393333333]}}, {"type": "Feature", "properties": {"stop_id": "254_01", "stop_name": "太閤山10丁目", "zone_id": "254_01", "location_type": "0"}, "geometry": {"type": "Point", "coordinates": [137.091454, 36.71075]}}, {"type": "Feature", "properties": {"stop_id": "254_02", "stop_name": "太閤山10丁目", "zone_id": "254_02", "location_type": "0"}, "geometry": {"type": "Point", "coordinates": [137.091774, 36.710695]}}, {"type": "Feature", "properties": {"stop_id": "255_01", "stop_name": "太閤山9丁目", "zone_id": "255_01", "location_type": "0"}, "geometry": {"type": "Point", "coordinates": [137.090719857143, 36.709266]}}, {"type": "Feature", "properties": {"stop_id": "255_02", "stop_name": "太閤山9丁目", "zone_id": "255_02", "location_type": "0"}, "geometry": {"type": "Point", "coordinates": [137.091068428572, 36.709181]}}, {"type": "Feature", "properties": {"stop_id": "256_01", "stop_name": "太閤山相撲場前", "zone_id": "256_01", "location_type": "0"}, "geometry": {"type": "Point", "coordinates": [137.092162428571, 36.705909]}}, {"type": "Feature", "properties": {"stop_id": "256_02", "stop_name": "太閤山相撲場前", "zone_id": "256_02", "location_type": "0"}, "geometry": {"type": "Point", "coordinates": [137.091665285714, 36.705919]}}, {"type": "Feature", "properties": {"stop_id": "257_01", "stop_name": "富山県立大学前", "zone_id": "257_01", "location_type": "0"}, "geometry": {"type": "Point", "coordinates": [137.096273, 36.705131]}}, {"type": "Feature", "properties": {"stop_id": "257_02", "stop_name": "富山県立大学前", "zone_id": "257_02", "location_type": "0"}, "geometry": {"type": "Point", "coordinates": [137.096358714286, 36.705426]}}, {"type": "Feature", "properties": {"stop_id": "258_01", "stop_name": "中太閤山3丁目", "zone_id": "258_01", "location_type": "0"}, "geometry": {"type": "Point", "coordinates": [137.092859142857, 36.703114]}}, {"type": "Feature", "properties": {"stop_id": "258_02", "stop_name": "中太閤山3丁目", "zone_id": "258_02", "location_type": "0"}, "geometry": {"type": "Point", "coordinates": [137.092819142857, 36.703009]}}, {"type": "Feature", "properties": {"stop_id": "259_01", "stop_name": "中太閤山4丁目", "zone_id": "259_01", "location_type": "0"}, "geometry": {"type": "Point", "coordinates": [137.089942428571, 36.703436]}}, {"type": "Feature", "properties": {"stop_id": "259_02", "stop_name": "中太閤山4丁目", "zone_id": "259_02", "location_type": "0"}, "geometry": {"type": "Point", "coordinates": [137.089879571429, 36.703286]}}, {"type": "Feature", "properties": {"stop_id": "260_01", "stop_name": "中太閤山7丁目", "zone_id": "260_01", "location_type": "0"}, "geometry": {"type": "Point", "coordinates": [137.087796809524, 36.7020016666667]}}, {"type": "Feature", "properties": {"stop_id": "260_02", "stop_name": "中太閤山7丁目", "zone_id": "260_02", "location_type": "0"}, "geometry": {"type": "Point", "coordinates": [137.087987285714, 36.701735]}}, {"type": "Feature", "properties": {"stop_id": "261_01", "stop_name": "中太閤山9丁目", "zone_id": "261_01", "location_type": "0"}, "geometry": {"type": "Point", "coordinates": [137.090445571429, 36.699439]}}, {"type": "Feature", "properties": {"stop_id": "261_02", "stop_name": "中太閤山9丁目", "zone_id": "261_02", "location_type": "0"}, "geometry": {"type": "Point", "coordinates": [137.090552238095, 36.699529]}}, {"type": "Feature", "properties": {"stop_id": "262_01", "stop_name": "中太閤山コミュニティセンター前", "zone_id": "262_01", "location_type": "0"}, "geometry": {"type": "Point", "coordinates": [137.087229, 36.6988826666667]}}, {"type": "Feature", "properties": {"stop_id": "262_02", "stop_name": "中太閤山コミュニティセンター前", "zone_id": "262_02", "location_type": "0"}, "geometry": {"type": "Point", "coordinates": [137.087371857143, 36.6986826666667]}}, {"type": "Feature", "properties": {"stop_id": "263_01", "stop_name": "薬勝寺池南公園前", "zone_id": "263_01", "location_type": "0"}, "geometry": {"type": "Point", "coordinates": [137.085119714286, 36.697946]}}, {"type": "Feature", "properties": {"stop_id": "264_01", "stop_name": "花園公園前", "zone_id": "264_01", "location_type": "0"}, "geometry": {"type": "Point", "coordinates": [137.089152047619, 36.6970433333333]}}, {"type": "Feature", "properties": {"stop_id": "265_01", "stop_name": "平野", "zone_id": "265_01", "location_type": "0"}, "geometry": {"type": "Point", "coordinates": [137.097465571429, 36.693879]}}, {"type": "Feature", "properties": {"stop_id": "267_01", "stop_name": "エスポワールこすぎ前", "zone_id": "267_01", "location_type": "0"}, "geometry": {"type": "Point", "coordinates": [137.109299571428, 36.6844793333333]}}, {"type": "Feature", "properties": {"stop_id": "268_01", "stop_name": "山本新", "zone_id": "268_01", "location_type": "0"}, "geometry": {"type": "Point", "coordinates": [137.111073, 36.687437]}}, {"type": "Feature", "properties": {"stop_id": "268_02", "stop_name": "山本新", "zone_id": "268_02", "location_type": "0"}, "geometry": {"type": "Point", "coordinates": [137.111256046306, 36.687382562077]}}, {"type": "Feature", "properties": {"stop_id": "269_01", "stop_name": "山本新公民館前", "zone_id": "269_01", "location_type": "0"}, "geometry": {"type": "Point", "coordinates": [137.113239857143, 36.688999]}}, {"type": "Feature", "properties": {"stop_id": "270_01", "stop_name": "池多コミュニティセンター前", "zone_id": "270_01", "location_type": "0"}, "geometry": {"type": "Point", "coordinates": [137.115651, 36.688209]}}, {"type": "Feature", "properties": {"stop_id": "271_01", "stop_name": "北野会館前", "zone_id": "271_01", "location_type": "0"}, "geometry": {"type": "Point", "coordinates": [137.118057285714, 36.686384]}}, {"type": "Feature", "properties": {"stop_id": "272_01", "stop_name": "東太閤山4丁目", "zone_id": "272_01", "location_type": "0"}, "geometry": {"type": "Point", "coordinates": [137.114447571428, 36.69794]}}, {"type": "Feature", "properties": {"stop_id": "272_02", "stop_name": "東太閤山4丁目", "zone_id": "272_02", "location_type": "0"}, "geometry": {"type": "Point", "coordinates": [137.11454851459, 36.6977932221464]}}, {"type": "Feature", "properties": {"stop_id": "273_01", "stop_name": "東太閤山3丁目", "zone_id": "273_01", "location_type": "0"}, "geometry": {"type": "Point", "coordinates": [137.118447571429, 36.698364]}}, {"type": "Feature", "properties": {"stop_id": "273_02", "stop_name": "東太閤山3丁目", "zone_id": "273_02", "location_type": "0"}, "geometry": {"type": "Point", "coordinates": [137.118634688552, 36.6986169985517]}}, {"type": "Feature", "properties": {"stop_id": "274_01", "stop_name": "東太閤山北", "zone_id": "274_01", "location_type": "0"}, "geometry": {"type": "Point", "coordinates": [137.118709, 36.700845]}}, {"type": "Feature", "properties": {"stop_id": "274_02", "stop_name": "東太閤山北", "zone_id": "274_02", "location_type": "0"}, "geometry": {"type": "Point", "coordinates": [137.118835501393, 36.700728881617]}}, {"type": "Feature", "properties": {"stop_id": "275_01", "stop_name": "黒河5区", "zone_id": "275_01", "location_type": "0"}, "geometry": {"type": "Point", "coordinates": [137.118953333333, 36.7024523333333]}}, {"type": "Feature", "properties": {"stop_id": "276_01", "stop_name": "黒河1区", "zone_id": "276_01", "location_type": "0"}, "geometry": {"type": "Point", "coordinates": [137.114121571429, 36.703402]}}, {"type": "Feature", "properties": {"stop_id": "277_01", "stop_name": "黒河2区", "zone_id": "277_01", "location_type": "0"}, "geometry": {"type": "Point", "coordinates": [137.111023714286, 36.703411]}}, {"type": "Feature", "properties": {"stop_id": "279_01", "stop_name": "黒河4区", "zone_id": "279_01", "location_type": "0"}, "geometry": {"type": "Point", "coordinates": [137.106216, 36.705845]}}, {"type": "Feature", "properties": {"stop_id": "280_01", "stop_name": "歌の森小学校前", "zone_id": "280_01", "location_type": "0"}, "geometry": {"type": "Point", "coordinates": [137.105331, 36.708442]}}, {"type": "Feature", "properties": {"stop_id": "280_02", "stop_name": "歌の森小学校前", "zone_id": "280_02", "location_type": "0"}, "geometry": {"type": "Point", "coordinates": [137.105628142857, 36.707917]}}, {"type": "Feature", "properties": {"stop_id": "281_01", "stop_name": "小杉地区センター口", "zone_id": "281_01", "location_type": "0"}, "geometry": {"type": "Point", "coordinates": [137.104678714286, 36.712024]}}, {"type": "Feature", "properties": {"stop_id": "281_02", "stop_name": "小杉地区センター口", "zone_id": "281_02", "location_type": "0"}, "geometry": {"type": "Point", "coordinates": [137.104913, 36.712039]}}, {"type": "Feature", "properties": {"stop_id": "282_01", "stop_name": "栄町", "zone_id": "282_01", "location_type": "0"}, "geometry": {"type": "Point", "coordinates": [137.104391, 36.714217]}}, {"type": "Feature", "properties": {"stop_id": "282_02", "stop_name": "栄町", "zone_id": "282_02", "location_type": "0"}, "geometry": {"type": "Point", "coordinates": [137.104471, 36.714462]}}, {"type": "Feature", "properties": {"stop_id": "283_01", "stop_name": "新栄町", "zone_id": "283_01", "location_type": "0"}, "geometry": {"type": "Point", "coordinates": [137.103560571429, 36.715033]}}, {"type": "Feature", "properties": {"stop_id": "284_01", "stop_name": "アイザック小杉文化ホール前", "zone_id": "284_01", "location_type": "0"}, "geometry": {"type": "Point", "coordinates": [137.099186, 36.713676]}}, {"type": "Feature", "properties": {"stop_id": "284_02", "stop_name": "アイザック小杉文化ホール前", "zone_id": "284_02", "location_type": "0"}, "geometry": {"type": "Point", "coordinates": [137.099391714286, 36.713731]}}, {"type": "Feature", "properties": {"stop_id": "285_01", "stop_name": "中山公園口", "zone_id": "285_01", "location_type": "0"}, "geometry": {"type": "Point", "coordinates": [137.096800428571, 36.710877]}}, {"type": "Feature", "properties": {"stop_id": "285_02", "stop_name": "中山公園口", "zone_id": "285_02", "location_type": "0"}, "geometry": {"type": "Point", "coordinates": [137.096760428571, 36.710752]}}, {"type": "Feature", "properties": {"stop_id": "286_01", "stop_name": "兜山公園前", "zone_id": "286_01", "location_type": "0"}, "geometry": {"type": "Point", "coordinates": [137.092910142857, 36.715044]}}, {"type": "Feature", "properties": {"stop_id": "287_01", "stop_name": "駅南通り1丁目", "zone_id": "287_01", "location_type": "0"}, "geometry": {"type": "Point", "coordinates": [137.091653571429, 36.712764]}}, {"type": "Feature", "properties": {"stop_id": "287_02", "stop_name": "駅南通り1丁目", "zone_id": "287_02", "location_type": "0"}, "geometry": {"type": "Point", "coordinates": [137.091807857143, 36.713014]}}, {"type": "Feature", "properties": {"stop_id": "288_01", "stop_name": "千成商店街", "zone_id": "288_01", "location_type": "0"}, "geometry": {"type": "Point", "coordinates": [137.093855714286, 36.708679]}}, {"type": "Feature", "properties": {"stop_id": "289_01", "stop_name": "太閤山ランド", "zone_id": "289_01", "location_type": "0"}, "geometry": {"type": "Point", "coordinates": [137.10502, 36.695925]}}, {"type": "Feature", "properties": {"stop_id": "290_01", "stop_name": "救急薬品市民交流プラザ前（いみず市民交流プラザ前）", "zone_id": "290_01", "location_type": "0"}, "geometry": {"type": "Point", "coordinates": [137.095957857143, 36.721376]}}, {"type": "Feature", "properties": {"stop_id": "290_02", "stop_name": "救急薬品市民交流プラザ前（いみず市民交流プラザ前）", "zone_id": "290_02", "location_type": "0"}, "geometry": {"type": "Point", "coordinates": [137.096112142857, 36.721306]}}, {"type": "Feature", "properties": {"stop_id": "291_01", "stop_name": "新町", "zone_id": "291_01", "location_type": "0"}, "geometry": {"type": "Point", "coordinates": [137.099704, 36.721218]}}, {"type": "Feature", "properties": {"stop_id": "291_02", "stop_name": "新町", "zone_id": "291_02", "location_type": "0"}, "geometry": {"type": "Point", "coordinates": [137.099926857143, 36.721178]}}, {"type": "Feature", "properties": {"stop_id": "292_01", "stop_name": "高寺", "zone_id": "292_01", "location_type": "0"}, "geometry": {"type": "Point", "coordinates": [137.100344952381, 36.7235496666667]}}, {"type": "Feature", "properties": {"stop_id": "292_02", "stop_name": "高寺", "zone_id": "292_02", "location_type": "0"}, "geometry": {"type": "Point", "coordinates": [137.100752571429, 36.7238296666667]}}, {"type": "Feature", "properties": {"stop_id": "293_01", "stop_name": "小杉小学校前", "zone_id": "293_01", "location_type": "0"}, "geometry": {"type": "Point", "coordinates": [137.104121857143, 36.723914]}}, {"type": "Feature", "properties": {"stop_id": "293_02", "stop_name": "小杉小学校前", "zone_id": "293_02", "location_type": "0"}, "geometry": {"type": "Point", "coordinates": [137.104156142857, 36.723704]}}, {"type": "Feature", "properties": {"stop_id": "294_01", "stop_name": "西楠町", "zone_id": "294_01", "location_type": "0"}, "geometry": {"type": "Point", "coordinates": [137.106742857143, 36.7233490000001]}}, {"type": "Feature", "properties": {"stop_id": "294_02", "stop_name": "西楠町", "zone_id": "294_02", "location_type": "0"}, "geometry": {"type": "Point", "coordinates": [137.106777142858, 36.7231590000001]}}, {"type": "Feature", "properties": {"stop_id": "295_01", "stop_name": "アルビス小杉総合体育センター前", "zone_id": "295_01", "location_type": "0"}, "geometry": {"type": "Point", "coordinates": [137.112903047619, 36.7220333333333]}}, {"type": "Feature", "properties": {"stop_id": "295_02", "stop_name": "アルビス小杉総合体育センター前", "zone_id": "295_02", "location_type": "0"}, "geometry": {"type": "Point", "coordinates": [137.112863047619, 36.7218816666667]}}, {"type": "Feature", "properties": {"stop_id": "296_01", "stop_name": "手崎北", "zone_id": "296_01", "location_type": "0"}, "geometry": {"type": "Point", "coordinates": [137.116431285714, 36.7218623333333]}}, {"type": "Feature", "properties": {"stop_id": "296_02", "stop_name": "手崎北", "zone_id": "296_02", "location_type": "0"}, "geometry": {"type": "Point", "coordinates": [137.116157, 36.7216056666666]}}, {"type": "Feature", "properties": {"stop_id": "297_01", "stop_name": "鷲塚北", "zone_id": "297_01", "location_type": "0"}, "geometry": {"type": "Point", "coordinates": [137.122689, 36.72345]}}, {"type": "Feature", "properties": {"stop_id": "297_02", "stop_name": "鷲塚北", "zone_id": "297_02", "location_type": "0"}, "geometry": {"type": "Point", "coordinates": [137.122654714286, 36.723295]}}, {"type": "Feature", "properties": {"stop_id": "298_01", "stop_name": "小杉白石西", "zone_id": "298_01", "location_type": "0"}, "geometry": {"type": "Point", "coordinates": [137.128787, 36.729199]}}, {"type": "Feature", "properties": {"stop_id": "299_01", "stop_name": "小杉白石", "zone_id": "299_01", "location_type": "0"}, "geometry": {"type": "Point", "coordinates": [137.131272285714, 36.729577]}}, {"type": "Feature", "properties": {"stop_id": "300_01", "stop_name": "小杉白石東", "zone_id": "300_01", "location_type": "0"}, "geometry": {"type": "Point", "coordinates": [137.13447, 36.728222]}}, {"type": "Feature", "properties": {"stop_id": "301_01", "stop_name": "加茂東部公民館前", "zone_id": "301_01", "location_type": "0"}, "geometry": {"type": "Point", "coordinates": [137.153569, 36.747497]}}, {"type": "Feature", "properties": {"stop_id": "302_01", "stop_name": "下村三箇口", "zone_id": "302_01", "location_type": "0"}, "geometry": {"type": "Point", "coordinates": [137.158994, 36.747519]}}, {"type": "Feature", "properties": {"stop_id": "303_01", "stop_name": "三ケ北", "zone_id": "303_01", "location_type": "0"}, "geometry": {"type": "Point", "coordinates": [137.094066285714, 36.724447]}}, {"type": "Feature", "properties": {"stop_id": "303_02", "stop_name": "三ケ北", "zone_id": "303_02", "location_type": "0"}, "geometry": {"type": "Point", "coordinates": [137.094346285714, 36.724577]}}, {"type": "Feature", "properties": {"stop_id": "304_01", "stop_name": "高寺北", "zone_id": "304_01", "location_type": "0"}, "geometry": {"type": "Point", "coordinates": [137.101460714286, 36.7267179999999]}}, {"type": "Feature", "properties": {"stop_id": "304_02", "stop_name": "高寺北", "zone_id": "304_02", "location_type": "0"}, "geometry": {"type": "Point", "coordinates": [137.101535, 36.726303]}}, {"type": "Feature", "properties": {"stop_id": "305_02", "stop_name": "愛宕", "zone_id": "305_02", "location_type": "0"}, "geometry": {"type": "Point", "coordinates": [137.104810428571, 36.732977]}}, {"type": "Feature", "properties": {"stop_id": "306_02", "stop_name": "稲積", "zone_id": "306_02", "location_type": "0"}, "geometry": {"type": "Point", "coordinates": [137.105995, 36.734043]}}, {"type": "Feature", "properties": {"stop_id": "306_03", "stop_name": "稲積", "zone_id": "306_03", "location_type": "0"}, "geometry": {"type": "Point", "coordinates": [137.105561831981, 36.7347389503531]}}, {"type": "Feature", "properties": {"stop_id": "306_04", "stop_name": "稲積", "zone_id": "306_04", "location_type": "0"}, "geometry": {"type": "Point", "coordinates": [137.10548043251, 36.7346195121302]}}, {"type": "Feature", "properties": {"stop_id": "307_01", "stop_name": "大江北", "zone_id": "307_01", "location_type": "0"}, "geometry": {"type": "Point", "coordinates": [137.112366428571, 36.732039]}}, {"type": "Feature", "properties": {"stop_id": "307_02", "stop_name": "大江北", "zone_id": "307_02", "location_type": "0"}, "geometry": {"type": "Point", "coordinates": [137.112280714286, 36.731904]}}, {"type": "Feature", "properties": {"stop_id": "308_01", "stop_name": "大江", "zone_id": "308_01", "location_type": "0"}, "geometry": {"type": "Point", "coordinates": [137.113066, 36.729443]}}, {"type": "Feature", "properties": {"stop_id": "309_01", "stop_name": "大江苑前", "zone_id": "309_01", "location_type": "0"}, "geometry": {"type": "Point", "coordinates": [137.115271428571, 36.728836]}}, {"type": "Feature", "properties": {"stop_id": "310_01", "stop_name": "西高木", "zone_id": "310_01", "location_type": "0"}, "geometry": {"type": "Point", "coordinates": [137.121160714286, 36.73605]}}, {"type": "Feature", "properties": {"stop_id": "310_02", "stop_name": "西高木", "zone_id": "310_02", "location_type": "0"}, "geometry": {"type": "Point", "coordinates": [137.121263571429, 36.735925]}}, {"type": "Feature", "properties": {"stop_id": "311_01", "stop_name": "八講", "zone_id": "311_01", "location_type": "0"}, "geometry": {"type": "Point", "coordinates": [137.128531571429, 36.742423]}}, {"type": "Feature", "properties": {"stop_id": "311_02", "stop_name": "八講", "zone_id": "311_02", "location_type": "0"}, "geometry": {"type": "Point", "coordinates": [137.128522047619, 36.742173]}}, {"type": "Feature", "properties": {"stop_id": "312_01", "stop_name": "摺出寺コミュニティセンター前", "zone_id": "312_01", "location_type": "0"}, "geometry": {"type": "Point", "coordinates": [137.135487047619, 36.7427746666667]}}, {"type": "Feature", "properties": {"stop_id": "313_01", "stop_name": "下村パークゴルフ場口", "zone_id": "313_01", "location_type": "0"}, "geometry": {"type": "Point", "coordinates": [137.139231571429, 36.741035]}}, {"type": "Feature", "properties": {"stop_id": "313_02", "stop_name": "下村パークゴルフ場口", "zone_id": "313_02", "location_type": "0"}, "geometry": {"type": "Point", "coordinates": [137.139117285714, 36.740905]}}, {"type": "Feature", "properties": {"stop_id": "314_01", "stop_name": "中新湊駅前", "zone_id": "314_01", "location_type": "0"}, "geometry": {"type": "Point", "coordinates": [137.087683, 36.775671]}}, {"type": "Feature", "properties": {"stop_id": "314_02", "stop_name": "中新湊駅前", "zone_id": "314_02", "location_type": "0"}, "geometry": {"type": "Point", "coordinates": [137.087930619048, 36.7756293333333]}}, {"type": "Feature", "properties": {"stop_id": "315_01", "stop_name": "クロスベイ新湊", "zone_id": "315_01", "location_type": "0"}, "geometry": {"type": "Point", "coordinates": [137.079201571428, 36.7824146666667]}}, {"type": "Feature", "properties": {"stop_id": "315_02", "stop_name": "クロスベイ新湊", "zone_id": "315_02", "location_type": "0"}, "geometry": {"type": "Point", "coordinates": [137.079077761905, 36.7824413333334]}}, {"type": "Feature", "properties": {"stop_id": "316_01", "stop_name": "新湊高校前", "zone_id": "316_01", "location_type": "0"}, "geometry": {"type": "Point", "coordinates": [137.077044571428, 36.780616]}}, {"type": "Feature", "properties": {"stop_id": "316_02", "stop_name": "新湊高校前", "zone_id": "316_02", "location_type": "0"}, "geometry": {"type": "Point", "coordinates": [137.077358857143, 36.780651]}}, {"type": "Feature", "properties": {"stop_id": "317_01", "stop_name": "新湊コミュニティセンター前", "zone_id": "317_01", "location_type": "0"}, "geometry": {"type": "Point", "coordinates": [137.074847428571, 36.78341]}}, {"type": "Feature", "properties": {"stop_id": "317_02", "stop_name": "新湊コミュニティセンター前", "zone_id": "317_02", "location_type": "0"}, "geometry": {"type": "Point", "coordinates": [137.074498857143, 36.78333]}}, {"type": "Feature", "properties": {"stop_id": "319_01", "stop_name": "越ノ潟", "zone_id": "319_01", "location_type": "0"}, "geometry": {"type": "Point", "coordinates": [137.111623857143, 36.7747109999999]}}, {"type": "Feature", "properties": {"stop_id": "320_01", "stop_name": "海王丸駅前", "zone_id": "320_01", "location_type": "0"}, "geometry": {"type": "Point", "coordinates": [137.105042428571, 36.777521]}}, {"type": "Feature", "properties": {"stop_id": "320_02", "stop_name": "海王丸駅前", "zone_id": "320_02", "location_type": "0"}, "geometry": {"type": "Point", "coordinates": [137.105305285714, 36.777471]}}, {"type": "Feature", "properties": {"stop_id": "321_01", "stop_name": "海王丸パーク", "zone_id": "321_01", "location_type": "0"}, "geometry": {"type": "Point", "coordinates": [137.107519, 36.780993]}}, {"type": "Feature", "properties": {"stop_id": "322_01", "stop_name": "新湊漁港口", "zone_id": "322_01", "location_type": "0"}, "geometry": {"type": "Point", "coordinates": [137.098975285714, 36.779586]}}, {"type": "Feature", "properties": {"stop_id": "322_02", "stop_name": "新湊漁港口", "zone_id": "322_02", "location_type": "0"}, "geometry": {"type": "Point", "coordinates": [137.099158142857, 36.779516]}}, {"type": "Feature", "properties": {"stop_id": "323_01", "stop_name": "日本高周波前", "zone_id": "323_01", "location_type": "0"}, "geometry": {"type": "Point", "coordinates": [137.098136, 36.778706]}}, {"type": "Feature", "properties": {"stop_id": "323_02", "stop_name": "日本高周波前", "zone_id": "323_02", "location_type": "0"}, "geometry": {"type": "Point", "coordinates": [137.098124571429, 36.778556]}}, {"type": "Feature", "properties": {"stop_id": "324_01", "stop_name": "八幡公園前", "zone_id": "324_01", "location_type": "0"}, "geometry": {"type": "Point", "coordinates": [137.093473714286, 36.779053]}}, {"type": "Feature", "properties": {"stop_id": "324_02", "stop_name": "八幡公園前", "zone_id": "324_02", "location_type": "0"}, "geometry": {"type": "Point", "coordinates": [137.093605142857, 36.778923]}}, {"type": "Feature", "properties": {"stop_id": "325_01", "stop_name": "放生津八幡宮前", "zone_id": "325_01", "location_type": "0"}, "geometry": {"type": "Point", "coordinates": [137.093316, 36.7804850000001]}}, {"type": "Feature", "properties": {"stop_id": "325_02", "stop_name": "放生津八幡宮前", "zone_id": "325_02", "location_type": "0"}, "geometry": {"type": "Point", "coordinates": [137.093270285714, 36.780345]}}, {"type": "Feature", "properties": {"stop_id": "326_01", "stop_name": "神明宮前", "zone_id": "326_01", "location_type": "0"}, "geometry": {"type": "Point", "coordinates": [137.090783857143, 36.78118]}}, {"type": "Feature", "properties": {"stop_id": "326_02", "stop_name": "神明宮前", "zone_id": "326_02", "location_type": "0"}, "geometry": {"type": "Point", "coordinates": [137.090743857143, 36.781005]}}, {"type": "Feature", "properties": {"stop_id": "327_01", "stop_name": "かぐら橋北口", "zone_id": "327_01", "location_type": "0"}, "geometry": {"type": "Point", "coordinates": [137.087829571429, 36.781761]}}, {"type": "Feature", "properties": {"stop_id": "328_01", "stop_name": "気比住吉神社前", "zone_id": "328_01", "location_type": "0"}, "geometry": {"type": "Point", "coordinates": [137.083979714286, 36.783113]}}, {"type": "Feature", "properties": {"stop_id": "329_01", "stop_name": "古新町郵便局前", "zone_id": "329_01", "location_type": "0"}, "geometry": {"type": "Point", "coordinates": [137.081299714286, 36.78483]}}, {"type": "Feature", "properties": {"stop_id": "329_02", "stop_name": "古新町郵便局前", "zone_id": "329_02", "location_type": "0"}, "geometry": {"type": "Point", "coordinates": [137.081311142857, 36.7846]}}, {"type": "Feature", "properties": {"stop_id": "331_01", "stop_name": "本町3丁目", "zone_id": "331_01", "location_type": "0"}, "geometry": {"type": "Point", "coordinates": [137.082375857142, 36.7810140000001]}}, {"type": "Feature", "properties": {"stop_id": "331_02", "stop_name": "本町3丁目", "zone_id": "331_02", "location_type": "0"}, "geometry": {"type": "Point", "coordinates": [137.082427285715, 36.780834]}}, {"type": "Feature", "properties": {"stop_id": "332_01", "stop_name": "高周波文化ホール（新湊中央文化会館)", "zone_id": "332_01", "location_type": "0"}, "geometry": {"type": "Point", "coordinates": [137.081416, 36.778733]}}, {"type": "Feature", "properties": {"stop_id": "333_01", "stop_name": "新湊交流会館前", "zone_id": "333_01", "location_type": "0"}, "geometry": {"type": "Point", "coordinates": [137.079343285714, 36.778975]}}, {"type": "Feature", "properties": {"stop_id": "334_01", "stop_name": "善光寺東口", "zone_id": "334_01", "location_type": "0"}, "geometry": {"type": "Point", "coordinates": [137.078348714286, 36.776076]}}, {"type": "Feature", "properties": {"stop_id": "334_02", "stop_name": "善光寺東口", "zone_id": "334_02", "location_type": "0"}, "geometry": {"type": "Point", "coordinates": [137.078543, 36.775831]}}, {"type": "Feature", "properties": {"stop_id": "335_01", "stop_name": "新湊信用金庫前", "zone_id": "335_01", "location_type": "0"}, "geometry": {"type": "Point", "coordinates": [137.087642, 36.77805]}}, {"type": "Feature", "properties": {"stop_id": "335_02", "stop_name": "新湊信用金庫前", "zone_id": "335_02", "location_type": "0"}, "geometry": {"type": "Point", "coordinates": [137.087893428571, 36.778365]}}, {"type": "Feature", "properties": {"stop_id": "336_01", "stop_name": "富山銀行前", "zone_id": "336_01", "location_type": "0"}, "geometry": {"type": "Point", "coordinates": [137.084874571429, 36.779915]}}, {"type": "Feature", "properties": {"stop_id": "336_02", "stop_name": "富山銀行前", "zone_id": "336_02", "location_type": "0"}, "geometry": {"type": "Point", "coordinates": [137.084217428571, 36.78006]}}, {"type": "Feature", "properties": {"stop_id": "337_01", "stop_name": "善光寺西口", "zone_id": "337_01", "location_type": "0"}, "geometry": {"type": "Point", "coordinates": [137.074506619048, 36.774821]}}, {"type": "Feature", "properties": {"stop_id": "337_02", "stop_name": "善光寺西口", "zone_id": "337_02", "location_type": "0"}, "geometry": {"type": "Point", "coordinates": [137.074763761905, 36.7747043333333]}}, {"type": "Feature", "properties": {"stop_id": "338_01", "stop_name": "善光寺交差点", "zone_id": "338_01", "location_type": "0"}, "geometry": {"type": "Point", "coordinates": [137.075882047619, 36.7770556666667]}}, {"type": "Feature", "properties": {"stop_id": "338_02", "stop_name": "善光寺交差点", "zone_id": "338_02", "location_type": "0"}, "geometry": {"type": "Point", "coordinates": [137.07623252381, 36.7773506666667]}}, {"type": "Feature", "properties": {"stop_id": "339_01", "stop_name": "庄川口駅前", "zone_id": "339_01", "location_type": "0"}, "geometry": {"type": "Point", "coordinates": [137.070091, 36.784203]}},