{"type": "FeatureCollection", "name": "stops", "crs": {"type": "name", "properties": {"name": "urn:ogc:def:crs:OGC:1.3:CRS84"}}, "features": [{"type": "Feature", "properties": {"stop_id": "1_01", "stop_name": "緑風台", "zone_id": "1_01", "location_type": "0"}, "geometry": {"type": "Point", "coordinates": [136.562235714286, 36.56471]}}, {"type": "Feature", "properties": {"stop_id": "2_01", "stop_name": "浜八田", "zone_id": "2_01", "location_type": "0"}, "geometry": {"type": "Point", "coordinates": [136.56311, 36.56319]}}, {"type": "Feature", "properties": {"stop_id": "3_01", "stop_name": "つるべ荘", "zone_id": "3_01", "location_type": "0"}, "geometry": {"type": "Point", "coordinates": [136.559385714286, 36.560995]}}, {"type": "Feature", "properties": {"stop_id": "4_01", "stop_name": "倉部", "zone_id": "4_01", "location_type": "0"}, "geometry": {"type": "Point", "coordinates": [136.555074285715, 36.5572166666667]}}, {"type": "Feature", "properties": {"stop_id": "5_01", "stop_name": "一塚新", "zone_id": "5_01", "location_type": "0"}, "geometry": {"type": "Point", "coordinates": [136.560381428571, 36.5569916666667]}}, {"type": "Feature", "properties": {"stop_id": "6_01", "stop_name": "八田", "zone_id": "6_01", "location_type": "0"}, "geometry": {"type": "Point", "coordinates": [136.566561428571, 36.557085]}}, {"type": "Feature", "properties": {"stop_id": "7_01", "stop_name": "八田中", "zone_id": "7_01", "location_type": "0"}, "geometry": {"type": "Point", "coordinates": [136.572058571429, 36.55792]}}, {"type": "Feature", "properties": {"stop_id": "8_01", "stop_name": "中新保", "zone_id": "8_01", "location_type": "0"}, "geometry": {"type": "Point", "coordinates": [136.578035714286, 36.555075]}}, {"type": "Feature", "properties": {"stop_id": "9_01", "stop_name": "旭工業団地", "zone_id": "9_01", "location_type": "0"}, "geometry": {"type": "Point", "coordinates": [136.577095714286, 36.5530233333333]}}, {"type": "Feature", "properties": {"stop_id": "10_01", "stop_name": "宮永新", "zone_id": "10_01", "location_type": "0"}, "geometry": {"type": "Point", "coordinates": [136.575457142857, 36.549495]}}, {"type": "Feature", "properties": {"stop_id": "11_01", "stop_name": "宮永", "zone_id": "11_01", "location_type": "0"}, "geometry": {"type": "Point", "coordinates": [136.572263809524, 36.5431016666667]}}, {"type": "Feature", "properties": {"stop_id": "12_01", "stop_name": "福増", "zone_id": "12_01", "location_type": "0"}, "geometry": {"type": "Point", "coordinates": [136.577923333333, 36.54215]}}, {"type": "Feature", "properties": {"stop_id": "13_01", "stop_name": "あさひ荘苑", "zone_id": "13_01", "location_type": "0"}, "geometry": {"type": "Point", "coordinates": [136.577617142857, 36.53521]}}, {"type": "Feature", "properties": {"stop_id": "14_01", "stop_name": "五歩市", "zone_id": "14_01", "location_type": "0"}, "geometry": {"type": "Point", "coordinates": [136.577594285714, 36.53282]}}, {"type": "Feature", "properties": {"stop_id": "15_01", "stop_name": "大阪屋ショップ松任店", "zone_id": "15_01", "location_type": "0"}, "geometry": {"type": "Point", "coordinates": [136.577520243345, 36.5297987884782]}}, {"type": "Feature", "properties": {"stop_id": "16_01", "stop_name": "県道八ツ矢", "zone_id": "16_01", "location_type": "0"}, "geometry": {"type": "Point", "coordinates": [136.572493478739, 36.5267884010748]}}, {"type": "Feature", "properties": {"stop_id": "16_02", "stop_name": "県道八ツ矢", "zone_id": "16_02", "location_type": "0"}, "geometry": {"type": "Point", "coordinates": [136.573638191732, 36.5273526409598]}}, {"type": "Feature", "properties": {"stop_id": "17_01", "stop_name": "松任駅", "zone_id": "17_01", "location_type": "0"}, "geometry": {"type": "Point", "coordinates": [136.566388571428, 36.526405]}}, {"type": "Feature", "properties": {"stop_id": "18_01", "stop_name": "学習センター", "zone_id": "18_01", "location_type": "0"}, "geometry": {"type": "Point", "coordinates": [136.566842857143, 36.5243716666667]}}, {"type": "Feature", "properties": {"stop_id": "18_02", "stop_name": "学習センター", "zone_id": "18_02", "location_type": "0"}, "geometry": {"type": "Point", "coordinates": [136.566534285714, 36.5244]}}, {"type": "Feature", "properties": {"stop_id": "19_01", "stop_name": "中町", "zone_id": "19_01", "location_type": "0"}, "geometry": {"type": "Point", "coordinates": [136.565455714286, 36.52269]}}, {"type": "Feature", "properties": {"stop_id": "20_01", "stop_name": "松任高校前", "zone_id": "20_01", "location_type": "0"}, "geometry": {"type": "Point", "coordinates": [136.564258571429, 36.521]}}, {"type": "Feature", "properties": {"stop_id": "20_02", "stop_name": "松任高校前", "zone_id": "20_02", "location_type": "0"}, "geometry": {"type": "Point", "coordinates": [136.564092857143, 36.52136]}}, {"type": "Feature", "properties": {"stop_id": "21_01", "stop_name": "合同庁舎", "zone_id": "21_01", "location_type": "0"}, "geometry": {"type": "Point", "coordinates": [136.564507142857, 36.518325]}}, {"type": "Feature", "properties": {"stop_id": "21_02", "stop_name": "合同庁舎", "zone_id": "21_02", "location_type": "0"}, "geometry": {"type": "Point", "coordinates": [136.564347142857, 36.51829]}}, {"type": "Feature", "properties": {"stop_id": "22_01", "stop_name": "ラスパ白山", "zone_id": "22_01", "location_type": "0"}, "geometry": {"type": "Point", "coordinates": [136.567021608353, 36.5154049727792]}}, {"type": "Feature", "properties": {"stop_id": "23_01", "stop_name": "市役所", "zone_id": "23_01", "location_type": "0"}, "geometry": {"type": "Point", "coordinates": [136.565809249878, 36.5142150318749]}}, {"type": "Feature", "properties": {"stop_id": "24_01", "stop_name": "公立松任石川中央病院", "zone_id": "24_01", "location_type": "0"}, "geometry": {"type": "Point", "coordinates": [136.565739047619, 36.5106366666667]}}, {"type": "Feature", "properties": {"stop_id": "25_01", "stop_name": "イオン松任", "zone_id": "25_01", "location_type": "0"}, "geometry": {"type": "Point", "coordinates": [136.56546, 36.50774]}}, {"type": "Feature", "properties": {"stop_id": "26_01", "stop_name": "白山警察署", "zone_id": "26_01", "location_type": "0"}, "geometry": {"type": "Point", "coordinates": [136.573188571429, 36.5124]}}, {"type": "Feature", "properties": {"stop_id": "27_01", "stop_name": "広小路", "zone_id": "27_01", "location_type": "0"}, "geometry": {"type": "Point", "coordinates": [136.566797142858, 36.522425]}}, {"type": "Feature", "properties": {"stop_id": "27_02", "stop_name": "広小路", "zone_id": "27_02", "location_type": "0"}, "geometry": {"type": "Point", "coordinates": [136.566648571429, 36.52304]}}, {"type": "Feature", "properties": {"stop_id": "28_01", "stop_name": "野々市駅北口", "zone_id": "28_01", "location_type": "0"}, "geometry": {"type": "Point", "coordinates": [136.597987142857, 36.542045]}}, {"type": "Feature", "properties": {"stop_id": "29_01", "stop_name": "横江東", "zone_id": "29_01", "location_type": "0"}, "geometry": {"type": "Point", "coordinates": [136.592387025871, 36.5420004932997]}}, {"type": "Feature", "properties": {"stop_id": "30_01", "stop_name": "横江", "zone_id": "30_01", "location_type": "0"}, "geometry": {"type": "Point", "coordinates": [136.587172857143, 36.5415399999999]}}, {"type": "Feature", "properties": {"stop_id": "31_01", "stop_name": "白鷺団地", "zone_id": "31_01", "location_type": "0"}, "geometry": {"type": "Point", "coordinates": [136.587080952381, 36.53849]}}, {"type": "Feature", "properties": {"stop_id": "32_01", "stop_name": "パール団地", "zone_id": "32_01", "location_type": "0"}, "geometry": {"type": "Point", "coordinates": [136.587135714286, 36.53548]}}, {"type": "Feature", "properties": {"stop_id": "33_01", "stop_name": "田中", "zone_id": "33_01", "location_type": "0"}, "geometry": {"type": "Point", "coordinates": [136.587261428572, 36.53086]}}, {"type": "Feature", "properties": {"stop_id": "34_01", "stop_name": "金沢脳神経外科病院", "zone_id": "34_01", "location_type": "0"}, "geometry": {"type": "Point", "coordinates": [136.587778571428, 36.5264]}}, {"type": "Feature", "properties": {"stop_id": "35_01", "stop_name": "専福寺", "zone_id": "35_01", "location_type": "0"}, "geometry": {"type": "Point", "coordinates": [136.589575021221, 36.5249882156793]}}, {"type": "Feature", "properties": {"stop_id": "36_01", "stop_name": "長竹東", "zone_id": "36_01", "location_type": "0"}, "geometry": {"type": "Point", "coordinates": [136.590602857143, 36.522215]}}, {"type": "Feature", "properties": {"stop_id": "37_01", "stop_name": "橋爪団地", "zone_id": "37_01", "location_type": "0"}, "geometry": {"type": "Point", "coordinates": [136.592517482882, 36.5197940198149]}}, {"type": "Feature", "properties": {"stop_id": "38_01", "stop_name": "長竹西", "zone_id": "38_01", "location_type": "0"}, "geometry": {"type": "Point", "coordinates": [136.587461428572, 36.520745]}}, {"type": "Feature", "properties": {"stop_id": "39_01", "stop_name": "東橋爪", "zone_id": "39_01", "location_type": "0"}, "geometry": {"type": "Point", "coordinates": [136.587076190476, 36.5189133333333]}}, {"type": "Feature", "properties": {"stop_id": "40_01", "stop_name": "橋爪", "zone_id": "40_01", "location_type": "0"}, "geometry": {"type": "Point", "coordinates": [136.58596, 36.515635]}}, {"type": "Feature", "properties": {"stop_id": "41_01", "stop_name": "青葉台", "zone_id": "41_01", "location_type": "0"}, "geometry": {"type": "Point", "coordinates": [136.58302, 36.51544]}}, {"type": "Feature", "properties": {"stop_id": "42_01", "stop_name": "幸明", "zone_id": "42_01", "location_type": "0"}, "geometry": {"type": "Point", "coordinates": [136.579994285715, 36.515375]}}, {"type": "Feature", "properties": {"stop_id": "43_01", "stop_name": "フェアモールアピタ松任", "zone_id": "43_01", "location_type": "0"}, "geometry": {"type": "Point", "coordinates": [136.57760952381, 36.5155433333333]}}, {"type": "Feature", "properties": {"stop_id": "44_01", "stop_name": "三幸", "zone_id": "44_01", "location_type": "0"}, "geometry": {"type": "Point", "coordinates": [136.57788, 36.51305]}}, {"type": "Feature", "properties": {"stop_id": "45_01", "stop_name": "翠星高校", "zone_id": "45_01", "location_type": "0"}, "geometry": {"type": "Point", "coordinates": [136.576288571429, 36.51382]}}, {"type": "Feature", "properties": {"stop_id": "46_01", "stop_name": "よらんかいねぇ広場前", "zone_id": "46_01", "location_type": "0"}, "geometry": {"type": "Point", "coordinates": [136.602339, 36.473399]}}, {"type": "Feature", "properties": {"stop_id": "47_01", "stop_name": "コア前", "zone_id": "47_01", "location_type": "0"}, "geometry": {"type": "Point", "coordinates": [136.600901428571, 36.4768766666667]}}, {"type": "Feature", "properties": {"stop_id": "47_02", "stop_name": "コア前", "zone_id": "47_02", "location_type": "0"}, "geometry": {"type": "Point", "coordinates": [136.600712857143, 36.4763783333333]}}, {"type": "Feature", "properties": {"stop_id": "48_01", "stop_name": "七原町", "zone_id": "48_01", "location_type": "0"}, "geometry": {"type": "Point", "coordinates": [136.600232021299, 36.4804305447412]}}, {"type": "Feature", "properties": {"stop_id": "48_02", "stop_name": "七原町", "zone_id": "48_02", "location_type": "0"}, "geometry": {"type": "Point", "coordinates": [136.599908055693, 36.4815738700682]}}, {"type": "Feature", "properties": {"stop_id": "49_01", "stop_name": "クレイン", "zone_id": "49_01", "location_type": "0"}, "geometry": {"type": "Point", "coordinates": [136.598545238095, 36.4838316666667]}}, {"type": "Feature", "properties": {"stop_id": "50_01", "stop_name": "行町南", "zone_id": "50_01", "location_type": "0"}, "geometry": {"type": "Point", "coordinates": [136.593725681305, 36.4837271898365]}}, {"type": "Feature", "properties": {"stop_id": "51_01", "stop_name": "中ノ郷", "zone_id": "51_01", "location_type": "0"}, "geometry": {"type": "Point", "coordinates": [136.585742612457, 36.4835360472325]}}, {"type": "Feature", "properties": {"stop_id": "52_01", "stop_name": "吉田", "zone_id": "52_01", "location_type": "0"}, "geometry": {"type": "Point", "coordinates": [136.571332857143, 36.4780366666666]}}, {"type": "Feature", "properties": {"stop_id": "53_01", "stop_name": "山島台", "zone_id": "53_01", "location_type": "0"}, "geometry": {"type": "Point", "coordinates": [136.577962857143, 36.4717783333333]}}, {"type": "Feature", "properties": {"stop_id": "54_01", "stop_name": "漆島", "zone_id": "54_01", "location_type": "0"}, "geometry": {"type": "Point", "coordinates": [136.578890149449, 36.4734718466706]}}, {"type": "Feature", "properties": {"stop_id": "55_01", "stop_name": "矢頃島", "zone_id": "55_01", "location_type": "0"}, "geometry": {"type": "Point", "coordinates": [136.579528571429, 36.4774149999999]}}, {"type": "Feature", "properties": {"stop_id": "56_01", "stop_name": "向島", "zone_id": "56_01", "location_type": "0"}, "geometry": {"type": "Point", "coordinates": [136.57935, 36.48092]}}, {"type": "Feature", "properties": {"stop_id": "57_01", "stop_name": "藤木", "zone_id": "57_01", "location_type": "0"}, "geometry": {"type": "Point", "coordinates": [136.579204285714, 36.48374]}}, {"type": "Feature", "properties": {"stop_id": "58_01", "stop_name": "藤波", "zone_id": "58_01", "location_type": "0"}, "geometry": {"type": "Point", "coordinates": [136.57645, 36.487825]}}, {"type": "Feature", "properties": {"stop_id": "59_01", "stop_name": "坊丸・田地", "zone_id": "59_01", "location_type": "0"}, "geometry": {"type": "Point", "coordinates": [136.579803809524, 36.4917616666667]}}, {"type": "Feature", "properties": {"stop_id": "60_01", "stop_name": "みずほ南", "zone_id": "60_01", "location_type": "0"}, "geometry": {"type": "Point", "coordinates": [136.584822857143, 36.49328]}}, {"type": "Feature", "properties": {"stop_id": "61_01", "stop_name": "みずほ北", "zone_id": "61_01", "location_type": "0"}, "geometry": {"type": "Point", "coordinates": [136.584417142857, 36.49707]}}, {"type": "Feature", "properties": {"stop_id": "62_01", "stop_name": "今平", "zone_id": "62_01", "location_type": "0"}, "geometry": {"type": "Point", "coordinates": [136.578524285714, 36.49783]}}, {"type": "Feature", "properties": {"stop_id": "63_01", "stop_name": "林中公民館", "zone_id": "63_01", "location_type": "0"}, "geometry": {"type": "Point", "coordinates": [136.575072857143, 36.4977133333333]}}, {"type": "Feature", "properties": {"stop_id": "64_01", "stop_name": "平松", "zone_id": "64_01", "location_type": "0"}, "geometry": {"type": "Point", "coordinates": [136.568624285714, 36.508365]}}, {"type": "Feature", "properties": {"stop_id": "65_01", "stop_name": "天祥閣和館", "zone_id": "65_01", "location_type": "0"}, "geometry": {"type": "Point", "coordinates": [136.568787142857, 36.5096100000001]}}, {"type": "Feature", "properties": {"stop_id": "66_01", "stop_name": "倉光", "zone_id": "66_01", "location_type": "0"}, "geometry": {"type": "Point", "coordinates": [136.569294285714, 36.5137533333334]}}, {"type": "Feature", "properties": {"stop_id": "67_01", "stop_name": "松任中学校", "zone_id": "67_01", "location_type": "0"}, "geometry": {"type": "Point", "coordinates": [136.568535714286, 36.5171299999999]}}, {"type": "Feature", "properties": {"stop_id": "68_01", "stop_name": "蕪城通り", "zone_id": "68_01", "location_type": "0"}, "geometry": {"type": "Point", "coordinates": [136.566985714286, 36.51973]}}, {"type": "Feature", "properties": {"stop_id": "69_01", "stop_name": "福祉ふれあいセンター", "zone_id": "69_01", "location_type": "0"}, "geometry": {"type": "Point", "coordinates": [136.572647142857, 36.51434]}}, {"type": "Feature", "properties": {"stop_id": "70_01", "stop_name": "新徳丸", "zone_id": "70_01", "location_type": "0"}, "geometry": {"type": "Point", "coordinates": [136.574284913963, 36.517013937117]}}, {"type": "Feature", "properties": {"stop_id": "71_01", "stop_name": "若宮", "zone_id": "71_01", "location_type": "0"}, "geometry": {"type": "Point", "coordinates": [136.571932732729, 36.5203057534244]}}, {"type": "Feature", "properties": {"stop_id": "72_01", "stop_name": "おおまち", "zone_id": "72_01", "location_type": "0"}, "geometry": {"type": "Point", "coordinates": [136.568367142857, 36.5229]}}, {"type": "Feature", "properties": {"stop_id": "73_01", "stop_name": "福留", "zone_id": "73_01", "location_type": "0"}, "geometry": {"type": "Point", "coordinates": [136.52763, 36.49001]}}, {"type": "Feature", "properties": {"stop_id": "74_01", "stop_name": "福留南一丁目", "zone_id": "74_01", "location_type": "0"}, "geometry": {"type": "Point", "coordinates": [136.528346836897, 36.4881667006805]}}, {"type": "Feature", "properties": {"stop_id": "75_01", "stop_name": "石川新区中", "zone_id": "75_01", "location_type": "0"}, "geometry": {"type": "Point", "coordinates": [136.528575714286, 36.485145]}}, {"type": "Feature", "properties": {"stop_id": "76_01", "stop_name": "番田", "zone_id": "76_01", "location_type": "0"}, "geometry": {"type": "Point", "coordinates": [136.527861356735, 36.480660506531]}}, {"type": "Feature", "properties": {"stop_id": "77_01", "stop_name": "出合島", "zone_id": "77_01", "location_type": "0"}, "geometry": {"type": "Point", "coordinates": [136.53275, 36.475935]}}, {"type": "Feature", "properties": {"stop_id": "78_01", "stop_name": "上安田", "zone_id": "78_01", "location_type": "0"}, "geometry": {"type": "Point", "coordinates": [136.536255714286, 36.48065]}}, {"type": "Feature", "properties": {"stop_id": "79_01", "stop_name": "四ツ屋", "zone_id": "79_01", "location_type": "0"}, "geometry": {"type": "Point", "coordinates": [136.540865714286, 36.48857]}}, {"type": "Feature", "properties": {"stop_id": "80_01", "stop_name": "御影堂", "zone_id": "80_01", "location_type": "0"}, "geometry": {"type": "Point", "coordinates": [136.550673077807, 36.4873935051436]}}, {"type": "Feature", "properties": {"stop_id": "81_01", "stop_name": "上島田", "zone_id": "81_01", "location_type": "0"}, "geometry": {"type": "Point", "coordinates": [136.550133333333, 36.484135]}}, {"type": "Feature", "properties": {"stop_id": "82_01", "stop_name": "島田", "zone_id": "82_01", "location_type": "0"}, "geometry": {"type": "Point", "coordinates": [136.556808571429, 36.4837250000001]}}, {"type": "Feature", "properties": {"stop_id": "83_01", "stop_name": "内方新保", "zone_id": "83_01", "location_type": "0"}, "geometry": {"type": "Point", "coordinates": [136.556626666667, 36.4871883333333]}}, {"type": "Feature", "properties": {"stop_id": "84_01", "stop_name": "長島", "zone_id": "84_01", "location_type": "0"}, "geometry": {"type": "Point", "coordinates": [136.556841904762, 36.4909666666667]}}, {"type": "Feature", "properties": {"stop_id": "85_01", "stop_name": "剣崎", "zone_id": "85_01", "location_type": "0"}, "geometry": {"type": "Point", "coordinates": [136.562162380953, 36.4974633333333]}}, {"type": "Feature", "properties": {"stop_id": "86_01", "stop_name": "徳行", "zone_id": "86_01", "location_type": "0"}, "geometry": {"type": "Point", "coordinates": [136.563129047619, 36.5074866666667]}}, {"type": "Feature", "properties": {"stop_id": "87_01", "stop_name": "美川駅", "zone_id": "87_01", "location_type": "0"}, "geometry": {"type": "Point", "coordinates": [136.48919, 36.48631]}}, {"type": "Feature", "properties": {"stop_id": "88_01", "stop_name": "松葉クリニック前", "zone_id": "88_01", "location_type": "0"}, "geometry": {"type": "Point", "coordinates": [136.493411997348, 36.4881017770895]}}, {"type": "Feature", "properties": {"stop_id": "89_01", "stop_name": "美取", "zone_id": "89_01", "location_type": "0"}, "geometry": {"type": "Point", "coordinates": [136.498331428571, 36.486855]}}, {"type": "Feature", "properties": {"stop_id": "90_01", "stop_name": "手取町", "zone_id": "90_01", "location_type": "0"}, "geometry": {"type": "Point", "coordinates": [136.504208571429, 36.4881783333335]}}, {"type": "Feature", "properties": {"stop_id": "91_01", "stop_name": "井関町", "zone_id": "91_01", "location_type": "0"}, "geometry": {"type": "Point", "coordinates": [136.507737142857, 36.48991]}}, {"type": "Feature", "properties": {"stop_id": "92_01", "stop_name": "蝶屋小学校前", "zone_id": "92_01", "location_type": "0"}, "geometry": {"type": "Point", "coordinates": [136.502198571429, 36.4919349999999]}}, {"type": "Feature", "properties": {"stop_id": "93_01", "stop_name": "Ａコープ蝶屋店前", "zone_id": "93_01", "location_type": "0"}, "geometry": {"type": "Point", "coordinates": [136.501375359181, 36.4931814422266]}}, {"type": "Feature", "properties": {"stop_id": "94_01", "stop_name": "米光", "zone_id": "94_01", "location_type": "0"}, "geometry": {"type": "Point", "coordinates": [136.51134, 36.4957]}}, {"type": "Feature", "properties": {"stop_id": "95_01", "stop_name": "北島", "zone_id": "95_01", "location_type": "0"}, "geometry": {"type": "Point", "coordinates": [136.514147142857, 36.49888]}}, {"type": "Feature", "properties": {"stop_id": "96_01", "stop_name": "阿弥陀島", "zone_id": "96_01", "location_type": "0"}, "geometry": {"type": "Point", "coordinates": [136.515351428572, 36.5040566666666]}}, {"type": "Feature", "properties": {"stop_id": "97_01", "stop_name": "加賀笠間駅", "zone_id": "97_01", "location_type": "0"}, "geometry": {"type": "Point", "coordinates": [136.52747, 36.50336]}}, {"type": "Feature", "properties": {"stop_id": "98_01", "stop_name": "宮保新", "zone_id": "98_01", "location_type": "0"}, "geometry": {"type": "Point", "coordinates": [136.531755714286, 36.50673]}}, {"type": "Feature", "properties": {"stop_id": "99_01", "stop_name": "金城大学", "zone_id": "99_01", "location_type": "0"}, "geometry": {"type": "Point", "coordinates": [136.531696190476, 36.5078199999999]}}, {"type": "Feature", "properties": {"stop_id": "100_01", "stop_name": "黒瀬", "zone_id": "100_01", "location_type": "0"}, "geometry": {"type": "Point", "coordinates": [136.524683809524, 36.5129016666667]}}, {"type": "Feature", "properties": {"stop_id": "101_01", "stop_name": "七郎", "zone_id": "101_01", "location_type": "0"}, "geometry": {"type": "Point", "coordinates": [136.526992321014, 36.5141029359926]}}, {"type": "Feature", "properties": {"stop_id": "102_01", "stop_name": "宮保公民館", "zone_id": "102_01", "location_type": "0"}, "geometry": {"type": "Point", "coordinates": [136.534524285714, 36.514105]}}, {"type": "Feature", "properties": {"stop_id": "103_01", "stop_name": "法仏", "zone_id": "103_01", "location_type": "0"}, "geometry": {"type": "Point", "coordinates": [136.537797142857, 36.516845]}}, {"type": "Feature", "properties": {"stop_id": "104_01", "stop_name": "千代野南", "zone_id": "104_01", "location_type": "0"}, "geometry": {"type": "Point", "coordinates": [136.542014285714, 36.517705]}}, {"type": "Feature", "properties": {"stop_id": "105_01", "stop_name": "茶屋一丁目", "zone_id": "105_01", "location_type": "0"}, "geometry": {"type": "Point", "coordinates": [136.560111428571, 36.52396]}}, {"type": "Feature", "properties": {"stop_id": "106_01", "stop_name": "宮丸", "zone_id": "106_01", "location_type": "0"}, "geometry": {"type": "Point", "coordinates": [136.552298095238, 36.5054866666667]}}, {"type": "Feature", "properties": {"stop_id": "106_02", "stop_name": "宮丸", "zone_id": "106_02", "location_type": "0"}, "geometry": {"type": "Point", "coordinates": [136.552479047619, 36.5059616666667]}}, {"type": "Feature", "properties": {"stop_id": "107_01", "stop_name": "道の駅めぐみ白山", "zone_id": "107_01", "location_type": "0"}, "geometry": {"type": "Point", "coordinates": [136.547045885951, 36.5008507416173]}}, {"type": "Feature", "properties": {"stop_id": "108_01", "stop_name": "上小川", "zone_id": "108_01", "location_type": "0"}, "geometry": {"type": "Point", "coordinates": [136.522292857143, 36.52064]}}, {"type": "Feature", "properties": {"stop_id": "109_01", "stop_name": "小川", "zone_id": "109_01", "location_type": "0"}, "geometry": {"type": "Point", "coordinates": [136.52322, 36.521385]}}, {"type": "Feature", "properties": {"stop_id": "110_01", "stop_name": "海浜温泉", "zone_id": "110_01", "location_type": "0"}, "geometry": {"type": "Point", "coordinates": [136.530515238095, 36.53558]}}, {"type": "Feature", "properties": {"stop_id": "111_01", "stop_name": "浜相川", "zone_id": "111_01", "location_type": "0"}, "geometry": {"type": "Point", "coordinates": [136.536476190476, 36.54236]}}, {"type": "Feature", "properties": {"stop_id": "112_01", "stop_name": "相川新", "zone_id": "112_01", "location_type": "0"}, "geometry": {"type": "Point", "coordinates": [136.542117142857, 36.546405]}}, {"type": "Feature", "properties": {"stop_id": "113_01", "stop_name": "中相川", "zone_id": "113_01", "location_type": "0"}, "geometry": {"type": "Point", "coordinates": [136.547804285714, 36.540815]}}, {"type": "Feature", "properties": {"stop_id": "114_01", "stop_name": "東相川", "zone_id": "114_01", "location_type": "0"}, "geometry": {"type": "Point", "coordinates": [136.550184285714, 36.538405]}}, {"type": "Feature", "properties": {"stop_id": "115_01", "stop_name": "蕪城五丁目", "zone_id": "115_01", "location_type": "0"}, "geometry": {"type": "Point", "coordinates": [136.552787142857, 36.535785]}}, {"type": "Feature", "properties": {"stop_id": "116_01", "stop_name": "蕪城団地", "zone_id": "116_01", "location_type": "0"}, "geometry": {"type": "Point", "coordinates": [136.553526666667, 36.5314966666667]}}, {"type": "Feature", "properties": {"stop_id": "117_01", "stop_name": "新成一丁目", "zone_id": "117_01", "location_type": "0"}, "geometry": {"type": "Point", "coordinates": [136.557248454841, 36.5303017370661]}}, {"type": "Feature", "properties": {"stop_id": "118_01", "stop_name": "安田", "zone_id": "118_01", "location_type": "0"}, "geometry": {"type": "Point", "coordinates": [136.561612857143, 36.522715]}}, {"type": "Feature", "properties": {"stop_id": "119_01", "stop_name": "茶屋", "zone_id": "119_01", "location_type": "0"}, "geometry": {"type": "Point", "coordinates": [136.559465714286, 36.52266]}}, {"type": "Feature", "properties": {"stop_id": "120_01", "stop_name": "成3区", "zone_id": "120_01", "location_type": "0"}, "geometry": {"type": "Point", "coordinates": [136.556534285714, 36.52527]}}, {"type": "Feature", "properties": {"stop_id": "121_01", "stop_name": "北安田", "zone_id": "121_01", "location_type": "0"}, "geometry": {"type": "Point", "coordinates": [136.548728571429, 36.52555]}}, {"type": "Feature", "properties": {"stop_id": "122_01", "stop_name": "ファーマーズＡコープ北安田店前", "zone_id": "122_01", "location_type": "0"}, "geometry": {"type": "Point", "coordinates": [136.545254285714, 36.525415]}}, {"type": "Feature", "properties": {"stop_id": "123_01", "stop_name": "千代野小学校前", "zone_id": "123_01", "location_type": "0"}, "geometry": {"type": "Point", "coordinates": [136.542562857143, 36.52362]}}, {"type": "Feature", "properties": {"stop_id": "124_01", "stop_name": "千代野第5集会所前", "zone_id": "124_01", "location_type": "0"}, "geometry": {"type": "Point", "coordinates": [136.542291428571, 36.5269233333333]}}, {"type": "Feature", "properties": {"stop_id": "125_01", "stop_name": "蕪城三丁目", "zone_id": "125_01", "location_type": "0"}, "geometry": {"type": "Point", "coordinates": [136.550012857143, 36.53067]}}, {"type": "Feature", "properties": {"stop_id": "126_01", "stop_name": "北成区", "zone_id": "126_01", "location_type": "0"}, "geometry": {"type": "Point", "coordinates": [136.556574285714, 36.533755]}}, {"type": "Feature", "properties": {"stop_id": "127_01", "stop_name": "相木団地", "zone_id": "127_01", "location_type": "0"}, "geometry": {"type": "Point", "coordinates": [136.560864285714, 36.53491]}}, {"type": "Feature", "properties": {"stop_id": "128_01", "stop_name": "北相木6区", "zone_id": "128_01", "location_type": "0"}, "geometry": {"type": "Point", "coordinates": [136.56165, 36.5329100000001]}}, {"type": "Feature", "properties": {"stop_id": "129_01", "stop_name": "相木南", "zone_id": "129_01", "location_type": "0"}, "geometry": {"type": "Point", "coordinates": [136.562465714286, 36.528415]}}, {"type": "Feature", "properties": {"stop_id": "130_01", "stop_name": "松任駅北口", "zone_id": "130_01", "location_type": "0"}, "geometry": {"type": "Point", "coordinates": [136.565861428571, 36.52718]}}, {"type": "Feature", "properties": {"stop_id": "131_01", "stop_name": "北相木5区", "zone_id": "131_01", "location_type": "0"}, "geometry": {"type": "Point", "coordinates": [136.566068571429, 36.53308]}}, {"type": "Feature", "properties": {"stop_id": "132_01", "stop_name": "新田西", "zone_id": "132_01", "location_type": "0"}, "geometry": {"type": "Point", "coordinates": [136.569434285714, 36.53521]}}, {"type": "Feature", "properties": {"stop_id": "133_01", "stop_name": "新田南", "zone_id": "133_01", "location_type": "0"}, "geometry": {"type": "Point", "coordinates": [136.571071904762, 36.5340216666666]}}, {"type": "Feature", "properties": {"stop_id": "134_01", "stop_name": "八ツ矢", "zone_id": "134_01", "location_type": "0"}, "geometry": {"type": "Point", "coordinates": [136.571182857143, 36.52647]}}, {"type": "Feature", "properties": {"stop_id": "135_01", "stop_name": "南八ツ矢", "zone_id": "135_01", "location_type": "0"}, "geometry": {"type": "Point", "coordinates": [136.572915714286, 36.52476]}}, {"type": "Feature", "properties": {"stop_id": "136_01", "stop_name": "布市", "zone_id": "136_01", "location_type": "0"}, "geometry": {"type": "Point", "coordinates": [136.572314285714, 36.522455]}}, {"type": "Feature", "properties": {"stop_id": "137_01", "stop_name": "徳丸", "zone_id": "137_01", "location_type": "0"}, "geometry": {"type": "Point", "coordinates": [136.578051428571, 36.52207]}}, {"type": "Feature", "properties": {"stop_id": "138_01", "stop_name": "村井団地", "zone_id": "138_01", "location_type": "0"}, "geometry": {"type": "Point", "coordinates": [136.561121428571, 36.516905]}}, {"type": "Feature", "properties": {"stop_id": "139_01", "stop_name": "南松任", "zone_id": "139_01", "location_type": "0"}, "geometry": {"type": "Point", "coordinates": [136.560392857143, 36.51876]}}, {"type": "Feature", "properties": {"stop_id": "140_01", "stop_name": "マルエー松任店", "zone_id": "140_01", "location_type": "0"}, "geometry": {"type": "Point", "coordinates": [136.558018571428, 36.52138]}}, {"type": "Feature", "properties": {"stop_id": "141_01", "stop_name": "浜町", "zone_id": "141_01", "location_type": "0"}, "geometry": {"type": "Point", "coordinates": [136.488555714286, 36.488355]}}, {"type": "Feature", "properties": {"stop_id": "142_01", "stop_name": "美川中学校前", "zone_id": "142_01", "location_type": "0"}, "geometry": {"type": "Point", "coordinates": [136.492467142857, 36.49021]}}, {"type": "Feature", "properties": {"stop_id": "143_01", "stop_name": "蓮池町", "zone_id": "143_01", "location_type": "0"}, "geometry": {"type": "Point", "coordinates": [136.49886, 36.50092]}}, {"type": "Feature", "properties": {"stop_id": "144_01", "stop_name": "鹿島町西", "zone_id": "144_01", "location_type": "0"}, "geometry": {"type": "Point", "coordinates": [136.50179047619, 36.5028066666667]}}, {"type": "Feature", "properties": {"stop_id": "145_01", "stop_name": "ショセキ", "zone_id": "145_01", "location_type": "0"}, "geometry": {"type": "Point", "coordinates": [136.504090959731, 36.500951638711]}}, {"type": "Feature", "properties": {"stop_id": "146_01", "stop_name": "鹿島町東", "zone_id": "146_01", "location_type": "0"}, "geometry": {"type": "Point", "coordinates": [136.506451187261, 36.5025554556699]}}, {"type": "Feature", "properties": {"stop_id": "147_01", "stop_name": "鹿島平", "zone_id": "147_01", "location_type": "0"}, "geometry": {"type": "Point", "coordinates": [136.509128095238, 36.50508]}}, {"type": "Feature", "properties": {"stop_id": "148_01", "stop_name": "石立", "zone_id": "148_01", "location_type": "0"}, "geometry": {"type": "Point", "coordinates": [136.50771, 36.51184]}}, {"type": "Feature", "properties": {"stop_id": "149_01", "stop_name": "松本", "zone_id": "149_01", "location_type": "0"}, "geometry": {"type": "Point", "coordinates": [136.513792857143, 36.511105]}}, {"type": "Feature", "properties": {"stop_id": "150_01", "stop_name": "ファミリーマートＡコープ加賀野店前", "zone_id": "150_01", "location_type": "0"}, "geometry": {"type": "Point", "coordinates": [136.532185077667, 36.5024697951167]}}, {"type": "Feature", "properties": {"stop_id": "151_01", "stop_name": "上河原・宮原", "zone_id": "151_01", "location_type": "0"}, "geometry": {"type": "Point", "coordinates": [136.536555714286, 36.506255]}}, {"type": "Feature", "properties": {"stop_id": "152_01", "stop_name": "宮保", "zone_id": "152_01", "location_type": "0"}, "geometry": {"type": "Point", "coordinates": [136.53596, 36.51103]}}, {"type": "Feature", "properties": {"stop_id": "153_01", "stop_name": "米永", "zone_id": "153_01", "location_type": "0"}, "geometry": {"type": "Point", "coordinates": [136.542794285714, 36.510295]}}, {"type": "Feature", "properties": {"stop_id": "154_01", "stop_name": "米永新区", "zone_id": "154_01", "location_type": "0"}, "geometry": {"type": "Point", "coordinates": [136.543055604205, 36.5156366197473]}}, {"type": "Feature", "properties": {"stop_id": "156_01", "stop_name": "中町ほほえみ館", "zone_id": "156_01", "location_type": "0"}, "geometry": {"type": "Point", "coordinates": [136.48558, 36.486495]}}, {"type": "Feature", "properties": {"stop_id": "157_01", "stop_name": "美川大橋詰", "zone_id": "157_01", "location_type": "0"}, "geometry": {"type": "Point", "coordinates": [136.48299, 36.48645]}}, {"type": "Feature", "properties": {"stop_id": "158_01", "stop_name": "湊町", "zone_id": "158_01", "location_type": "0"}, "geometry": {"type": "Point", "coordinates": [136.477828571429, 36.4833]}}, {"type": "Feature", "properties": {"stop_id": "159_01", "stop_name": "呉竹文庫前", "zone_id": "159_01", "location_type": "0"}, "geometry": {"type": "Point", "coordinates": [136.478461904762, 36.4788683333333]}}, {"type": "Feature", "properties": {"stop_id": "160_01", "stop_name": "湊町3区", "zone_id": "160_01", "location_type": "0"}, "geometry": {"type": "Point", "coordinates": [136.478404285714, 36.476425]}}, {"type": "Feature", "properties": {"stop_id": "161_01", "stop_name": "湊児童館前", "zone_id": "161_01", "location_type": "0"}, "geometry": {"type": "Point", "coordinates": [136.477578571429, 36.475455]}}, {"type": "Feature", "properties": {"stop_id": "162_01", "stop_name": "湊小学校前", "zone_id": "162_01", "location_type": "0"}, "geometry": {"type": "Point", "coordinates": [136.47624, 36.4742]}}, {"type": "Feature", "properties": {"stop_id": "163_01", "stop_name": "湊町6区", "zone_id": "163_01", "location_type": "0"}, "geometry": {"type": "Point", "coordinates": [136.475734285714, 36.471805]}}, {"type": "Feature", "properties": {"stop_id": "164_01", "stop_name": "湊町7区", "zone_id": "164_01", "location_type": "0"}, "geometry": {"type": "Point", "coordinates": [136.474914285714, 36.46917]}}, {"type": "Feature", "properties": {"stop_id": "165_01", "stop_name": "湊健康増進センター前", "zone_id": "165_01", "location_type": "0"}, "geometry": {"type": "Point", "coordinates": [136.473546507122, 36.4692129577798]}}, {"type": "Feature", "properties": {"stop_id": "166_01", "stop_name": "湊町十区区民会館前", "zone_id": "166_01", "location_type": "0"}, "geometry": {"type": "Point", "coordinates": [136.474104285715, 36.4722416666667]}}, {"type": "Feature", "properties": {"stop_id": "167_01", "stop_name": "湊町10区", "zone_id": "167_01", "location_type": "0"}, "geometry": {"type": "Point", "coordinates": [136.474888571428, 36.473905]}}, {"type": "Feature", "properties": {"stop_id": "168_01", "stop_name": "小舞子駅", "zone_id": "168_01", "location_type": "0"}, "geometry": {"type": "Point", "coordinates": [136.474962857143, 36.476155]}}, {"type": "Feature", "properties": {"stop_id": "169_01", "stop_name": "湊町5区", "zone_id": "169_01", "location_type": "0"}, "geometry": {"type": "Point", "coordinates": [136.476472857143, 36.47694]}}, {"type": "Feature", "properties": {"stop_id": "170_01", "stop_name": "こども広場前", "zone_id": "170_01", "location_type": "0"}, "geometry": {"type": "Point", "coordinates": [136.475177142857, 36.47842]}}, {"type": "Feature", "properties": {"stop_id": "171_01", "stop_name": "美川大橋詰北", "zone_id": "171_01", "location_type": "0"}, "geometry": {"type": "Point", "coordinates": [136.48227, 36.48644]}}, {"type": "Feature", "properties": {"stop_id": "172_01", "stop_name": "永代町", "zone_id": "172_01", "location_type": "0"}, "geometry": {"type": "Point", "coordinates": [136.482174285714, 36.488685]}}, {"type": "Feature", "properties": {"stop_id": "173_01", "stop_name": "美川小学校前", "zone_id": "173_01", "location_type": "0"}, "geometry": {"type": "Point", "coordinates": [136.484312857143, 36.48983]}}, {"type": "Feature", "properties": {"stop_id": "174_01", "stop_name": "和波町", "zone_id": "174_01", "location_type": "0"}, "geometry": {"type": "Point", "coordinates": [136.48669, 36.48975]}}, {"type": "Feature", "properties": {"stop_id": "175_01", "stop_name": "和波町東地区公民館前", "zone_id": "175_01", "location_type": "0"}, "geometry": {"type": "Point", "coordinates": [136.488235714286, 36.4914266666666]}}, {"type": "Feature", "properties": {"stop_id": "176_01", "stop_name": "緑寿荘前", "zone_id": "176_01", "location_type": "0"}, "geometry": {"type": "Point", "coordinates": [136.488768571428, 36.493575]}}, {"type": "Feature", "properties": {"stop_id": "177_01", "stop_name": "平加町", "zone_id": "177_01", "location_type": "0"}, "geometry": {"type": "Point", "coordinates": [136.489727142857, 36.49205]}}, {"type": "Feature", "properties": {"stop_id": "178_01", "stop_name": "石川ルーツ交流館前", "zone_id": "178_01", "location_type": "0"}, "geometry": {"type": "Point", "coordinates": [136.483163509838, 36.4851034281899]}}, {"type": "Feature", "properties": {"stop_id": "179_01", "stop_name": "本吉町", "zone_id": "179_01", "location_type": "0"}, "geometry": {"type": "Point", "coordinates": [136.489725714286, 36.4836]}}, {"type": "Feature", "properties": {"stop_id": "180_01", "stop_name": "長屋町", "zone_id": "180_01", "location_type": "0"}, "geometry": {"type": "Point", "coordinates": [136.495368571428, 36.483705]}}, {"type": "Feature", "properties": {"stop_id": "181_01", "stop_name": "末正町", "zone_id": "181_01", "location_type": "0"}, "geometry": {"type": "Point", "coordinates": [136.504258571429, 36.48323]}}, {"type": "Feature", "properties": {"stop_id": "182_01", "stop_name": "水島公民館", "zone_id": "182_01", "location_type": "0"}, "geometry": {"type": "Point", "coordinates": [136.51978, 36.48135]}}, {"type": "Feature", "properties": {"stop_id": "183_01", "stop_name": "源兵島", "zone_id": "183_01", "location_type": "0"}, "geometry": {"type": "Point", "coordinates": [136.524116666667, 36.4878699999999]}}, {"type": "Feature", "properties": {"stop_id": "184_01", "stop_name": "福留西", "zone_id": "184_01", "location_type": "0"}, "geometry": {"type": "Point", "coordinates": [136.526618571429, 36.49176]}}, {"type": "Feature", "properties": {"stop_id": "185_01", "stop_name": "下柏野", "zone_id": "185_01", "location_type": "0"}, "geometry": {"type": "Point", "coordinates": [136.53262, 36.49716]}}, {"type": "Feature", "properties": {"stop_id": "186_01", "stop_name": "荒屋柏野", "zone_id": "186_01", "location_type": "0"}, "geometry": {"type": "Point", "coordinates": [136.538249047619, 36.4987566666667]}}, {"type": "Feature", "properties": {"stop_id": "187_01", "stop_name": "上柏野", "zone_id": "187_01", "location_type": "0"}, "geometry": {"type": "Point", "coordinates": [136.544415950775, 36.4990200498861]}}, {"type": "Feature", "properties": {"stop_id": "188_01", "stop_name": "一ノ宮公民館", "zone_id": "188_01", "location_type": "0"}, "geometry": {"type": "Point", "coordinates": [136.634982254367, 36.4287774933035]}}, {"type": "Feature", "properties": {"stop_id": "189_01", "stop_name": "三宮町", "zone_id": "189_01", "location_type": "0"}, "geometry": {"type": "Point", "coordinates": [136.637086505705, 36.4353178168736]}}, {"type": "Feature", "properties": {"stop_id": "190_01", "stop_name": "八幡町", "zone_id": "190_01", "location_type": "0"}, "geometry": {"type": "Point", "coordinates": [136.636976301999, 36.4395880275755]}}, {"type": "Feature", "properties": {"stop_id": "191_01", "stop_name": "石川県ふれあい昆虫館前", "zone_id": "191_01", "location_type": "0"}, "geometry": {"type": "Point", "coordinates": [136.633713219964, 36.4446413376955]}}, {"type": "Feature", "properties": {"stop_id": "192_01", "stop_name": "朝日公民館", "zone_id": "192_01", "location_type": "0"}, "geometry": {"type": "Point", "coordinates": [136.632721428571, 36.4483999999999]}}, {"type": "Feature", "properties": {"stop_id": "193_01", "stop_name": "金劔宮前", "zone_id": "193_01", "location_type": "0"}, "geometry": {"type": "Point", "coordinates": [136.629935503006, 36.4493698143865]}}, {"type": "Feature", "properties": {"stop_id": "194_01", "stop_name": "鶴来支所前", "zone_id": "194_01", "location_type": "0"}, "geometry": {"type": "Point", "coordinates": [136.62494, 36.45278]}}, {"type": "Feature", "properties": {"stop_id": "195_01", "stop_name": "鶴来駅前", "zone_id": "195_01", "location_type": "0"}, "geometry": {"type": "Point", "coordinates": [136.62393178603, 36.4524367335932]}}, {"type": "Feature", "properties": {"stop_id": "196_01", "stop_name": "つるぎ病院前", "zone_id": "196_01", "location_type": "0"}, "geometry": {"type": "Point", "coordinates": [136.623208522797, 36.4474539143026]}}, {"type": "Feature", "properties": {"stop_id": "197_01", "stop_name": "レッツ", "zone_id": "197_01", "location_type": "0"}, "geometry": {"type": "Point", "coordinates": [136.627878571429, 36.447385]}}, {"type": "Feature", "properties": {"stop_id": "198_01", "stop_name": "大国町", "zone_id": "198_01", "location_type": "0"}, "geometry": {"type": "Point", "coordinates": [136.625010967255, 36.4484636500778]}}, {"type": "Feature", "properties": {"stop_id": "199_01", "stop_name": "本鶴来", "zone_id": "199_01", "location_type": "0"}, "geometry": {"type": "Point", "coordinates": [136.622811555862, 36.4503104906378]}}, {"type": "Feature", "properties": {"stop_id": "200_01", "stop_name": "新村病院", "zone_id": "200_01", "location_type": "0"}, "geometry": {"type": "Point", "coordinates": [136.618418571429, 36.45543]}}, {"type": "Feature", "properties": {"stop_id": "201_01", "stop_name": "鶴来高校・蓬莱荘前", "zone_id": "201_01", "location_type": "0"}, "geometry": {"type": "Point", "coordinates": [136.620354413005, 36.4562738239713]}}, {"type": "Feature", "properties": {"stop_id": "202_01", "stop_name": "白山警察署鶴来庁舎前", "zone_id": "202_01", "location_type": "0"}, "geometry": {"type": "Point", "coordinates": [136.623267529417, 36.4563285852592]}}, {"type": "Feature", "properties": {"stop_id": "203_01", "stop_name": "白山町中", "zone_id": "203_01", "location_type": "0"}, "geometry": {"type": "Point", "coordinates": [136.633615714286, 36.429115]}}, {"type": "Feature", "properties": {"stop_id": "204_01", "stop_name": "白山町", "zone_id": "204_01", "location_type": "0"}, "geometry": {"type": "Point", "coordinates": [136.633914285714, 36.43201]}}, {"type": "Feature", "properties": {"stop_id": "205_01", "stop_name": "一の宮", "zone_id": "205_01", "location_type": "0"}, "geometry": {"type": "Point", "coordinates": [136.632831428571, 36.43803]}}, {"type": "Feature", "properties": {"stop_id": "206_01", "stop_name": "今町", "zone_id": "206_01", "location_type": "0"}, "geometry": {"type": "Point", "coordinates": [136.6307, 36.44236]}}, {"type": "Feature", "properties": {"stop_id": "207_01", "stop_name": "白山青年の家前", "zone_id": "207_01", "location_type": "0"}, "geometry": {"type": "Point", "coordinates": [136.629409557234, 36.4453561542608]}}, {"type": "Feature", "properties": {"stop_id": "208_01", "stop_name": "鶴来本町四丁目", "zone_id": "208_01", "location_type": "0"}, "geometry": {"type": "Point", "coordinates": [136.624066829681, 36.4501810422805]}}, {"type": "Feature", "properties": {"stop_id": "209_01", "stop_name": "明島台", "zone_id": "209_01", "location_type": "0"}, "geometry": {"type": "Point", "coordinates": [136.615172624588, 36.4571019858633]}}, {"type": "Feature", "properties": {"stop_id": "210_01", "stop_name": "春の木", "zone_id": "210_01", "location_type": "0"}, "geometry": {"type": "Point", "coordinates": [136.61110134281, 36.4603339138466]}}, {"type": "Feature", "properties": {"stop_id": "211_01", "stop_name": "中村", "zone_id": "211_01", "location_type": "0"}, "geometry": {"type": "Point", "coordinates": [136.608690952381, 36.462585]}}, {"type": "Feature", "properties": {"stop_id": "212_01", "stop_name": "西の村", "zone_id": "212_01", "location_type": "0"}, "geometry": {"type": "Point", "coordinates": [136.6041, 36.46561]}}, {"type": "Feature", "properties": {"stop_id": "213_01", "stop_name": "上森島", "zone_id": "213_01", "location_type": "0"}, "geometry": {"type": "Point", "coordinates": [136.602155714286, 36.467575]}}, {"type": "Feature", "properties": {"stop_id": "214_01", "stop_name": "下森島", "zone_id": "214_01", "location_type": "0"}, "geometry": {"type": "Point", "coordinates": [136.59926, 36.47119]}}, {"type": "Feature", "properties": {"stop_id": "215_01", "stop_name": "名鉄森島台", "zone_id": "215_01", "location_type": "0"}, "geometry": {"type": "Point", "coordinates": [136.59784, 36.47282]}}, {"type": "Feature", "properties": {"stop_id": "216_01", "stop_name": "大竹", "zone_id": "216_01", "location_type": "0"}, "geometry": {"type": "Point", "coordinates": [136.593791103265, 36.4719277386763]}}, {"type": "Feature", "properties": {"stop_id": "217_01", "stop_name": "明法島", "zone_id": "217_01", "location_type": "0"}, "geometry": {"type": "Point", "coordinates": [136.591777813568, 36.4738274418551]}}, {"type": "Feature", "properties": {"stop_id": "218_01", "stop_name": "日向団地", "zone_id": "218_01", "location_type": "0"}, "geometry": {"type": "Point", "coordinates": [136.597429047619, 36.4758433333333]}}, {"type": "Feature", "properties": {"stop_id": "219_01", "stop_name": "行町", "zone_id": "219_01", "location_type": "0"}, "geometry": {"type": "Point", "coordinates": [136.59241, 36.48543]}}, {"type": "Feature", "properties": {"stop_id": "220_01", "stop_name": "深瀬新町", "zone_id": "220_01", "location_type": "0"}, "geometry": {"type": "Point", "coordinates": [136.599421877114, 36.4885782352749]}}, {"type": "Feature", "properties": {"stop_id": "220_02", "stop_name": "深瀬新町", "zone_id": "220_02", "location_type": "0"}, "geometry": {"type": "Point", "coordinates": [136.599099312297, 36.4888916404034]}}, {"type": "Feature", "properties": {"stop_id": "221_01", "stop_name": "安養寺", "zone_id": "221_01", "location_type": "0"}, "geometry": {"type": "Point", "coordinates": [136.598685318909, 36.4926932227167]}}, {"type": "Feature", "properties": {"stop_id": "222_01", "stop_name": "富光寺住宅", "zone_id": "222_01", "location_type": "0"}, "geometry": {"type": "Point", "coordinates": [136.598349809647, 36.4955270226486]}}, {"type": "Feature", "properties": {"stop_id": "223_01", "stop_name": "富光寺東", "zone_id": "223_01", "location_type": "0"}, "geometry": {"type": "Point", "coordinates": [136.602104902267, 36.4946041504783]}}, {"type": "Feature", "properties": {"stop_id": "224_01", "stop_name": "柴木", "zone_id": "224_01", "location_type": "0"}, "geometry": {"type": "Point", "coordinates": [136.602665714286, 36.491545]}}, {"type": "Feature", "properties": {"stop_id": "225_01", "stop_name": "新荒屋", "zone_id": "225_01", "location_type": "0"}, "geometry": {"type": "Point", "coordinates": [136.605378095238, 36.48969]}}, {"type": "Feature", "properties": {"stop_id": "226_01", "stop_name": "大阪屋ショップ鶴来店前", "zone_id": "226_01", "location_type": "0"}, "geometry": {"type": "Point", "coordinates": [136.600931845376, 36.4845035370424]}}, {"type": "Feature", "properties": {"stop_id": "227_01", "stop_name": "月橋", "zone_id": "227_01", "location_type": "0"}, "geometry": {"type": "Point", "coordinates": [136.620955714286, 36.460665]}}, {"type": "Feature", "properties": {"stop_id": "227_02", "stop_name": "月橋", "zone_id": "227_02", "location_type": "0"}, "geometry": {"type": "Point", "coordinates": [136.62039952381, 36.4608466666667]}}, {"type": "Feature", "properties": {"stop_id": "228_01", "stop_name": "小柳新", "zone_id": "228_01", "location_type": "0"}, "geometry": {"type": "Point", "coordinates": [136.615735073002, 36.4651625447955]}}, {"type": "Feature", "properties": {"stop_id": "229_01", "stop_name": "日御子団地", "zone_id": "229_01", "location_type": "0"}, "geometry": {"type": "Point", "coordinates": [136.61348, 36.465645]}}, {"type": "Feature", "properties": {"stop_id": "230_01", "stop_name": "日御子", "zone_id": "230_01", "location_type": "0"}, "geometry": {"type": "Point", "coordinates": [136.607508620562, 36.4717550494379]}}, {"type": "Feature", "properties": {"stop_id": "231_01", "stop_name": "部入道", "zone_id": "231_01", "location_type": "0"}, "geometry": {"type": "Point", "coordinates": [136.605705238095, 36.4975166666667]}}, {"type": "Feature", "properties": {"stop_id": "232_01", "stop_name": "池田病院", "zone_id": "232_01", "location_type": "0"}, "geometry": {"type": "Point", "coordinates": [136.610119226401, 36.4974227249385]}}, {"type": "Feature", "properties": {"stop_id": "233_01", "stop_name": "熱野", "zone_id": "233_01", "location_type": "0"}, "geometry": {"type": "Point", "coordinates": [136.611872857143, 36.49259]}}, {"type": "Feature", "properties": {"stop_id": "234_01", "stop_name": "曽谷", "zone_id": "234_01", "location_type": "0"}, "geometry": {"type": "Point", "coordinates": [136.613932857143, 36.49002]}}, {"type": "Feature", "properties": {"stop_id": "235_01", "stop_name": "陽羽里駅", "zone_id": "235_01", "location_type": "0"}, "geometry": {"type": "Point", "coordinates": [136.614668369293, 36.4937157400875]}}, {"type": "Feature", "properties": {"stop_id": "236_01", "stop_name": "曽谷東", "zone_id": "236_01", "location_type": "0"}, "geometry": {"type": "Point", "coordinates": [136.619281768799, 36.4906278788193]}}, {"type": "Feature", "properties": {"stop_id": "237_01", "stop_name": "坂尻", "zone_id": "237_01", "location_type": "0"}, "geometry": {"type": "Point", "coordinates": [136.615617142857, 36.484205]}}, {"type": "Feature", "properties": {"stop_id": "238_01", "stop_name": "林公民館前", "zone_id": "238_01", "location_type": "0"}, "geometry": {"type": "Point", "coordinates": [136.612890181449, 36.4834134074346]}}, {"type": "Feature", "properties": {"stop_id": "239_01", "stop_name": "荒屋", "zone_id": "239_01", "location_type": "0"}, "geometry": {"type": "Point", "coordinates": [136.608718571429, 36.48144]}}, {"type": "Feature", "properties": {"stop_id": "240_01", "stop_name": "知気寺", "zone_id": "240_01", "location_type": "0"}, "geometry": {"type": "Point", "coordinates": [136.604356752814, 36.4812005174499]}}, {"type": "Feature", "properties": {"stop_id": "241_01", "stop_name": "明光四丁目", "zone_id": "241_01", "location_type": "0"}, "geometry": {"type": "Point", "coordinates": [136.607826170829, 36.4766698225918]}}, {"type": "Feature", "properties": {"stop_id": "242_01", "stop_name": "明光一丁目", "zone_id": "242_01", "location_type": "0"}, "geometry": {"type": "Point", "coordinates": [136.61165356636, 36.4769811696221]}}, {"type": "Feature", "properties": {"stop_id": "243_01", "stop_name": "小柳", "zone_id": "243_01", "location_type": "0"}, "geometry": {"type": "Point", "coordinates": [136.616276666667, 36.472865]}}, {"type": "Feature", "properties": {"stop_id": "244_01", "stop_name": "広瀬", "zone_id": "244_01", "location_type": "0"}, "geometry": {"type": "Point", "coordinates": [136.63044, 36.41108]}}, {"type": "Feature", "properties": {"stop_id": "245_01", "stop_name": "口直海", "zone_id": "245_01", "location_type": "0"}, "geometry": {"type": "Point", "coordinates": [136.633015714286, 36.403995]}}, {"type": "Feature", "properties": {"stop_id": "246_01", "stop_name": "河内小学校前", "zone_id": "246_01", "location_type": "0"}, "geometry": {"type": "Point", "coordinates": [136.631807570474, 36.403082891323]}}, {"type": "Feature", "properties": {"stop_id": "247_01", "stop_name": "奥池", "zone_id": "247_01", "location_type": "0"}, "geometry": {"type": "Point", "coordinates": [136.63625, 36.38906]}}, {"type": "Feature", "properties": {"stop_id": "248_01", "stop_name": "久保", "zone_id": "248_01", "location_type": "0"}, "geometry": {"type": "Point", "coordinates": [136.63664, 36.38619]}}, {"type": "Feature", "properties": {"stop_id": "249_01", "stop_name": "吹上", "zone_id": "249_01", "location_type": "0"}, "geometry": {"type": "Point", "coordinates": [136.6426, 36.37833]}}, {"type": "Feature", "properties": {"stop_id": "250_01", "stop_name": "板尾", "zone_id": "250_01", "location_type": "0"}, "geometry": {"type": "Point", "coordinates": [136.64525, 36.37782]}}, {"type": "Feature", "properties": {"stop_id": "251_01", "stop_name": "中金間", "zone_id": "251_01", "location_type": "0"}, "geometry": {"type": "Point", "coordinates": [136.65539, 36.36238]}}, {"type": "Feature", "properties": {"stop_id": "252_01", "stop_name": "下折", "zone_id": "252_01", "location_type": "0"}, "geometry": {"type": "Point", "coordinates": [136.669, 36.35021]}}, {"type": "Feature", "properties": {"stop_id": "253_01", "stop_name": "千丈温泉", "zone_id": "253_01", "location_type": "0"}, "geometry": {"type": "Point", "coordinates": [136.6781, 36.34742]}}, {"type": "Feature", "properties": {"stop_id": "254_01", "stop_name": "ふじが丘", "zone_id": "254_01", "location_type": "0"}, "geometry": {"type": "Point", "coordinates": [136.62567, 36.39977]}}, {"type": "Feature", "properties": {"stop_id": "255_01", "stop_name": "下福岡", "zone_id": "255_01", "location_type": "0"}, "geometry": {"type": "Point", "coordinates": [136.62226, 36.39679]}}, {"type": "Feature", "properties": {"stop_id": "256_01", "stop_name": "かわちこども園", "zone_id": "256_01", "location_type": "0"}, "geometry": {"type": "Point", "coordinates": [136.620301008224, 36.3977361095256]}}, {"type": "Feature", "properties": {"stop_id": "257_01", "stop_name": "上福岡", "zone_id": "257_01", "location_type": "0"}, "geometry": {"type": "Point", "coordinates": [136.61964, 36.39407]}}, {"type": "Feature", "properties": {"stop_id": "258_01", "stop_name": "きりの里", "zone_id": "258_01", "location_type": "0"}, "geometry": {"type": "Point", "coordinates": [136.61577, 36.39013]}}, {"type": "Feature", "properties": {"stop_id": "259_01", "stop_name": "江津", "zone_id": "259_01", "location_type": "0"}, "geometry": {"type": "Point", "coordinates": [136.61283, 36.38696]}}, {"type": "Feature", "properties": {"stop_id": "260_01", "stop_name": "吉岡", "zone_id": "260_01", "location_type": "0"}, "geometry": {"type": "Point", "coordinates": [136.61559, 36.37889]}}, {"type": "Feature", "properties": {"stop_id": "261_01", "stop_name": "イータウン白山アルビス北安田店前", "zone_id": "261_01", "location_type": "0"}, "geometry": {"type": "Point", "coordinates": [136.547922493126, 36.5187966037405]}}, {"type": "Feature", "properties": {"stop_id": "262_01", "stop_name": "鳥越中学校", "zone_id": "262_01", "location_type": "0"}, "geometry": {"type": "Point", "coordinates": [136.60925, 36.36402]}}, {"type": "Feature", "properties": {"stop_id": "263_01", "stop_name": "阿手", "zone_id": "263_01", "location_type": "0"}, "geometry": {"type": "Point", "coordinates": [136.57579, 36.29604]}}, {"type": "Feature", "properties": {"stop_id": "264_01", "stop_name": "数瀬", "zone_id": "264_01", "location_type": "0"}, "geometry": {"type": "Point", "coordinates": [136.59039, 36.30203]}}, {"type": "Feature", "properties": {"stop_id": "265_01", "stop_name": "三ツ瀬", "zone_id": "265_01", "location_type": "0"}, "geometry": {"type": "Point", "coordinates": [136.59727, 36.30403]}}, {"type": "Feature", "properties": {"stop_id": "266_01", "stop_name": "左礫", "zone_id": "266_01", "location_type": "0"}, "geometry": {"type": "Point", "coordinates": [136.61333, 36.3166]}}, {"type": "Feature", "properties": {"stop_id": "267_01", "stop_name": "渡津", "zone_id": "267_01", "location_type": "0"}, "geometry": {"type": "Point", "coordinates": [136.60862, 36.33839]}}, {"type": "Feature", "properties": {"stop_id": "268_01", "stop_name": "神子清水", "zone_id": "268_01", "location_type": "0"}, "geometry": {"type": "Point", "coordinates": [136.60551, 36.34642]}}, {"type": "Feature", "properties": {"stop_id": "269_01", "stop_name": "杉森", "zone_id": "269_01", "location_type": "0"}, "geometry": {"type": "Point", "coordinates": [136.60368, 36.34846]}}, {"type": "Feature", "properties": {"stop_id": "270_01", "stop_name": "別宮出", "zone_id": "270_01", "location_type": "0"}, "geometry": {"type": "Point", "coordinates": [136.60319, 36.35435]}}, {"type": "Feature", "properties": {"stop_id": "271_01", "stop_name": "別宮", "zone_id": "271_01", "location_type": "0"}, "geometry": {"type": "Point", "coordinates": [136.603441904762, 36.3584]}}, {"type": "Feature", "properties": {"stop_id": "272_01", "stop_name": "上出合", "zone_id": "272_01", "location_type": "0"}, "geometry": {"type": "Point", "coordinates": [136.6014, 36.35941]}}, {"type": "Feature", "properties": {"stop_id": "273_01", "stop_name": "下出合", "zone_id": "273_01", "location_type": "0"}, "geometry": {"type": "Point", "coordinates": [136.59751, 36.3622]}}, {"type": "Feature", "properties": {"stop_id": "274_01", "stop_name": "三坂", "zone_id": "274_01", "location_type": "0"}, "geometry": {"type": "Point", "coordinates": [136.59293, 36.36415]}}, {"type": "Feature", "properties": {"stop_id": "275_01", "stop_name": "上野", "zone_id": "275_01", "location_type": "0"}, "geometry": {"type": "Point", "coordinates": [136.60321, 36.37364]}}, {"type": "Feature", "properties": {"stop_id": "276_01", "stop_name": "鳥越小学校前", "zone_id": "276_01", "location_type": "0"}, "geometry": {"type": "Point", "coordinates": [136.60447, 36.37097]}}, {"type": "Feature", "properties": {"stop_id": "277_01", "stop_name": "とりごえ保育園", "zone_id": "277_01", "location_type": "0"}, "geometry": {"type": "Point", "coordinates": [136.604840755463, 36.3701051986346]}}, {"type": "Feature", "properties": {"stop_id": "278_01", "stop_name": "釜清水", "zone_id": "278_01", "location_type": "0"}, "geometry": {"type": "Point", "coordinates": [136.61038, 36.36296]}}, {"type": "Feature", "properties": {"stop_id": "279_01", "stop_name": "ＪＡ白山手取支店", "zone_id": "279_01", "location_type": "0"}, "geometry": {"type": "Point", "coordinates": [136.617420315742, 36.3625890008511]}}, {"type": "Feature", "properties": {"stop_id": "280_01", "stop_name": "黄門橋", "zone_id": "280_01", "location_type": "0"}, "geometry": {"type": "Point", "coordinates": [136.61591, 36.36334]}}, {"type": "Feature", "properties": {"stop_id": "281_01", "stop_name": "中島", "zone_id": "281_01", "location_type": "0"}, "geometry": {"type": "Point", "coordinates": [136.632263660431, 36.4121134267665]}}, {"type": "Feature", "properties": {"stop_id": "282_01", "stop_name": "南白山町", "zone_id": "282_01", "location_type": "0"}, "geometry": {"type": "Point", "coordinates": [136.631367374711, 36.42059441835]}}, {"type": "Feature", "properties": {"stop_id": "283_01", "stop_name": "石川県浄水場口", "zone_id": "283_01", "location_type": "0"}, "geometry": {"type": "Point", "coordinates": [136.6320759058, 36.4248694573052]}}, {"type": "Feature", "properties": {"stop_id": "333_01", "stop_name": "長池", "zone_id": "333_01", "location_type": "0"}, "geometry": {"type": "Point", "coordinates": [136.594761013985, 36.5416998441886]}}, {"type": "Feature", "properties": {"stop_id": "285_01", "stop_name": "鶴来本町", "zone_id": "285_01", "location_type": "0"}, "geometry": {"type": "Point", "coordinates": [136.626781225204, 36.448036460022]}}, {"type": "Feature", "properties": {"stop_id": "287_01", "stop_name": "河原山", "zone_id": "287_01", "location_type": "0"}, "geometry": {"type": "Point", "coordinates": [136.64216, 36.31183]}}, {"type": "Feature", "properties": {"stop_id": "290_01", "stop_name": "上吉谷", "zone_id": "290_01", "location_type": "0"}, "geometry": {"type": "Point", "coordinates": [136.63582, 36.33446]}}, {"type": "Feature", "properties": {"stop_id": "291_01", "stop_name": "下吉谷", "zone_id": "291_01", "location_type": "0"}, "geometry": {"type": "Point", "coordinates": [136.63011, 36.34307]}}, {"type": "Feature", "properties": {"stop_id": "299_01", "stop_name": "吉野谷診療所", "zone_id": "299_01", "location_type": "0"}, "geometry": {"type": "Point", "coordinates": [136.64701, 36.3242]}}, {"type": "Feature", "properties": {"stop_id": "300_01", "stop_name": "三ツ屋野", "zone_id": "300_01", "location_type": "0"}, "geometry": {"type": "Point", "coordinates": [136.64317, 36.32051]}}, {"type": "Feature", "properties": {"stop_id": "301_01", "stop_name": "白山下", "zone_id": "301_01", "location_type": "0"}, "geometry": {"type": "Point", "coordinates": [136.64081, 36.30939]}}, {"type": "Feature", "properties": {"stop_id": "302_01", "stop_name": "瀬波", "zone_id": "302_01", "location_type": "0"}, "geometry": {"type": "Point", "coordinates": [136.65662, 36.31949]}}, {"type": "Feature", "properties": {"stop_id": "303_01", "stop_name": "下吉野", "zone_id": "303_01", "location_type": "0"}, "geometry": {"type": "Point", "coordinates": [136.62203, 36.36044]}}, {"type": "Feature", "properties": {"stop_id": "304_01", "stop_name": "味智の郷", "zone_id": "304_01", "location_type": "0"}, "geometry": {"type": "Point", "coordinates": [136.62285, 36.35662]}}, {"type": "Feature", "properties": {"stop_id": "305_01", "stop_name": "上吉野", "zone_id": "305_01", "location_type": "0"}, "geometry": {"type": "Point", "coordinates": [136.62748, 36.3489]}}, {"type": "Feature", "properties": {"stop_id": "306_01", "stop_name": "西佐良", "zone_id": "306_01", "location_type": "0"}, "geometry": {"type": "Point", "coordinates": [136.63931, 36.33031]}}, {"type": "Feature", "properties": {"stop_id": "307_01", "stop_name": "佐良", "zone_id": "307_01", "location_type": "0"}, "geometry": {"type": "Point", "coordinates": [136.64345, 36.32924]}}, {"type": "Feature", "properties": {"stop_id": "308_01", "stop_name": "中宮温泉", "zone_id": "308_01", "location_type": "0"}, "geometry": {"type": "Point", "coordinates": [136.76452, 36.25808]}}, {"type": "Feature", "properties": {"stop_id": "309_01", "stop_name": "白山一里野", "zone_id": "309_01", "location_type": "0"}, "geometry": {"type": "Point", "coordinates": [136.71584, 36.26858]}}, {"type": "Feature", "properties": {"stop_id": "310_01", "stop_name": "尾添", "zone_id": "310_01", "location_type": "0"}, "geometry": {"type": "Point", "coordinates": [136.69712, 36.27253]}}, {"type": "Feature", "properties": {"stop_id": "311_01", "stop_name": "白山中宮", "zone_id": "311_01", "location_type": "0"}, "geometry": {"type": "Point", "coordinates": [136.69001, 36.27685]}}, {"type": "Feature", "properties": {"stop_id": "312_01", "stop_name": "荒谷", "zone_id": "312_01", "location_type": "0"}, "geometry": {"type": "Point", "coordinates": [136.68081, 36.27486]}}, {"type": "Feature", "properties": {"stop_id": "313_01", "stop_name": "瀬戸", "zone_id": "313_01", "location_type": "0"}, "geometry": {"type": "Point", "coordinates": [136.65574, 36.28441]}}, {"type": "Feature", "properties": {"stop_id": "314_01", "stop_name": "瀬女", "zone_id": "314_01", "location_type": "0"}, "geometry": {"type": "Point", "coordinates": [136.650138571428, 36.28787]}}, {"type": "Feature", "properties": {"stop_id": "315_01", "stop_name": "沢野", "zone_id": "315_01", "location_type": "0"}, "geometry": {"type": "Point", "coordinates": [136.6532, 36.28873]}}, {"type": "Feature", "properties": {"stop_id": "316_01", "stop_name": "女原", "zone_id": "316_01", "location_type": "0"}, "geometry": {"type": "Point", "coordinates": [136.64878, 36.28042]}}, {"type": "Feature", "properties": {"stop_id": "317_01", "stop_name": "東二口", "zone_id": "317_01", "location_type": "0"}, "geometry": {"type": "Point", "coordinates": [136.64404, 36.2733]}}, {"type": "Feature", "properties": {"stop_id": "318_01", "stop_name": "仏師ケ野", "zone_id": "318_01", "location_type": "0"}, "geometry": {"type": "Point", "coordinates": [136.64351, 36.28927]}}, {"type": "Feature", "properties": {"stop_id": "319_01", "stop_name": "尾口市民サービスセンター前", "zone_id": "319_01", "location_type": "0"}, "geometry": {"type": "Point", "coordinates": [136.646822690964, 36.2917974531207]}}, {"type": "Feature", "properties": {"stop_id": "320_01", "stop_name": "瀬戸野", "zone_id": "320_01", "location_type": "0"}, "geometry": {"type": "Point", "coordinates": [136.64356, 36.29493]}}, {"type": "Feature", "properties": {"stop_id": "321_01", "stop_name": "木滑新", "zone_id": "321_01", "location_type": "0"}, "geometry": {"type": "Point", "coordinates": [136.64021, 36.30079]}}, {"type": "Feature", "properties": {"stop_id": "322_01", "stop_name": "上木滑", "zone_id": "322_01", "location_type": "0"}, "geometry": {"type": "Point", "coordinates": [136.64226, 36.30568]}}, {"type": "Feature", "properties": {"stop_id": "323_01", "stop_name": "下木滑", "zone_id": "323_01", "location_type": "0"}, "geometry": {"type": "Point", "coordinates": [136.6459, 36.31138]}}, {"type": "Feature", "properties": {"stop_id": "324_01", "stop_name": "市原", "zone_id": "324_01", "location_type": "0"}, "geometry": {"type": "Point", "coordinates": [136.64834, 36.321]}}, {"type": "Feature", "properties": {"stop_id": "325_01", "stop_name": "吉野保育所", "zone_id": "325_01", "location_type": "0"}, "geometry": {"type": "Point", "coordinates": [136.62528, 36.35288]}}, {"type": "Feature", "properties": {"stop_id": "326_01", "stop_name": "白嶺小中学校", "zone_id": "326_01", "location_type": "0"}, "geometry": {"type": "Point", "coordinates": [136.6417, 36.2966]}}, {"type": "Feature", "properties": {"stop_id": "327_01", "stop_name": "菅波", "zone_id": "327_01", "location_type": "0"}, "geometry": {"type": "Point", "coordinates": [136.57437937428, 36.491044655881]}}, {"type": "Feature", "properties": {"stop_id": "334_01", "stop_name": "清金団地", "zone_id": "334_01", "location_type": "0"}, "geometry": {"type": "Point", "coordinates": [136.595186124439, 36.5198519091641]}}, {"type": "Feature", "properties": {"stop_id": "335_01", "stop_name": "福新", "zone_id": "335_01", "location_type": "0"}, "geometry": {"type": "Point", "coordinates": [136.537682637224, 36.4878712024382]}}, {"type": "Feature", "properties": {"stop_id": "336_01", "stop_name": "福永", "zone_id": "336_01", "location_type": "0"}, "geometry": {"type": "Point", "coordinates": [136.531120512844, 36.4836020383093]}}, {"type": "Feature", "properties": {"stop_id": "337_01", "stop_name": "徳光", "zone_id": "337_01", "location_type": "0"}, "geometry": {"type": "Point", "coordinates": [136.532197559139, 36.5348376043306]}}, {"type": "Feature", "properties": {"stop_id": "337_02", "stop_name": "徳光", "zone_id": "337_02", "location_type": "0"}, "geometry": {"type": "Point", "coordinates": [136.532166641192, 36.5348487260101]}}, {"type": "Feature", "properties": {"stop_id": "338_01", "stop_name": "満天星", "zone_id": "338_01", "location_type": "0"}, "geometry": {"type": "Point", "coordinates": [136.613319918883, 36.3831667077937]}}]}