{"type": "FeatureCollection", "name": "stops", "crs": {"type": "name", "properties": {"name": "urn:ogc:def:crs:OGC:1.3:CRS84"}}, "features": [{"type": "Feature", "properties": {"stop_id": "1", "stop_name": "牧中学校", "zone_id": null, "location_type": "1"}, "geometry": {"type": "Point", "coordinates": [138.388617, 37.074915]}}, {"type": "Feature", "properties": {"stop_id": "1_1", "stop_name": "牧中学校", "zone_id": null, "location_type": "0"}, "geometry": {"type": "Point", "coordinates": [138.388617, 37.074915]}}, {"type": "Feature", "properties": {"stop_id": "1_2", "stop_name": "牧中学校", "zone_id": null, "location_type": "0"}, "geometry": {"type": "Point", "coordinates": [138.388617, 37.074915]}}, {"type": "Feature", "properties": {"stop_id": "2", "stop_name": "コミュニティプラザ", "zone_id": null, "location_type": "1"}, "geometry": {"type": "Point", "coordinates": [138.387131, 37.073712]}}, {"type": "Feature", "properties": {"stop_id": "2_1", "stop_name": "コミュニティプラザ", "zone_id": null, "location_type": "0"}, "geometry": {"type": "Point", "coordinates": [138.387131, 37.073712]}}, {"type": "Feature", "properties": {"stop_id": "2_2", "stop_name": "コミュニティプラザ", "zone_id": null, "location_type": "0"}, "geometry": {"type": "Point", "coordinates": [138.387131, 37.073712]}}, {"type": "Feature", "properties": {"stop_id": "3", "stop_name": "農協前", "zone_id": null, "location_type": "1"}, "geometry": {"type": "Point", "coordinates": [138.383725, 37.078257]}}, {"type": "Feature", "properties": {"stop_id": "3_1", "stop_name": "農協前", "zone_id": null, "location_type": "0"}, "geometry": {"type": "Point", "coordinates": [138.383725, 37.078257]}}, {"type": "Feature", "properties": {"stop_id": "3_2", "stop_name": "農協前", "zone_id": null, "location_type": "0"}, "geometry": {"type": "Point", "coordinates": [138.383725, 37.078257]}}, {"type": "Feature", "properties": {"stop_id": "4", "stop_name": "牧区総合事務所前", "zone_id": null, "location_type": "1"}, "geometry": {"type": "Point", "coordinates": [138.383542, 37.078771]}}, {"type": "Feature", "properties": {"stop_id": "4_1", "stop_name": "牧区総合事務所前", "zone_id": null, "location_type": "0"}, "geometry": {"type": "Point", "coordinates": [138.383542, 37.078771]}}, {"type": "Feature", "properties": {"stop_id": "5", "stop_name": "下樫谷", "zone_id": null, "location_type": "1"}, "geometry": {"type": "Point", "coordinates": [138.392372, 37.088374]}}, {"type": "Feature", "properties": {"stop_id": "5_1", "stop_name": "下樫谷", "zone_id": null, "location_type": "0"}, "geometry": {"type": "Point", "coordinates": [138.392372, 37.088374]}}, {"type": "Feature", "properties": {"stop_id": "6", "stop_name": "中樫谷", "zone_id": null, "location_type": "1"}, "geometry": {"type": "Point", "coordinates": [138.39631, 37.089726]}}, {"type": "Feature", "properties": {"stop_id": "6_1", "stop_name": "中樫谷", "zone_id": null, "location_type": "0"}, "geometry": {"type": "Point", "coordinates": [138.39631, 37.089726]}}, {"type": "Feature", "properties": {"stop_id": "7", "stop_name": "上樫谷", "zone_id": null, "location_type": "1"}, "geometry": {"type": "Point", "coordinates": [138.395784, 37.091061]}}, {"type": "Feature", "properties": {"stop_id": "7_1", "stop_name": "上樫谷", "zone_id": null, "location_type": "0"}, "geometry": {"type": "Point", "coordinates": [138.395784, 37.091061]}}, {"type": "Feature", "properties": {"stop_id": "8", "stop_name": "沖見の里", "zone_id": null, "location_type": "1"}, "geometry": {"type": "Point", "coordinates": [138.398938, 37.097523]}}, {"type": "Feature", "properties": {"stop_id": "8_1", "stop_name": "沖見の里", "zone_id": null, "location_type": "0"}, "geometry": {"type": "Point", "coordinates": [138.398938, 37.097523]}}, {"type": "Feature", "properties": {"stop_id": "9", "stop_name": "大月交流促進センター", "zone_id": null, "location_type": "1"}, "geometry": {"type": "Point", "coordinates": [138.397935, 37.100813]}}, {"type": "Feature", "properties": {"stop_id": "9_1", "stop_name": "大月交流促進センター", "zone_id": null, "location_type": "0"}, "geometry": {"type": "Point", "coordinates": [138.397935, 37.100813]}}, {"type": "Feature", "properties": {"stop_id": "12", "stop_name": "平方", "zone_id": null, "location_type": "1"}, "geometry": {"type": "Point", "coordinates": [138.405456, 37.113361]}}, {"type": "Feature", "properties": {"stop_id": "12_1", "stop_name": "平方", "zone_id": null, "location_type": "0"}, "geometry": {"type": "Point", "coordinates": [138.405456, 37.113361]}}, {"type": "Feature", "properties": {"stop_id": "13", "stop_name": "北坪山", "zone_id": null, "location_type": "1"}, "geometry": {"type": "Point", "coordinates": [138.4025, 37.12325]}}, {"type": "Feature", "properties": {"stop_id": "13_1", "stop_name": "北坪山", "zone_id": null, "location_type": "0"}, "geometry": {"type": "Point", "coordinates": [138.4025, 37.12325]}}, {"type": "Feature", "properties": {"stop_id": "14", "stop_name": "南坪山", "zone_id": null, "location_type": "1"}, "geometry": {"type": "Point", "coordinates": [138.400628, 37.116868]}}, {"type": "Feature", "properties": {"stop_id": "14_1", "stop_name": "南坪山", "zone_id": null, "location_type": "0"}, "geometry": {"type": "Point", "coordinates": [138.400628, 37.116868]}}, {"type": "Feature", "properties": {"stop_id": "15", "stop_name": "下川井沢", "zone_id": null, "location_type": "1"}, "geometry": {"type": "Point", "coordinates": [138.389239, 37.104124]}}, {"type": "Feature", "properties": {"stop_id": "15_1", "stop_name": "下川井沢", "zone_id": null, "location_type": "0"}, "geometry": {"type": "Point", "coordinates": [138.389239, 37.104124]}}, {"type": "Feature", "properties": {"stop_id": "16", "stop_name": "烏場", "zone_id": null, "location_type": "1"}, "geometry": {"type": "Point", "coordinates": [138.38881, 37.099371]}}, {"type": "Feature", "properties": {"stop_id": "16_1", "stop_name": "烏場", "zone_id": null, "location_type": "0"}, "geometry": {"type": "Point", "coordinates": [138.38881, 37.099371]}}, {"type": "Feature", "properties": {"stop_id": "17", "stop_name": "大林公園", "zone_id": null, "location_type": "1"}, "geometry": {"type": "Point", "coordinates": [138.384315, 37.09368]}}, {"type": "Feature", "properties": {"stop_id": "17_1", "stop_name": "大林公園", "zone_id": null, "location_type": "0"}, "geometry": {"type": "Point", "coordinates": [138.384315, 37.09368]}}, {"type": "Feature", "properties": {"stop_id": "18", "stop_name": "池舟", "zone_id": null, "location_type": "1"}, "geometry": {"type": "Point", "coordinates": [138.376869, 37.092628]}}, {"type": "Feature", "properties": {"stop_id": "18_1", "stop_name": "池舟", "zone_id": null, "location_type": "0"}, "geometry": {"type": "Point", "coordinates": [138.376869, 37.092628]}}, {"type": "Feature", "properties": {"stop_id": "19", "stop_name": "ふるさと村", "zone_id": null, "location_type": "1"}, "geometry": {"type": "Point", "coordinates": [138.372191, 37.092046]}}, {"type": "Feature", "properties": {"stop_id": "19_1", "stop_name": "ふるさと村", "zone_id": null, "location_type": "0"}, "geometry": {"type": "Point", "coordinates": [138.372191, 37.092046]}}, {"type": "Feature", "properties": {"stop_id": "20", "stop_name": "山口", "zone_id": null, "location_type": "1"}, "geometry": {"type": "Point", "coordinates": [138.368189, 37.084959]}}, {"type": "Feature", "properties": {"stop_id": "20_1", "stop_name": "山口", "zone_id": null, "location_type": "0"}, "geometry": {"type": "Point", "coordinates": [138.368189, 37.084959]}}, {"type": "Feature", "properties": {"stop_id": "24", "stop_name": "落田橋", "zone_id": null, "location_type": "1"}, "geometry": {"type": "Point", "coordinates": [138.379176, 37.081647]}}, {"type": "Feature", "properties": {"stop_id": "24_1", "stop_name": "落田橋", "zone_id": null, "location_type": "0"}, "geometry": {"type": "Point", "coordinates": [138.379176, 37.081647]}}]}