{"type": "FeatureCollection", "name": "stops", "crs": {"type": "name", "properties": {"name": "urn:ogc:def:crs:OGC:1.3:CRS84"}}, "features": [{"type": "Feature", "properties": {"stop_id": "1_01", "stop_name": "安心市", "zone_id": "1_01", "location_type": "0"}, "geometry": {"type": "Point", "coordinates": [134.518855, 34.12279]}}, {"type": "Feature", "properties": {"stop_id": "10_01", "stop_name": "健祥会リバティ", "zone_id": "10_01", "location_type": "0"}, "geometry": {"type": "Point", "coordinates": [134.547565, 34.106492]}}, {"type": "Feature", "properties": {"stop_id": "11_01", "stop_name": "サークルＫ（旧）", "zone_id": "11_01", "location_type": "0"}, "geometry": {"type": "Point", "coordinates": [134.53257, 34.115077]}}, {"type": "Feature", "properties": {"stop_id": "12_01", "stop_name": "サンモール北島", "zone_id": "12_01", "location_type": "0"}, "geometry": {"type": "Point", "coordinates": [134.555395, 34.112903]}}, {"type": "Feature", "properties": {"stop_id": "13_01", "stop_name": "四国大学前", "zone_id": "13_01", "location_type": "0"}, "geometry": {"type": "Point", "coordinates": [134.556503, 34.103959]}}, {"type": "Feature", "properties": {"stop_id": "13_02", "stop_name": "四国大学前", "zone_id": "13_02", "location_type": "0"}, "geometry": {"type": "Point", "coordinates": [134.556703, 34.104015]}}, {"type": "Feature", "properties": {"stop_id": "14_01", "stop_name": "清水歯科", "zone_id": "14_01", "location_type": "0"}, "geometry": {"type": "Point", "coordinates": [134.532245, 34.113297]}}, {"type": "Feature", "properties": {"stop_id": "14_02", "stop_name": "清水歯科", "zone_id": "14_02", "location_type": "0"}, "geometry": {"type": "Point", "coordinates": [134.532323, 34.113316]}}, {"type": "Feature", "properties": {"stop_id": "15_01", "stop_name": "しんせん市北", "zone_id": "15_01", "location_type": "0"}, "geometry": {"type": "Point", "coordinates": [134.532519, 34.112049]}}, {"type": "Feature", "properties": {"stop_id": "15_02", "stop_name": "しんせん市北", "zone_id": "15_02", "location_type": "0"}, "geometry": {"type": "Point", "coordinates": [134.532718, 34.112194]}}, {"type": "Feature", "properties": {"stop_id": "16_01", "stop_name": "田岡病院前", "zone_id": "16_01", "location_type": "0"}, "geometry": {"type": "Point", "coordinates": [134.55367, 34.11036]}}, {"type": "Feature", "properties": {"stop_id": "16_02", "stop_name": "田岡病院前", "zone_id": "16_02", "location_type": "0"}, "geometry": {"type": "Point", "coordinates": [134.553701, 34.110281]}}, {"type": "Feature", "properties": {"stop_id": "17_01", "stop_name": "田尾宅前", "zone_id": "17_01", "location_type": "0"}, "geometry": {"type": "Point", "coordinates": [134.522457, 34.111531]}}, {"type": "Feature", "properties": {"stop_id": "17_02", "stop_name": "田尾宅前", "zone_id": "17_02", "location_type": "0"}, "geometry": {"type": "Point", "coordinates": [134.522397, 34.111545]}}, {"type": "Feature", "properties": {"stop_id": "18_01", "stop_name": "高良神社東", "zone_id": "18_01", "location_type": "0"}, "geometry": {"type": "Point", "coordinates": [134.543027, 34.107896]}}, {"type": "Feature", "properties": {"stop_id": "18_02", "stop_name": "高良神社東", "zone_id": "18_02", "location_type": "0"}, "geometry": {"type": "Point", "coordinates": [134.54299, 34.107977]}}, {"type": "Feature", "properties": {"stop_id": "19_01", "stop_name": "高良神社前", "zone_id": "19_01", "location_type": "0"}, "geometry": {"type": "Point", "coordinates": [134.541643, 34.107561]}}, {"type": "Feature", "properties": {"stop_id": "19_02", "stop_name": "高良神社前", "zone_id": "19_02", "location_type": "0"}, "geometry": {"type": "Point", "coordinates": [134.541406, 34.107571]}}, {"type": "Feature", "properties": {"stop_id": "2_01", "stop_name": "応神クリニック", "zone_id": "2_01", "location_type": "0"}, "geometry": {"type": "Point", "coordinates": [134.526657, 34.113994]}}, {"type": "Feature", "properties": {"stop_id": "2_02", "stop_name": "応神クリニック", "zone_id": "2_02", "location_type": "0"}, "geometry": {"type": "Point", "coordinates": [134.526628, 34.114084]}}, {"type": "Feature", "properties": {"stop_id": "20_01", "stop_name": "田口宅前", "zone_id": "20_01", "location_type": "0"}, "geometry": {"type": "Point", "coordinates": [134.548654, 34.10464]}}, {"type": "Feature", "properties": {"stop_id": "20_02", "stop_name": "田口宅前", "zone_id": "20_02", "location_type": "0"}, "geometry": {"type": "Point", "coordinates": [134.548699, 34.104731]}}, {"type": "Feature", "properties": {"stop_id": "21_01", "stop_name": "徳島信金川内支店前", "zone_id": "21_01", "location_type": "0"}, "geometry": {"type": "Point", "coordinates": [134.554499, 34.105078]}}, {"type": "Feature", "properties": {"stop_id": "21_02", "stop_name": "徳島信金川内支店前", "zone_id": "21_02", "location_type": "0"}, "geometry": {"type": "Point", "coordinates": [134.554449, 34.105212]}}, {"type": "Feature", "properties": {"stop_id": "22_01", "stop_name": "徳島新聞応神専売所前", "zone_id": "22_01", "location_type": "0"}, "geometry": {"type": "Point", "coordinates": [134.539521, 34.106676]}}, {"type": "Feature", "properties": {"stop_id": "22_02", "stop_name": "徳島新聞応神専売所前", "zone_id": "22_02", "location_type": "0"}, "geometry": {"type": "Point", "coordinates": [134.539404, 34.106694]}}, {"type": "Feature", "properties": {"stop_id": "23_01", "stop_name": "徳永宅前", "zone_id": "23_01", "location_type": "0"}, "geometry": {"type": "Point", "coordinates": [134.518939, 34.115353]}}, {"type": "Feature", "properties": {"stop_id": "23_02", "stop_name": "徳永宅前", "zone_id": "23_02", "location_type": "0"}, "geometry": {"type": "Point", "coordinates": [134.51901, 34.115345]}}, {"type": "Feature", "properties": {"stop_id": "24_01", "stop_name": "春田宅前", "zone_id": "24_01", "location_type": "0"}, "geometry": {"type": "Point", "coordinates": [134.536966, 34.108566]}}, {"type": "Feature", "properties": {"stop_id": "24_02", "stop_name": "春田宅前", "zone_id": "24_02", "location_type": "0"}, "geometry": {"type": "Point", "coordinates": [134.537013, 34.108644]}}, {"type": "Feature", "properties": {"stop_id": "25_01", "stop_name": "坂東宅前", "zone_id": "25_01", "location_type": "0"}, "geometry": {"type": "Point", "coordinates": [134.549789, 34.102419]}}, {"type": "Feature", "properties": {"stop_id": "25_02", "stop_name": "坂東宅前", "zone_id": "25_02", "location_type": "0"}, "geometry": {"type": "Point", "coordinates": [134.549811, 34.102478]}}, {"type": "Feature", "properties": {"stop_id": "26_01", "stop_name": "日建工業前", "zone_id": "26_01", "location_type": "0"}, "geometry": {"type": "Point", "coordinates": [134.532016, 34.119783]}}, {"type": "Feature", "properties": {"stop_id": "27_01", "stop_name": "武威神社前", "zone_id": "27_01", "location_type": "0"}, "geometry": {"type": "Point", "coordinates": [134.522232, 34.113133]}}, {"type": "Feature", "properties": {"stop_id": "28_01", "stop_name": "フジグラン北島", "zone_id": "28_01", "location_type": "0"}, "geometry": {"type": "Point", "coordinates": [134.547537, 34.111421]}}, {"type": "Feature", "properties": {"stop_id": "29_01", "stop_name": "藤田荘", "zone_id": "29_01", "location_type": "0"}, "geometry": {"type": "Point", "coordinates": [134.55096, 34.103274]}}, {"type": "Feature", "properties": {"stop_id": "3_01", "stop_name": "応神公栄会館", "zone_id": "3_01", "location_type": "0"}, "geometry": {"type": "Point", "coordinates": [134.524257, 34.119486]}}, {"type": "Feature", "properties": {"stop_id": "3_02", "stop_name": "応神公栄会館", "zone_id": "3_02", "location_type": "0"}, "geometry": {"type": "Point", "coordinates": [134.524282, 34.11942]}}, {"type": "Feature", "properties": {"stop_id": "30_01", "stop_name": "古川東部集会所前", "zone_id": "30_01", "location_type": "0"}, "geometry": {"type": "Point", "coordinates": [134.544871, 34.105648]}}, {"type": "Feature", "properties": {"stop_id": "30_02", "stop_name": "古川東部集会所前", "zone_id": "30_02", "location_type": "0"}, "geometry": {"type": "Point", "coordinates": [134.544866, 34.105707]}}, {"type": "Feature", "properties": {"stop_id": "31_01", "stop_name": "松下宅前", "zone_id": "31_01", "location_type": "0"}, "geometry": {"type": "Point", "coordinates": [134.536888, 34.10967]}}, {"type": "Feature", "properties": {"stop_id": "31_02", "stop_name": "松下宅前", "zone_id": "31_02", "location_type": "0"}, "geometry": {"type": "Point", "coordinates": [134.536951, 34.109729]}}, {"type": "Feature", "properties": {"stop_id": "32_01", "stop_name": "マルナカ成長店", "zone_id": "32_01", "location_type": "0"}, "geometry": {"type": "Point", "coordinates": [134.519105, 34.125172]}}, {"type": "Feature", "properties": {"stop_id": "33_01", "stop_name": "三好宅前", "zone_id": "33_01", "location_type": "0"}, "geometry": {"type": "Point", "coordinates": [134.545597, 34.108402]}}, {"type": "Feature", "properties": {"stop_id": "33_02", "stop_name": "三好宅前", "zone_id": "33_02", "location_type": "0"}, "geometry": {"type": "Point", "coordinates": [134.545607, 34.108461]}}, {"type": "Feature", "properties": {"stop_id": "34_01", "stop_name": "吉崎宅前", "zone_id": "34_01", "location_type": "0"}, "geometry": {"type": "Point", "coordinates": [134.526, 34.120218]}}, {"type": "Feature", "properties": {"stop_id": "34_02", "stop_name": "吉崎宅前", "zone_id": "34_02", "location_type": "0"}, "geometry": {"type": "Point", "coordinates": [134.526136, 34.120225]}}, {"type": "Feature", "properties": {"stop_id": "35_01", "stop_name": "吉崎美容室東", "zone_id": "35_01", "location_type": "0"}, "geometry": {"type": "Point", "coordinates": [134.521051, 34.119152]}}, {"type": "Feature", "properties": {"stop_id": "35_02", "stop_name": "吉崎美容室東", "zone_id": "35_02", "location_type": "0"}, "geometry": {"type": "Point", "coordinates": [134.520945, 34.119075]}}, {"type": "Feature", "properties": {"stop_id": "4_01", "stop_name": "（株）アトム精工前", "zone_id": "4_01", "location_type": "0"}, "geometry": {"type": "Point", "coordinates": [134.535326, 34.110057]}}, {"type": "Feature", "properties": {"stop_id": "4_02", "stop_name": "（株）アトム精工前", "zone_id": "4_02", "location_type": "0"}, "geometry": {"type": "Point", "coordinates": [134.535338, 34.110113]}}, {"type": "Feature", "properties": {"stop_id": "5_01", "stop_name": "河野医院前", "zone_id": "5_01", "location_type": "0"}, "geometry": {"type": "Point", "coordinates": [134.518002, 34.112254]}}, {"type": "Feature", "properties": {"stop_id": "5_02", "stop_name": "河野医院前", "zone_id": "5_02", "location_type": "0"}, "geometry": {"type": "Point", "coordinates": [134.518057, 34.112245]}}, {"type": "Feature", "properties": {"stop_id": "6_01", "stop_name": "北吉成会館前", "zone_id": "6_01", "location_type": "0"}, "geometry": {"type": "Point", "coordinates": [134.527678, 34.11981]}}, {"type": "Feature", "properties": {"stop_id": "7_01", "stop_name": "キッサニューきゃびん前", "zone_id": "7_01", "location_type": "0"}, "geometry": {"type": "Point", "coordinates": [134.518791, 34.110935]}}, {"type": "Feature", "properties": {"stop_id": "7_02", "stop_name": "キッサニューきゃびん前", "zone_id": "7_02", "location_type": "0"}, "geometry": {"type": "Point", "coordinates": [134.51883, 34.110982]}}, {"type": "Feature", "properties": {"stop_id": "8_01", "stop_name": "キョーエイ北島店", "zone_id": "8_01", "location_type": "0"}, "geometry": {"type": "Point", "coordinates": [134.552069, 34.122008]}}, {"type": "Feature", "properties": {"stop_id": "9_01", "stop_name": "久木宅前", "zone_id": "9_01", "location_type": "0"}, "geometry": {"type": "Point", "coordinates": [134.553261, 34.104837]}}, {"type": "Feature", "properties": {"stop_id": "9_02", "stop_name": "久木宅前", "zone_id": "9_02", "location_type": "0"}, "geometry": {"type": "Point", "coordinates": [134.553207, 34.10489]}}]}