{"type": "FeatureCollection", "name": "stops", "crs": {"type": "name", "properties": {"name": "urn:ogc:def:crs:OGC:1.3:CRS84"}}, "features": [{"type": "Feature", "properties": {"stop_id": "1001_01", "stop_name": "市役所", "zone_id": "1001_01", "location_type": "0"}, "geometry": {"type": "Point", "coordinates": [137.0395165, 35.1322381]}}, {"type": "Feature", "properties": {"stop_id": "1002_01", "stop_name": "図書館", "zone_id": "1002_01", "location_type": "0"}, "geometry": {"type": "Point", "coordinates": [137.0425115, 35.1320455]}}, {"type": "Feature", "properties": {"stop_id": "1002_02", "stop_name": "図書館", "zone_id": "1002_02", "location_type": "0"}, "geometry": {"type": "Point", "coordinates": [137.0424346, 35.13206138]}}, {"type": "Feature", "properties": {"stop_id": "1003_01", "stop_name": "浅間下", "zone_id": "1003_01", "location_type": "0"}, "geometry": {"type": "Point", "coordinates": [137.0449719, 35.13088756]}}, {"type": "Feature", "properties": {"stop_id": "1004_01", "stop_name": "笠寺山", "zone_id": "1004_01", "location_type": "0"}, "geometry": {"type": "Point", "coordinates": [137.045638, 35.1268151]}}, {"type": "Feature", "properties": {"stop_id": "1005_01", "stop_name": "日進駅", "zone_id": "1005_01", "location_type": "0"}, "geometry": {"type": "Point", "coordinates": [137.0480203, 35.11869436]}}, {"type": "Feature", "properties": {"stop_id": "1005_02", "stop_name": "日進駅", "zone_id": "1005_02", "location_type": "0"}, "geometry": {"type": "Point", "coordinates": [137.04829, 35.11897]}}, {"type": "Feature", "properties": {"stop_id": "1006_01", "stop_name": "日進駅南", "zone_id": "1006_01", "location_type": "0"}, "geometry": {"type": "Point", "coordinates": [137.049248, 35.1159416]}}, {"type": "Feature", "properties": {"stop_id": "1007_01", "stop_name": "南ヶ丘北", "zone_id": "1007_01", "location_type": "0"}, "geometry": {"type": "Point", "coordinates": [137.0437225, 35.1141545]}}, {"type": "Feature", "properties": {"stop_id": "1008_01", "stop_name": "南ヶ丘南", "zone_id": "1008_01", "location_type": "0"}, "geometry": {"type": "Point", "coordinates": [137.0415455, 35.11139985]}}, {"type": "Feature", "properties": {"stop_id": "1009_01", "stop_name": "藤塚六丁目", "zone_id": "1009_01", "location_type": "0"}, "geometry": {"type": "Point", "coordinates": [137.036693, 35.11171782]}}, {"type": "Feature", "properties": {"stop_id": "1010_01", "stop_name": "高松池", "zone_id": "1010_01", "location_type": "0"}, "geometry": {"type": "Point", "coordinates": [137.0406254, 35.11480604]}}, {"type": "Feature", "properties": {"stop_id": "1011_01", "stop_name": "鎌ヶ寿", "zone_id": "1011_01", "location_type": "0"}, "geometry": {"type": "Point", "coordinates": [137.0401603, 35.1229965]}}, {"type": "Feature", "properties": {"stop_id": "1012_01", "stop_name": "藤塚", "zone_id": "1012_01", "location_type": "0"}, "geometry": {"type": "Point", "coordinates": [137.0347574, 35.12378324]}}, {"type": "Feature", "properties": {"stop_id": "1013_01", "stop_name": "上ノ山", "zone_id": "1013_01", "location_type": "0"}, "geometry": {"type": "Point", "coordinates": [137.0286989, 35.12518601]}}, {"type": "Feature", "properties": {"stop_id": "1014_01", "stop_name": "浅田区民会館", "zone_id": "1014_01", "location_type": "0"}, "geometry": {"type": "Point", "coordinates": [137.0240962, 35.12469102]}}, {"type": "Feature", "properties": {"stop_id": "1015_01", "stop_name": "平子", "zone_id": "1015_01", "location_type": "0"}, "geometry": {"type": "Point", "coordinates": [137.0252287, 35.12179047]}}, {"type": "Feature", "properties": {"stop_id": "1016_01", "stop_name": "箕ノ手北", "zone_id": "1016_01", "location_type": "0"}, "geometry": {"type": "Point", "coordinates": [137.0211555, 35.1192227]}}, {"type": "Feature", "properties": {"stop_id": "1017_01", "stop_name": "赤池駅南", "zone_id": "1017_01", "location_type": "0"}, "geometry": {"type": "Point", "coordinates": [137.0195622, 35.1202101]}}, {"type": "Feature", "properties": {"stop_id": "1018_01", "stop_name": "赤池駅", "zone_id": "1018_01", "location_type": "0"}, "geometry": {"type": "Point", "coordinates": [137.0184716, 35.12125081]}}, {"type": "Feature", "properties": {"stop_id": "1019_01", "stop_name": "赤池小学校", "zone_id": "1019_01", "location_type": "0"}, "geometry": {"type": "Point", "coordinates": [137.0173548, 35.11852804]}}, {"type": "Feature", "properties": {"stop_id": "1020_01", "stop_name": "赤池南一丁目", "zone_id": "1020_01", "location_type": "0"}, "geometry": {"type": "Point", "coordinates": [137.0195002, 35.11774279]}}, {"type": "Feature", "properties": {"stop_id": "1021_01", "stop_name": "箕ノ手西", "zone_id": "1021_01", "location_type": "0"}, "geometry": {"type": "Point", "coordinates": [137.0210619, 35.1184024]}}, {"type": "Feature", "properties": {"stop_id": "1022_01", "stop_name": "箕ノ手中央", "zone_id": "1022_01", "location_type": "0"}, "geometry": {"type": "Point", "coordinates": [137.0260375, 35.1127313]}}, {"type": "Feature", "properties": {"stop_id": "1023_01", "stop_name": "箕ノ手東", "zone_id": "1023_01", "location_type": "0"}, "geometry": {"type": "Point", "coordinates": [137.0284422, 35.11257175]}}, {"type": "Feature", "properties": {"stop_id": "1024_01", "stop_name": "平子南", "zone_id": "1024_01", "location_type": "0"}, "geometry": {"type": "Point", "coordinates": [137.0303337, 35.11587268]}}, {"type": "Feature", "properties": {"stop_id": "1025_01", "stop_name": "藤塚南", "zone_id": "1025_01", "location_type": "0"}, "geometry": {"type": "Point", "coordinates": [137.0386541, 35.11934911]}}, {"type": "Feature", "properties": {"stop_id": "1026_01", "stop_name": "おりど病院", "zone_id": "1026_01", "location_type": "0"}, "geometry": {"type": "Point", "coordinates": [137.0419697, 35.1235671]}}, {"type": "Feature", "properties": {"stop_id": "1026_02", "stop_name": "おりど病院", "zone_id": "1026_02", "location_type": "0"}, "geometry": {"type": "Point", "coordinates": [137.04158, 35.12365]}}, {"type": "Feature", "properties": {"stop_id": "1027_01", "stop_name": "市役所東", "zone_id": "1027_01", "location_type": "0"}, "geometry": {"type": "Point", "coordinates": [137.0405075, 35.13257394]}}, {"type": "Feature", "properties": {"stop_id": "1028_01", "stop_name": "日生東山", "zone_id": "1028_01", "location_type": "0"}, "geometry": {"type": "Point", "coordinates": [137.0490411, 35.1265224]}}, {"type": "Feature", "properties": {"stop_id": "1029_01", "stop_name": "寺脇", "zone_id": "1029_01", "location_type": "0"}, "geometry": {"type": "Point", "coordinates": [137.0474376, 35.12274204]}}, {"type": "Feature", "properties": {"stop_id": "1030_01", "stop_name": "東山グランド", "zone_id": "1030_01", "location_type": "0"}, "geometry": {"type": "Point", "coordinates": [137.0527781, 35.12287648]}}, {"type": "Feature", "properties": {"stop_id": "1031_01", "stop_name": "日東東山", "zone_id": "1031_01", "location_type": "0"}, "geometry": {"type": "Point", "coordinates": [137.0536037, 35.12508704]}}, {"type": "Feature", "properties": {"stop_id": "1032_01", "stop_name": "日東東山北", "zone_id": "1032_01", "location_type": "0"}, "geometry": {"type": "Point", "coordinates": [137.0565406, 35.12610253]}}, {"type": "Feature", "properties": {"stop_id": "1032_02", "stop_name": "日東東山北", "zone_id": "1032_02", "location_type": "0"}, "geometry": {"type": "Point", "coordinates": [137.0575693, 35.1260226]}}, {"type": "Feature", "properties": {"stop_id": "1033_01", "stop_name": "橦木北", "zone_id": "1033_01", "location_type": "0"}, "geometry": {"type": "Point", "coordinates": [137.0586277, 35.12264039]}}, {"type": "Feature", "properties": {"stop_id": "1033_02", "stop_name": "橦木北", "zone_id": "1033_02", "location_type": "0"}, "geometry": {"type": "Point", "coordinates": [137.0586903, 35.12307603]}}, {"type": "Feature", "properties": {"stop_id": "1034_01", "stop_name": "栄", "zone_id": "1034_01", "location_type": "0"}, "geometry": {"type": "Point", "coordinates": [137.0538668, 35.12127765]}}, {"type": "Feature", "properties": {"stop_id": "1034_02", "stop_name": "栄", "zone_id": "1034_02", "location_type": "0"}, "geometry": {"type": "Point", "coordinates": [137.0525942, 35.1211982]}}, {"type": "Feature", "properties": {"stop_id": "1035_01", "stop_name": "日進団地", "zone_id": "1035_01", "location_type": "0"}, "geometry": {"type": "Point", "coordinates": [137.0618898, 35.1237009]}}, {"type": "Feature", "properties": {"stop_id": "1035_02", "stop_name": "日進団地", "zone_id": "1035_02", "location_type": "0"}, "geometry": {"type": "Point", "coordinates": [137.0618799, 35.12359734]}}, {"type": "Feature", "properties": {"stop_id": "1036_01", "stop_name": "米野木台二丁目", "zone_id": "1036_01", "location_type": "0"}, "geometry": {"type": "Point", "coordinates": [137.0641678, 35.12528096]}}, {"type": "Feature", "properties": {"stop_id": "1037_01", "stop_name": "福成", "zone_id": "1037_01", "location_type": "0"}, "geometry": {"type": "Point", "coordinates": [137.0640377, 35.1304974]}}, {"type": "Feature", "properties": {"stop_id": "1038_01", "stop_name": "宮西", "zone_id": "1038_01", "location_type": "0"}, "geometry": {"type": "Point", "coordinates": [137.0602123, 35.1366353]}}, {"type": "Feature", "properties": {"stop_id": "1038_02", "stop_name": "宮西", "zone_id": "1038_02", "location_type": "0"}, "geometry": {"type": "Point", "coordinates": [137.0603154, 35.13666]}}, {"type": "Feature", "properties": {"stop_id": "1039_01", "stop_name": "藤島", "zone_id": "1039_01", "location_type": "0"}, "geometry": {"type": "Point", "coordinates": [137.05697, 35.1402329]}}, {"type": "Feature", "properties": {"stop_id": "1039_02", "stop_name": "藤島", "zone_id": "1039_02", "location_type": "0"}, "geometry": {"type": "Point", "coordinates": [137.0572262, 35.14013355]}}, {"type": "Feature", "properties": {"stop_id": "1040_01", "stop_name": "藤島小万場", "zone_id": "1040_01", "location_type": "0"}, "geometry": {"type": "Point", "coordinates": [137.055166, 35.14028158]}}, {"type": "Feature", "properties": {"stop_id": "1041_01", "stop_name": "東中学校", "zone_id": "1041_01", "location_type": "0"}, "geometry": {"type": "Point", "coordinates": [137.0547418, 35.1343618]}}, {"type": "Feature", "properties": {"stop_id": "1041_02", "stop_name": "東中学校", "zone_id": "1041_02", "location_type": "0"}, "geometry": {"type": "Point", "coordinates": [137.054843, 35.1342938]}}, {"type": "Feature", "properties": {"stop_id": "1042_01", "stop_name": "東部福祉会館北", "zone_id": "1042_01", "location_type": "0"}, "geometry": {"type": "Point", "coordinates": [137.0607375, 35.13492204]}}, {"type": "Feature", "properties": {"stop_id": "1043_01", "stop_name": "本米野木", "zone_id": "1043_01", "location_type": "0"}, "geometry": {"type": "Point", "coordinates": [137.0658168, 35.13088759]}}, {"type": "Feature", "properties": {"stop_id": "1044_01", "stop_name": "米野木駅", "zone_id": "1044_01", "location_type": "0"}, "geometry": {"type": "Point", "coordinates": [137.0669302, 35.1242181]}}, {"type": "Feature", "properties": {"stop_id": "1045_01", "stop_name": "平子台", "zone_id": "1045_01", "location_type": "0"}, "geometry": {"type": "Point", "coordinates": [137.0565469, 35.12867438]}}, {"type": "Feature", "properties": {"stop_id": "1046_01", "stop_name": "米野木西", "zone_id": "1046_01", "location_type": "0"}, "geometry": {"type": "Point", "coordinates": [137.0560743, 35.13178721]}}, {"type": "Feature", "properties": {"stop_id": "1046_02", "stop_name": "米野木西", "zone_id": "1046_02", "location_type": "0"}, "geometry": {"type": "Point", "coordinates": [137.0557637, 35.1318192]}}, {"type": "Feature", "properties": {"stop_id": "1047_01", "stop_name": "藤枝", "zone_id": "1047_01", "location_type": "0"}, "geometry": {"type": "Point", "coordinates": [137.049705, 35.13168108]}}, {"type": "Feature", "properties": {"stop_id": "1047_02", "stop_name": "藤枝", "zone_id": "1047_02", "location_type": "0"}, "geometry": {"type": "Point", "coordinates": [137.0510344, 35.13191025]}}, {"type": "Feature", "properties": {"stop_id": "1048_01", "stop_name": "中央福祉センター", "zone_id": "1048_01", "location_type": "0"}, "geometry": {"type": "Point", "coordinates": [137.0418847, 35.13304854]}}, {"type": "Feature", "properties": {"stop_id": "1049_01", "stop_name": "米野木", "zone_id": "1049_01", "location_type": "0"}, "geometry": {"type": "Point", "coordinates": [137.0627228, 35.13243764]}}, {"type": "Feature", "properties": {"stop_id": "1050_01", "stop_name": "米野木東仲", "zone_id": "1050_01", "location_type": "0"}, "geometry": {"type": "Point", "coordinates": [137.0660009, 35.13288176]}}, {"type": "Feature", "properties": {"stop_id": "1050_02", "stop_name": "米野木東仲", "zone_id": "1050_02", "location_type": "0"}, "geometry": {"type": "Point", "coordinates": [137.0657089, 35.13274404]}}, {"type": "Feature", "properties": {"stop_id": "1051_01", "stop_name": "丸山", "zone_id": "1051_01", "location_type": "0"}, "geometry": {"type": "Point", "coordinates": [137.0714572, 35.1344665]}}, {"type": "Feature", "properties": {"stop_id": "1052_01", "stop_name": "柿ノ木", "zone_id": "1052_01", "location_type": "0"}, "geometry": {"type": "Point", "coordinates": [137.0742247, 35.13724828]}}, {"type": "Feature", "properties": {"stop_id": "1053_01", "stop_name": "三本木", "zone_id": "1053_01", "location_type": "0"}, "geometry": {"type": "Point", "coordinates": [137.0787882, 35.13976519]}}, {"type": "Feature", "properties": {"stop_id": "1053_02", "stop_name": "三本木", "zone_id": "1053_02", "location_type": "0"}, "geometry": {"type": "Point", "coordinates": [137.0788676, 35.13964067]}}, {"type": "Feature", "properties": {"stop_id": "1054_01", "stop_name": "日進ニュータウン", "zone_id": "1054_01", "location_type": "0"}, "geometry": {"type": "Point", "coordinates": [137.077909, 35.14465547]}}, {"type": "Feature", "properties": {"stop_id": "1055_01", "stop_name": "三本木区民会館", "zone_id": "1055_01", "location_type": "0"}, "geometry": {"type": "Point", "coordinates": [137.0817095, 35.14171027]}}, {"type": "Feature", "properties": {"stop_id": "1055_02", "stop_name": "三本木区民会館", "zone_id": "1055_02", "location_type": "0"}, "geometry": {"type": "Point", "coordinates": [137.0817977, 35.14163434]}}, {"type": "Feature", "properties": {"stop_id": "1056_01", "stop_name": "上川田", "zone_id": "1056_01", "location_type": "0"}, "geometry": {"type": "Point", "coordinates": [137.0850435, 35.14434885]}}, {"type": "Feature", "properties": {"stop_id": "1056_02", "stop_name": "上川田", "zone_id": "1056_02", "location_type": "0"}, "geometry": {"type": "Point", "coordinates": [137.0837002, 35.143268]}}, {"type": "Feature", "properties": {"stop_id": "1057_01", "stop_name": "三ヶ峯", "zone_id": "1057_01", "location_type": "0"}, "geometry": {"type": "Point", "coordinates": [137.0960994, 35.1457105]}}, {"type": "Feature", "properties": {"stop_id": "1058_01", "stop_name": "名商大", "zone_id": "1058_01", "location_type": "0"}, "geometry": {"type": "Point", "coordinates": [137.09398, 35.14747537]}}, {"type": "Feature", "properties": {"stop_id": "1059_01", "stop_name": "南山エピック北", "zone_id": "1059_01", "location_type": "0"}, "geometry": {"type": "Point", "coordinates": [137.08171, 35.13720589]}}, {"type": "Feature", "properties": {"stop_id": "1060_01", "stop_name": "南山エピック", "zone_id": "1060_01", "location_type": "0"}, "geometry": {"type": "Point", "coordinates": [137.0842551, 35.13536652]}}, {"type": "Feature", "properties": {"stop_id": "1061_01", "stop_name": "南山エピック南", "zone_id": "1061_01", "location_type": "0"}, "geometry": {"type": "Point", "coordinates": [137.0847131, 35.13262993]}}, {"type": "Feature", "properties": {"stop_id": "1062_01", "stop_name": "愛知牧場西", "zone_id": "1062_01", "location_type": "0"}, "geometry": {"type": "Point", "coordinates": [137.0827506, 35.13080566]}}, {"type": "Feature", "properties": {"stop_id": "1063_01", "stop_name": "下五反田", "zone_id": "1063_01", "location_type": "0"}, "geometry": {"type": "Point", "coordinates": [137.0691495, 35.13281618]}}, {"type": "Feature", "properties": {"stop_id": "1064_01", "stop_name": "本郷", "zone_id": "1064_01", "location_type": "0"}, "geometry": {"type": "Point", "coordinates": [137.0459233, 35.13343972]}}, {"type": "Feature", "properties": {"stop_id": "1064_02", "stop_name": "本郷", "zone_id": "1064_02", "location_type": "0"}, "geometry": {"type": "Point", "coordinates": [137.0458586, 35.13352123]}}, {"type": "Feature", "properties": {"stop_id": "1065_01", "stop_name": "白山", "zone_id": "1065_01", "location_type": "0"}, "geometry": {"type": "Point", "coordinates": [137.0446197, 35.13898586]}}, {"type": "Feature", "properties": {"stop_id": "1066_01", "stop_name": "保健センター北", "zone_id": "1066_01", "location_type": "0"}, "geometry": {"type": "Point", "coordinates": [137.0409082, 35.14004073]}}, {"type": "Feature", "properties": {"stop_id": "1067_01", "stop_name": "畔道", "zone_id": "1067_01", "location_type": "0"}, "geometry": {"type": "Point", "coordinates": [137.0371257, 35.13896582]}}, {"type": "Feature", "properties": {"stop_id": "1068_01", "stop_name": "北高上", "zone_id": "1068_01", "location_type": "0"}, "geometry": {"type": "Point", "coordinates": [137.0341747, 35.13812383]}}, {"type": "Feature", "properties": {"stop_id": "1069_01", "stop_name": "南高上", "zone_id": "1069_01", "location_type": "0"}, "geometry": {"type": "Point", "coordinates": [137.0269944, 35.1367701]}}, {"type": "Feature", "properties": {"stop_id": "1069_02", "stop_name": "南高上", "zone_id": "1069_02", "location_type": "0"}, "geometry": {"type": "Point", "coordinates": [137.0269698, 35.13724079]}}, {"type": "Feature", "properties": {"stop_id": "1070_01", "stop_name": "香久山東", "zone_id": "1070_01", "location_type": "0"}, "geometry": {"type": "Point", "coordinates": [137.0310071, 35.14165122]}}, {"type": "Feature", "properties": {"stop_id": "1071_01", "stop_name": "岩崎台・香久山福祉会館", "zone_id": "1071_01", "location_type": "0"}, "geometry": {"type": "Point", "coordinates": [137.0295534, 35.1430048]}}, {"type": "Feature", "properties": {"stop_id": "1072_01", "stop_name": "香久山中", "zone_id": "1072_01", "location_type": "0"}, "geometry": {"type": "Point", "coordinates": [137.0278155, 35.14322767]}}, {"type": "Feature", "properties": {"stop_id": "1072_02", "stop_name": "香久山中", "zone_id": "1072_02", "location_type": "0"}, "geometry": {"type": "Point", "coordinates": [137.027669, 35.143079]}}, {"type": "Feature", "properties": {"stop_id": "1073_01", "stop_name": "香久山", "zone_id": "1073_01", "location_type": "0"}, "geometry": {"type": "Point", "coordinates": [137.0265531, 35.1422851]}}, {"type": "Feature", "properties": {"stop_id": "1074_01", "stop_name": "新田", "zone_id": "1074_01", "location_type": "0"}, "geometry": {"type": "Point", "coordinates": [137.0194062, 35.13432357]}}, {"type": "Feature", "properties": {"stop_id": "1075_01", "stop_name": "日生梅森園前", "zone_id": "1075_01", "location_type": "0"}, "geometry": {"type": "Point", "coordinates": [137.0163278, 35.1357403]}}, {"type": "Feature", "properties": {"stop_id": "1076_01", "stop_name": "日生梅森園", "zone_id": "1076_01", "location_type": "0"}, "geometry": {"type": "Point", "coordinates": [137.0186995, 35.13612724]}}, {"type": "Feature", "properties": {"stop_id": "1077_01", "stop_name": "東名古屋病院", "zone_id": "1077_01", "location_type": "0"}, "geometry": {"type": "Point", "coordinates": [137.0155659, 35.13982284]}}, {"type": "Feature", "properties": {"stop_id": "1078_01", "stop_name": "梅森", "zone_id": "1078_01", "location_type": "0"}, "geometry": {"type": "Point", "coordinates": [137.0146894, 35.13379779]}}, {"type": "Feature", "properties": {"stop_id": "1079_01", "stop_name": "梅森台", "zone_id": "1079_01", "location_type": "0"}, "geometry": {"type": "Point", "coordinates": [137.0108185, 35.13636255]}}, {"type": "Feature", "properties": {"stop_id": "1080_01", "stop_name": "梅森台中", "zone_id": "1080_01", "location_type": "0"}, "geometry": {"type": "Point", "coordinates": [137.0100086, 35.13579873]}}, {"type": "Feature", "properties": {"stop_id": "1081_01", "stop_name": "梅森台西", "zone_id": "1081_01", "location_type": "0"}, "geometry": {"type": "Point", "coordinates": [137.010633, 35.13402872]}}, {"type": "Feature", "properties": {"stop_id": "1082_01", "stop_name": "梅森西", "zone_id": "1082_01", "location_type": "0"}, "geometry": {"type": "Point", "coordinates": [137.0119649, 35.1299592]}}, {"type": "Feature", "properties": {"stop_id": "1083_01", "stop_name": "平針北", "zone_id": "1083_01", "location_type": "0"}, "geometry": {"type": "Point", "coordinates": [137.009051, 35.12487296]}}, {"type": "Feature", "properties": {"stop_id": "1084_01", "stop_name": "西部福祉会館", "zone_id": "1084_01", "location_type": "0"}, "geometry": {"type": "Point", "coordinates": [137.0141846, 35.12467661]}}, {"type": "Feature", "properties": {"stop_id": "1085_01", "stop_name": "赤池駅北", "zone_id": "1085_01", "location_type": "0"}, "geometry": {"type": "Point", "coordinates": [137.0194928, 35.12192048]}}, {"type": "Feature", "properties": {"stop_id": "1086_01", "stop_name": "生涯学習プラザ", "zone_id": "1086_01", "location_type": "0"}, "geometry": {"type": "Point", "coordinates": [137.0225308, 35.125202]}}, {"type": "Feature", "properties": {"stop_id": "1087_01", "stop_name": "浅田北", "zone_id": "1087_01", "location_type": "0"}, "geometry": {"type": "Point", "coordinates": [137.023223, 35.12746151]}}, {"type": "Feature", "properties": {"stop_id": "1088_01", "stop_name": "野方公民館", "zone_id": "1088_01", "location_type": "0"}, "geometry": {"type": "Point", "coordinates": [137.0289183, 35.13005321]}}, {"type": "Feature", "properties": {"stop_id": "1089_01", "stop_name": "岩藤東", "zone_id": "1089_01", "location_type": "0"}, "geometry": {"type": "Point", "coordinates": [137.0541674, 35.1462846]}}, {"type": "Feature", "properties": {"stop_id": "1089_02", "stop_name": "岩藤東", "zone_id": "1089_02", "location_type": "0"}, "geometry": {"type": "Point", "coordinates": [137.0551546, 35.14687227]}}, {"type": "Feature", "properties": {"stop_id": "1090_01", "stop_name": "七ツ塚", "zone_id": "1090_01", "location_type": "0"}, "geometry": {"type": "Point", "coordinates": [137.0583613, 35.14670931]}}, {"type": "Feature", "properties": {"stop_id": "1090_02", "stop_name": "七ツ塚", "zone_id": "1090_02", "location_type": "0"}, "geometry": {"type": "Point", "coordinates": [137.0582713, 35.14663477]}}, {"type": "Feature", "properties": {"stop_id": "1091_01", "stop_name": "夏焼", "zone_id": "1091_01", "location_type": "0"}, "geometry": {"type": "Point", "coordinates": [137.0629068, 35.14700824]}}, {"type": "Feature", "properties": {"stop_id": "1091_02", "stop_name": "夏焼", "zone_id": "1091_02", "location_type": "0"}, "geometry": {"type": "Point", "coordinates": [137.0621069, 35.1468873]}}, {"type": "Feature", "properties": {"stop_id": "1092_01", "stop_name": "総合運動公園西", "zone_id": "1092_01", "location_type": "0"}, "geometry": {"type": "Point", "coordinates": [137.0663777, 35.14860276]}}, {"type": "Feature", "properties": {"stop_id": "1092_02", "stop_name": "総合運動公園西", "zone_id": "1092_02", "location_type": "0"}, "geometry": {"type": "Point", "coordinates": [137.0664428, 35.1487914]}}, {"type": "Feature", "properties": {"stop_id": "1093_01", "stop_name": "五色園", "zone_id": "1093_01", "location_type": "0"}, "geometry": {"type": "Point", "coordinates": [137.0661134, 35.15118691]}}, {"type": "Feature", "properties": {"stop_id": "1093_02", "stop_name": "五色園", "zone_id": "1093_02", "location_type": "0"}, "geometry": {"type": "Point", "coordinates": [137.0661298, 35.15125751]}}, {"type": "Feature", "properties": {"stop_id": "1094_01", "stop_name": "かえで台", "zone_id": "1094_01", "location_type": "0"}, "geometry": {"type": "Point", "coordinates": [137.0614212, 35.15296086]}}, {"type": "Feature", "properties": {"stop_id": "1094_02", "stop_name": "かえで台", "zone_id": "1094_02", "location_type": "0"}, "geometry": {"type": "Point", "coordinates": [137.0619103, 35.15282057]}}, {"type": "Feature", "properties": {"stop_id": "1095_01", "stop_name": "かえで台西", "zone_id": "1095_01", "location_type": "0"}, "geometry": {"type": "Point", "coordinates": [137.0567059, 35.1550701]}}, {"type": "Feature", "properties": {"stop_id": "1096_01", "stop_name": "北新町", "zone_id": "1096_01", "location_type": "0"}, "geometry": {"type": "Point", "coordinates": [137.0544659, 35.1598801]}}, {"type": "Feature", "properties": {"stop_id": "1096_02", "stop_name": "北新町", "zone_id": "1096_02", "location_type": "0"}, "geometry": {"type": "Point", "coordinates": [137.0545301, 35.1592271]}}, {"type": "Feature", "properties": {"stop_id": "1097_01", "stop_name": "愛知学院大東", "zone_id": "1097_01", "location_type": "0"}, "geometry": {"type": "Point", "coordinates": [137.0525971, 35.16351489]}}, {"type": "Feature", "properties": {"stop_id": "1097_02", "stop_name": "愛知学院大東", "zone_id": "1097_02", "location_type": "0"}, "geometry": {"type": "Point", "coordinates": [137.0527119, 35.16353447]}}, {"type": "Feature", "properties": {"stop_id": "1098_01", "stop_name": "口論義運動公園", "zone_id": "1098_01", "location_type": "0"}, "geometry": {"type": "Point", "coordinates": [137.0507685, 35.16635226]}}, {"type": "Feature", "properties": {"stop_id": "1099_01", "stop_name": "長久手古戦場駅", "zone_id": "1099_01", "location_type": "0"}, "geometry": {"type": "Point", "coordinates": [137.0490374, 35.1718742]}}, {"type": "Feature", "properties": {"stop_id": "1100_01", "stop_name": "相野山福祉会館", "zone_id": "1100_01", "location_type": "0"}, "geometry": {"type": "Point", "coordinates": [137.0573573, 35.15523523]}}, {"type": "Feature", "properties": {"stop_id": "1101_01", "stop_name": "つばき台", "zone_id": "1101_01", "location_type": "0"}, "geometry": {"type": "Point", "coordinates": [137.0600159, 35.15783684]}}, {"type": "Feature", "properties": {"stop_id": "1102_01", "stop_name": "かえで台北", "zone_id": "1102_01", "location_type": "0"}, "geometry": {"type": "Point", "coordinates": [137.0623102, 35.15520579]}}, {"type": "Feature", "properties": {"stop_id": "1103_01", "stop_name": "五色園南", "zone_id": "1103_01", "location_type": "0"}, "geometry": {"type": "Point", "coordinates": [137.0712882, 35.15122076]}}, {"type": "Feature", "properties": {"stop_id": "1104_01", "stop_name": "五色園東", "zone_id": "1104_01", "location_type": "0"}, "geometry": {"type": "Point", "coordinates": [137.0689273, 35.15185359]}}, {"type": "Feature", "properties": {"stop_id": "1105_01", "stop_name": "保健センター東", "zone_id": "1105_01", "location_type": "0"}, "geometry": {"type": "Point", "coordinates": [137.042526, 35.13729423]}}, {"type": "Feature", "properties": {"stop_id": "1106_01", "stop_name": "御岳口", "zone_id": "1106_01", "location_type": "0"}, "geometry": {"type": "Point", "coordinates": [137.0425233, 35.14215233]}}, {"type": "Feature", "properties": {"stop_id": "1107_01", "stop_name": "六坊", "zone_id": "1107_01", "location_type": "0"}, "geometry": {"type": "Point", "coordinates": [137.0401293, 35.1476259]}}, {"type": "Feature", "properties": {"stop_id": "1107_02", "stop_name": "六坊", "zone_id": "1107_02", "location_type": "0"}, "geometry": {"type": "Point", "coordinates": [137.040503, 35.14752641]}}, {"type": "Feature", "properties": {"stop_id": "1108_01", "stop_name": "弁天池南", "zone_id": "1108_01", "location_type": "0"}, "geometry": {"type": "Point", "coordinates": [137.0389062, 35.14858683]}}, {"type": "Feature", "properties": {"stop_id": "1109_01", "stop_name": "岩根", "zone_id": "1109_01", "location_type": "0"}, "geometry": {"type": "Point", "coordinates": [137.0328857, 35.14897598]}}, {"type": "Feature", "properties": {"stop_id": "1109_02", "stop_name": "岩根", "zone_id": "1109_02", "location_type": "0"}, "geometry": {"type": "Point", "coordinates": [137.0328605, 35.14907349]}}, {"type": "Feature", "properties": {"stop_id": "1110_01", "stop_name": "芦廻間", "zone_id": "1110_01", "location_type": "0"}, "geometry": {"type": "Point", "coordinates": [137.0305519, 35.14825402]}}, {"type": "Feature", "properties": {"stop_id": "1110_02", "stop_name": "芦廻間", "zone_id": "1110_02", "location_type": "0"}, "geometry": {"type": "Point", "coordinates": [137.0303528, 35.14831627]}}, {"type": "Feature", "properties": {"stop_id": "1111_01", "stop_name": "岩崎台東", "zone_id": "1111_01", "location_type": "0"}, "geometry": {"type": "Point", "coordinates": [137.0269921, 35.14940437]}}, {"type": "Feature", "properties": {"stop_id": "1112_01", "stop_name": "岩崎台", "zone_id": "1112_01", "location_type": "0"}, "geometry": {"type": "Point", "coordinates": [137.0274507, 35.1511767]}}, {"type": "Feature", "properties": {"stop_id": "1113_01", "stop_name": "けやき公園", "zone_id": "1113_01", "location_type": "0"}, "geometry": {"type": "Point", "coordinates": [137.0244808, 35.15213636]}}, {"type": "Feature", "properties": {"stop_id": "1114_01", "stop_name": "岩崎台西", "zone_id": "1114_01", "location_type": "0"}, "geometry": {"type": "Point", "coordinates": [137.021398, 35.14939815]}}, {"type": "Feature", "properties": {"stop_id": "1115_01", "stop_name": "岩崎台南", "zone_id": "1115_01", "location_type": "0"}, "geometry": {"type": "Point", "coordinates": [137.0208779, 35.14742804]}}, {"type": "Feature", "properties": {"stop_id": "1116_01", "stop_name": "石神", "zone_id": "1116_01", "location_type": "0"}, "geometry": {"type": "Point", "coordinates": [137.0251328, 35.14667956]}}, {"type": "Feature", "properties": {"stop_id": "1117_01", "stop_name": "北部保育園", "zone_id": "1117_01", "location_type": "0"}, "geometry": {"type": "Point", "coordinates": [137.0349953, 35.150621]}}, {"type": "Feature", "properties": {"stop_id": "1118_01", "stop_name": "障害者福祉センター", "zone_id": "1118_01", "location_type": "0"}, "geometry": {"type": "Point", "coordinates": [137.0345898, 35.15200825]}}, {"type": "Feature", "properties": {"stop_id": "1119_01", "stop_name": "椙山女学園大", "zone_id": "1119_01", "location_type": "0"}, "geometry": {"type": "Point", "coordinates": [137.0342843, 35.15300006]}}, {"type": "Feature", "properties": {"stop_id": "1120_01", "stop_name": "竹の山中", "zone_id": "1120_01", "location_type": "0"}, "geometry": {"type": "Point", "coordinates": [137.037737, 35.155643]}}, {"type": "Feature", "properties": {"stop_id": "1121_01", "stop_name": "名外大・名学芸大前", "zone_id": "1121_01", "location_type": "0"}, "geometry": {"type": "Point", "coordinates": [137.0396441, 35.15780187]}}, {"type": "Feature", "properties": {"stop_id": "1122_01", "stop_name": "名外大・名学芸大東", "zone_id": "1122_01", "location_type": "0"}, "geometry": {"type": "Point", "coordinates": [137.0429027, 35.15637076]}}, {"type": "Feature", "properties": {"stop_id": "1123_01", "stop_name": "グリーンハイツ", "zone_id": "1123_01", "location_type": "0"}, "geometry": {"type": "Point", "coordinates": [137.0403423, 35.15435068]}}, {"type": "Feature", "properties": {"stop_id": "1124_01", "stop_name": "弁天池", "zone_id": "1124_01", "location_type": "0"}, "geometry": {"type": "Point", "coordinates": [137.0393334, 35.15146868]}}, {"type": "Feature", "properties": {"stop_id": "1125_01", "stop_name": "北部福祉会館北", "zone_id": "1125_01", "location_type": "0"}, "geometry": {"type": "Point", "coordinates": [137.0426459, 35.14434894]}}, {"type": "Feature", "properties": {"stop_id": "1126_01", "stop_name": "岩崎橋西", "zone_id": "1126_01", "location_type": "0"}, "geometry": {"type": "Point", "coordinates": [137.045738, 35.14575427]}}, {"type": "Feature", "properties": {"stop_id": "1127_01", "stop_name": "御岳", "zone_id": "1127_01", "location_type": "0"}, "geometry": {"type": "Point", "coordinates": [137.0471253, 35.14992918]}}, {"type": "Feature", "properties": {"stop_id": "1128_01", "stop_name": "小林", "zone_id": "1128_01", "location_type": "0"}, "geometry": {"type": "Point", "coordinates": [137.047121, 35.14811618]}}, {"type": "Feature", "properties": {"stop_id": "1129_01", "stop_name": "岩崎橋東", "zone_id": "1129_01", "location_type": "0"}, "geometry": {"type": "Point", "coordinates": [137.0470679, 35.14538473]}}, {"type": "Feature", "properties": {"stop_id": "1130_01", "stop_name": "岩藤西", "zone_id": "1130_01", "location_type": "0"}, "geometry": {"type": "Point", "coordinates": [137.0509698, 35.14707478]}}, {"type": "Feature", "properties": {"stop_id": "1131_01", "stop_name": "岩藤", "zone_id": "1131_01", "location_type": "0"}, "geometry": {"type": "Point", "coordinates": [137.0536911, 35.14824427]}}, {"type": "Feature", "properties": {"stop_id": "1132_01", "stop_name": "藤島公会堂", "zone_id": "1132_01", "location_type": "0"}, "geometry": {"type": "Point", "coordinates": [137.0533202, 35.139897]}}, {"type": "Feature", "properties": {"stop_id": "1133_01", "stop_name": "折戸", "zone_id": "1133_01", "location_type": "0"}, "geometry": {"type": "Point", "coordinates": [137.04435, 35.12065]}}, {"type": "Feature", "properties": {"stop_id": "1133_02", "stop_name": "折戸", "zone_id": "1133_02", "location_type": "0"}, "geometry": {"type": "Point", "coordinates": [137.04431, 35.12073]}}, {"type": "Feature", "properties": {"stop_id": "1134_01", "stop_name": "市民会館", "zone_id": "1134_01", "location_type": "0"}, "geometry": {"type": "Point", "coordinates": [137.0413762, 35.12806172]}}, {"type": "Feature", "properties": {"stop_id": "1135_01", "stop_name": "日進西高校", "zone_id": "1135_01", "location_type": "0"}, "geometry": {"type": "Point", "coordinates": [137.034851, 35.118325]}}, {"type": "Feature", "properties": {"stop_id": "1136_01", "stop_name": "スポーツセンター", "zone_id": "1136_01", "location_type": "0"}, "geometry": {"type": "Point", "coordinates": [137.04043, 35.128264]}}, {"type": "Feature", "properties": {"stop_id": "1137_01", "stop_name": "米野木郵便局", "zone_id": "1137_01", "location_type": "0"}, "geometry": {"type": "Point", "coordinates": [137.064704, 35.128606]}}, {"type": "Feature", "properties": {"stop_id": "1138_01", "stop_name": "石神（南）", "zone_id": "1138_01", "location_type": "0"}, "geometry": {"type": "Point", "coordinates": [137.025357, 35.145432]}}, {"type": "Feature", "properties": {"stop_id": "1139_01", "stop_name": "石兼西", "zone_id": "1139_01", "location_type": "0"}, "geometry": {"type": "Point", "coordinates": [137.028944, 35.145987]}}, {"type": "Feature", "properties": {"stop_id": "1140_01", "stop_name": "竹の山南", "zone_id": "1140_01", "location_type": "0"}, "geometry": {"type": "Point", "coordinates": [137.034941, 35.155593]}}, {"type": "Feature", "properties": {"stop_id": "9001_01", "stop_name": "日進市役所", "zone_id": "9001_01", "location_type": "0"}, "geometry": {"type": "Point", "coordinates": [137.0395791, 35.1322351]}}, {"type": "Feature", "properties": {"stop_id": "9002_01", "stop_name": "スポーツセンター前", "zone_id": "9002_01", "location_type": "0"}, "geometry": {"type": "Point", "coordinates": [137.03987, 35.12981]}}]}