{"type": "FeatureCollection", "name": "stops", "crs": {"type": "name", "properties": {"name": "urn:ogc:def:crs:OGC:1.3:CRS84"}}, "features": [{"type": "Feature", "properties": {"stop_id": "101_01", "stop_name": "美濃太田駅北口", "zone_id": "101_01", "location_type": "0"}, "geometry": {"type": "Point", "coordinates": [137.018796694444, 35.4460465555555]}}, {"type": "Feature", "properties": {"stop_id": "102_01", "stop_name": "美濃太田駅南口", "zone_id": "102_01", "location_type": "0"}, "geometry": {"type": "Point", "coordinates": [137.0187889, 35.4452662]}}, {"type": "Feature", "properties": {"stop_id": "103_01", "stop_name": "野尻整形外科", "zone_id": "103_01", "location_type": "0"}, "geometry": {"type": "Point", "coordinates": [137.015564361111, 35.4425585555555]}}, {"type": "Feature", "properties": {"stop_id": "104_01", "stop_name": "美濃加茂市役所", "zone_id": "104_01", "location_type": "0"}, "geometry": {"type": "Point", "coordinates": [137.016029583333, 35.4400453055555]}}, {"type": "Feature", "properties": {"stop_id": "105_01", "stop_name": "八坂", "zone_id": "105_01", "location_type": "0"}, "geometry": {"type": "Point", "coordinates": [137.017716138888, 35.4401038888888]}}, {"type": "Feature", "properties": {"stop_id": "105_02", "stop_name": "八坂", "zone_id": "105_02", "location_type": "0"}, "geometry": {"type": "Point", "coordinates": [137.0179201, 35.4402536]}}, {"type": "Feature", "properties": {"stop_id": "106_01", "stop_name": "弥生", "zone_id": "106_01", "location_type": "0"}, "geometry": {"type": "Point", "coordinates": [137.019776916666, 35.4435692222222]}}, {"type": "Feature", "properties": {"stop_id": "106_02", "stop_name": "弥生", "zone_id": "106_02", "location_type": "0"}, "geometry": {"type": "Point", "coordinates": [137.0199352, 35.4434549]}}, {"type": "Feature", "properties": {"stop_id": "107_01", "stop_name": "中部脳リハビリテーション病院", "zone_id": "107_01", "location_type": "0"}, "geometry": {"type": "Point", "coordinates": [137.022900638888, 35.4409431944444]}}, {"type": "Feature", "properties": {"stop_id": "108_01", "stop_name": "可茂総合庁舎", "zone_id": "108_01", "location_type": "0"}, "geometry": {"type": "Point", "coordinates": [137.0257058, 35.4395783]}}, {"type": "Feature", "properties": {"stop_id": "109_01", "stop_name": "かも～る(文化会館)", "zone_id": "109_01", "location_type": "0"}, "geometry": {"type": "Point", "coordinates": [137.0262908, 35.4381824]}}, {"type": "Feature", "properties": {"stop_id": "110_01", "stop_name": "島町２丁目", "zone_id": "110_01", "location_type": "0"}, "geometry": {"type": "Point", "coordinates": [137.029013, 35.439849]}}, {"type": "Feature", "properties": {"stop_id": "110_02", "stop_name": "島町２丁目", "zone_id": "110_02", "location_type": "0"}, "geometry": {"type": "Point", "coordinates": [137.029072, 35.439916]}}, {"type": "Feature", "properties": {"stop_id": "111_01", "stop_name": "リバーポートパーク美濃加茂", "zone_id": "111_01", "location_type": "0"}, "geometry": {"type": "Point", "coordinates": [137.0334735, 35.438602]}}, {"type": "Feature", "properties": {"stop_id": "112_01", "stop_name": "MEGA ドン・キホーテUNY 美濃加茂店", "zone_id": "112_01", "location_type": "0"}, "geometry": {"type": "Point", "coordinates": [137.040495666666, 35.4432694444444]}}, {"type": "Feature", "properties": {"stop_id": "113_01", "stop_name": "美濃川合駅", "zone_id": "113_01", "location_type": "0"}, "geometry": {"type": "Point", "coordinates": [137.045221222222, 35.44477075]}}, {"type": "Feature", "properties": {"stop_id": "114_01", "stop_name": "京町", "zone_id": "114_01", "location_type": "0"}, "geometry": {"type": "Point", "coordinates": [137.0430968, 35.4479987]}}, {"type": "Feature", "properties": {"stop_id": "114_02", "stop_name": "京町", "zone_id": "114_02", "location_type": "0"}, "geometry": {"type": "Point", "coordinates": [137.0432095, 35.4480492]}}, {"type": "Feature", "properties": {"stop_id": "115_01", "stop_name": "東図書館", "zone_id": "115_01", "location_type": "0"}, "geometry": {"type": "Point", "coordinates": [137.041224, 35.450699]}}, {"type": "Feature", "properties": {"stop_id": "115_02", "stop_name": "東図書館", "zone_id": "115_02", "location_type": "0"}, "geometry": {"type": "Point", "coordinates": [137.041393, 35.450681]}}, {"type": "Feature", "properties": {"stop_id": "116_01", "stop_name": "本郷町６丁目", "zone_id": "116_01", "location_type": "0"}, "geometry": {"type": "Point", "coordinates": [137.0383387, 35.4554464]}}, {"type": "Feature", "properties": {"stop_id": "116_02", "stop_name": "本郷町６丁目", "zone_id": "116_02", "location_type": "0"}, "geometry": {"type": "Point", "coordinates": [137.0384522, 35.4554487]}}, {"type": "Feature", "properties": {"stop_id": "117_01", "stop_name": "ひまわりの家", "zone_id": "117_01", "location_type": "0"}, "geometry": {"type": "Point", "coordinates": [137.028876, 35.454079]}}, {"type": "Feature", "properties": {"stop_id": "118_01", "stop_name": "総合福祉会館", "zone_id": "118_01", "location_type": "0"}, "geometry": {"type": "Point", "coordinates": [137.029765, 35.453372]}}, {"type": "Feature", "properties": {"stop_id": "119_01", "stop_name": "駅北商業団地", "zone_id": "119_01", "location_type": "0"}, "geometry": {"type": "Point", "coordinates": [137.019504472222, 35.4516275833333]}}, {"type": "Feature", "properties": {"stop_id": "119_02", "stop_name": "駅北商業団地", "zone_id": "119_02", "location_type": "0"}, "geometry": {"type": "Point", "coordinates": [137.019430777777, 35.4521156111111]}}, {"type": "Feature", "properties": {"stop_id": "120_01", "stop_name": "文化の森", "zone_id": "120_01", "location_type": "0"}, "geometry": {"type": "Point", "coordinates": [137.021808361111, 35.4572343333333]}}, {"type": "Feature", "properties": {"stop_id": "121_01", "stop_name": "中部台公民館", "zone_id": "121_01", "location_type": "0"}, "geometry": {"type": "Point", "coordinates": [137.017958638888, 35.4619842222222]}}, {"type": "Feature", "properties": {"stop_id": "121_02", "stop_name": "中部台公民館", "zone_id": "121_02", "location_type": "0"}, "geometry": {"type": "Point", "coordinates": [137.01808, 35.462023]}}, {"type": "Feature", "properties": {"stop_id": "122_01", "stop_name": "スイーツの丘", "zone_id": "122_01", "location_type": "0"}, "geometry": {"type": "Point", "coordinates": [137.016394, 35.4670876]}}, {"type": "Feature", "properties": {"stop_id": "123_01", "stop_name": "ぎふ清流里山公園", "zone_id": "123_01", "location_type": "0"}, "geometry": {"type": "Point", "coordinates": [137.030317, 35.472973]}}, {"type": "Feature", "properties": {"stop_id": "124_01", "stop_name": "食品スーパー アルビス", "zone_id": "124_01", "location_type": "0"}, "geometry": {"type": "Point", "coordinates": [137.023246, 35.452784]}}, {"type": "Feature", "properties": {"stop_id": "125_01", "stop_name": "中部国際医療センター", "zone_id": "125_01", "location_type": "0"}, "geometry": {"type": "Point", "coordinates": [137.01718, 35.457572]}}, {"type": "Feature", "properties": {"stop_id": "201_01", "stop_name": "祐泉寺", "zone_id": "201_01", "location_type": "0"}, "geometry": {"type": "Point", "coordinates": [137.015903277777, 35.4381639166666]}}, {"type": "Feature", "properties": {"stop_id": "202_01", "stop_name": "中山道会館", "zone_id": "202_01", "location_type": "0"}, "geometry": {"type": "Point", "coordinates": [137.0130507, 35.4381863]}}, {"type": "Feature", "properties": {"stop_id": "203_01", "stop_name": "太田本町４丁目", "zone_id": "203_01", "location_type": "0"}, "geometry": {"type": "Point", "coordinates": [137.0113758, 35.4382786]}}, {"type": "Feature", "properties": {"stop_id": "204_01", "stop_name": "太田小学校", "zone_id": "204_01", "location_type": "0"}, "geometry": {"type": "Point", "coordinates": [137.008970083333, 35.4366692222222]}}, {"type": "Feature", "properties": {"stop_id": "205_01", "stop_name": "深田神社", "zone_id": "205_01", "location_type": "0"}, "geometry": {"type": "Point", "coordinates": [137.006749861111, 35.4361035277777]}}, {"type": "Feature", "properties": {"stop_id": "206_01", "stop_name": "深田町", "zone_id": "206_01", "location_type": "0"}, "geometry": {"type": "Point", "coordinates": [137.0032518, 35.4347151]}}, {"type": "Feature", "properties": {"stop_id": "206_02", "stop_name": "深田町", "zone_id": "206_02", "location_type": "0"}, "geometry": {"type": "Point", "coordinates": [137.003359722222, 35.4347205277777]}}, {"type": "Feature", "properties": {"stop_id": "207_01", "stop_name": "加茂川町", "zone_id": "207_01", "location_type": "0"}, "geometry": {"type": "Point", "coordinates": [137.0047804, 35.4398374]}}, {"type": "Feature", "properties": {"stop_id": "207_02", "stop_name": "加茂川町", "zone_id": "207_02", "location_type": "0"}, "geometry": {"type": "Point", "coordinates": [137.004776, 35.439653]}}, {"type": "Feature", "properties": {"stop_id": "208_01", "stop_name": "西体育館", "zone_id": "208_01", "location_type": "0"}, "geometry": {"type": "Point", "coordinates": [137.00125, 35.444275]}}, {"type": "Feature", "properties": {"stop_id": "209_01", "stop_name": "西町中", "zone_id": "209_01", "location_type": "0"}, "geometry": {"type": "Point", "coordinates": [136.996913055555, 35.4485331944444]}}, {"type": "Feature", "properties": {"stop_id": "210_01", "stop_name": "縣主神社", "zone_id": "210_01", "location_type": "0"}, "geometry": {"type": "Point", "coordinates": [137.000343666666, 35.45056325]}}, {"type": "Feature", "properties": {"stop_id": "211_01", "stop_name": "西町北２", "zone_id": "211_01", "location_type": "0"}, "geometry": {"type": "Point", "coordinates": [136.9980648, 35.4517786]}}, {"type": "Feature", "properties": {"stop_id": "212_01", "stop_name": "きらら美濃加茂", "zone_id": "212_01", "location_type": "0"}, "geometry": {"type": "Point", "coordinates": [136.994385138888, 35.4531593611111]}}, {"type": "Feature", "properties": {"stop_id": "213_01", "stop_name": "木野池北", "zone_id": "213_01", "location_type": "0"}, "geometry": {"type": "Point", "coordinates": [136.9897881, 35.4584675]}}, {"type": "Feature", "properties": {"stop_id": "213_02", "stop_name": "木野池北", "zone_id": "213_02", "location_type": "0"}, "geometry": {"type": "Point", "coordinates": [136.989697, 35.458455]}}, {"type": "Feature", "properties": {"stop_id": "214_01", "stop_name": "木野公民館", "zone_id": "214_01", "location_type": "0"}, "geometry": {"type": "Point", "coordinates": [136.986652888888, 35.4598828611111]}}, {"type": "Feature", "properties": {"stop_id": "215_01", "stop_name": "加茂野駅", "zone_id": "215_01", "location_type": "0"}, "geometry": {"type": "Point", "coordinates": [136.9847043, 35.4608221]}}, {"type": "Feature", "properties": {"stop_id": "215_02", "stop_name": "加茂野駅", "zone_id": "215_02", "location_type": "0"}, "geometry": {"type": "Point", "coordinates": [136.984821083333, 35.4607599166666]}}, {"type": "Feature", "properties": {"stop_id": "216_01", "stop_name": "今泉東", "zone_id": "216_01", "location_type": "0"}, "geometry": {"type": "Point", "coordinates": [136.980269694444, 35.4638909722222]}}, {"type": "Feature", "properties": {"stop_id": "217_01", "stop_name": "今泉公民館", "zone_id": "217_01", "location_type": "0"}, "geometry": {"type": "Point", "coordinates": [136.978773916666, 35.4661978611111]}}, {"type": "Feature", "properties": {"stop_id": "218_01", "stop_name": "加茂野交流センター", "zone_id": "218_01", "location_type": "0"}, "geometry": {"type": "Point", "coordinates": [136.9754731, 35.4618658]}}, {"type": "Feature", "properties": {"stop_id": "219_01", "stop_name": "今泉西", "zone_id": "219_01", "location_type": "0"}, "geometry": {"type": "Point", "coordinates": [136.972335722222, 35.46522325]}}, {"type": "Feature", "properties": {"stop_id": "220_01", "stop_name": "鷹之巣公民館", "zone_id": "220_01", "location_type": "0"}, "geometry": {"type": "Point", "coordinates": [136.9702639, 35.4664937]}}, {"type": "Feature", "properties": {"stop_id": "221_01", "stop_name": "あじさいエコパーク", "zone_id": "221_01", "location_type": "0"}, "geometry": {"type": "Point", "coordinates": [136.9684254, 35.4725651]}}, {"type": "Feature", "properties": {"stop_id": "222_01", "stop_name": "富加駅南", "zone_id": "222_01", "location_type": "0"}, "geometry": {"type": "Point", "coordinates": [136.968366111111, 35.4746395277777]}}, {"type": "Feature", "properties": {"stop_id": "223_01", "stop_name": "わらべ村", "zone_id": "223_01", "location_type": "0"}, "geometry": {"type": "Point", "coordinates": [136.9681695, 35.4761238]}}, {"type": "Feature", "properties": {"stop_id": "224_01", "stop_name": "市橋", "zone_id": "224_01", "location_type": "0"}, "geometry": {"type": "Point", "coordinates": [136.966956055555, 35.4651003055555]}}, {"type": "Feature", "properties": {"stop_id": "225_01", "stop_name": "市橋グラウンド", "zone_id": "225_01", "location_type": "0"}, "geometry": {"type": "Point", "coordinates": [136.9686927, 35.4623384]}}, {"type": "Feature", "properties": {"stop_id": "226_01", "stop_name": "稲辺公民館", "zone_id": "226_01", "location_type": "0"}, "geometry": {"type": "Point", "coordinates": [136.965778, 35.454372]}}, {"type": "Feature", "properties": {"stop_id": "227_01", "stop_name": "ナビタウン稲辺", "zone_id": "227_01", "location_type": "0"}, "geometry": {"type": "Point", "coordinates": [136.970338027777, 35.4519216666666]}}, {"type": "Feature", "properties": {"stop_id": "228_01", "stop_name": "オークワ坂祝店", "zone_id": "228_01", "location_type": "0"}, "geometry": {"type": "Point", "coordinates": [136.976112388888, 35.4501255833333]}}, {"type": "Feature", "properties": {"stop_id": "229_01", "stop_name": "ナビタウン稲辺北", "zone_id": "229_01", "location_type": "0"}, "geometry": {"type": "Point", "coordinates": [136.9745603, 35.4531899]}}, {"type": "Feature", "properties": {"stop_id": "230_01", "stop_name": "ひょうたん池", "zone_id": "230_01", "location_type": "0"}, "geometry": {"type": "Point", "coordinates": [136.974837277777, 35.4580605833333]}}, {"type": "Feature", "properties": {"stop_id": "231_01", "stop_name": "加茂野中", "zone_id": "231_01", "location_type": "0"}, "geometry": {"type": "Point", "coordinates": [136.978854805555, 35.4582286111111]}}, {"type": "Feature", "properties": {"stop_id": "232_01", "stop_name": "瑞雲寺", "zone_id": "232_01", "location_type": "0"}, "geometry": {"type": "Point", "coordinates": [136.982510972222, 35.4563748888888]}}, {"type": "Feature", "properties": {"stop_id": "233_01", "stop_name": "加茂野南", "zone_id": "233_01", "location_type": "0"}, "geometry": {"type": "Point", "coordinates": [136.983446083333, 35.4514281388888]}}, {"type": "Feature", "properties": {"stop_id": "234_01", "stop_name": "加茂野コミュニティセンター東", "zone_id": "234_01", "location_type": "0"}, "geometry": {"type": "Point", "coordinates": [136.987336, 35.4539503]}}, {"type": "Feature", "properties": {"stop_id": "235_01", "stop_name": "市橋北公民館", "zone_id": "235_01", "location_type": "0"}, "geometry": {"type": "Point", "coordinates": [136.965418, 35.470763]}}, {"type": "Feature", "properties": {"stop_id": "301_01", "stop_name": "下古井", "zone_id": "301_01", "location_type": "0"}, "geometry": {"type": "Point", "coordinates": [137.025049, 35.442179]}}, {"type": "Feature", "properties": {"stop_id": "301_02", "stop_name": "下古井", "zone_id": "301_02", "location_type": "0"}, "geometry": {"type": "Point", "coordinates": [137.025102, 35.442022]}}, {"type": "Feature", "properties": {"stop_id": "302_01", "stop_name": "古井神社参道前", "zone_id": "302_01", "location_type": "0"}, "geometry": {"type": "Point", "coordinates": [137.0284097, 35.4422858]}}, {"type": "Feature", "properties": {"stop_id": "303_01", "stop_name": "清水", "zone_id": "303_01", "location_type": "0"}, "geometry": {"type": "Point", "coordinates": [137.031030027777, 35.4436506111111]}}, {"type": "Feature", "properties": {"stop_id": "304_01", "stop_name": "加茂高校", "zone_id": "304_01", "location_type": "0"}, "geometry": {"type": "Point", "coordinates": [137.035971333333, 35.447998]}}, {"type": "Feature", "properties": {"stop_id": "304_02", "stop_name": "加茂高校", "zone_id": "304_02", "location_type": "0"}, "geometry": {"type": "Point", "coordinates": [137.0360754, 35.4478855]}}, {"type": "Feature", "properties": {"stop_id": "305_01", "stop_name": "古井小学校", "zone_id": "305_01", "location_type": "0"}, "geometry": {"type": "Point", "coordinates": [137.0394494, 35.4478145]}}, {"type": "Feature", "properties": {"stop_id": "306_01", "stop_name": "川合西４", "zone_id": "306_01", "location_type": "0"}, "geometry": {"type": "Point", "coordinates": [137.0425226, 35.447512]}}, {"type": "Feature", "properties": {"stop_id": "307_01", "stop_name": "川合西公民館", "zone_id": "307_01", "location_type": "0"}, "geometry": {"type": "Point", "coordinates": [137.046392, 35.445083]}}, {"type": "Feature", "properties": {"stop_id": "308_01", "stop_name": "川合東公民館", "zone_id": "308_01", "location_type": "0"}, "geometry": {"type": "Point", "coordinates": [137.049225416666, 35.4468933333333]}}, {"type": "Feature", "properties": {"stop_id": "309_01", "stop_name": "川合東", "zone_id": "309_01", "location_type": "0"}, "geometry": {"type": "Point", "coordinates": [137.0489705, 35.4514451666666]}}, {"type": "Feature", "properties": {"stop_id": "310_01", "stop_name": "上古井交流センター", "zone_id": "310_01", "location_type": "0"}, "geometry": {"type": "Point", "coordinates": [137.046008194444, 35.4514315555555]}}, {"type": "Feature", "properties": {"stop_id": "311_01", "stop_name": "古井本郷", "zone_id": "311_01", "location_type": "0"}, "geometry": {"type": "Point", "coordinates": [137.0446694, 35.4543494]}}, {"type": "Feature", "properties": {"stop_id": "312_01", "stop_name": "古井駅", "zone_id": "312_01", "location_type": "0"}, "geometry": {"type": "Point", "coordinates": [137.0482062, 35.4572882]}}, {"type": "Feature", "properties": {"stop_id": "313_01", "stop_name": "魚周商店", "zone_id": "313_01", "location_type": "0"}, "geometry": {"type": "Point", "coordinates": [137.052392222222, 35.4592902222222]}}, {"type": "Feature", "properties": {"stop_id": "314_01", "stop_name": "深渡", "zone_id": "314_01", "location_type": "0"}, "geometry": {"type": "Point", "coordinates": [137.057576, 35.4621909]}}, {"type": "Feature", "properties": {"stop_id": "315_01", "stop_name": "中屋敷公民館", "zone_id": "315_01", "location_type": "0"}, "geometry": {"type": "Point", "coordinates": [137.0583116, 35.4659847]}}, {"type": "Feature", "properties": {"stop_id": "316_01", "stop_name": "桜貝戸公民館", "zone_id": "316_01", "location_type": "0"}, "geometry": {"type": "Point", "coordinates": [137.061123111111, 35.4693085555555]}}, {"type": "Feature", "properties": {"stop_id": "317_01", "stop_name": "橋上公民館", "zone_id": "317_01", "location_type": "0"}, "geometry": {"type": "Point", "coordinates": [137.0636057, 35.4718748]}}, {"type": "Feature", "properties": {"stop_id": "318_01", "stop_name": "東栃井公民館", "zone_id": "318_01", "location_type": "0"}, "geometry": {"type": "Point", "coordinates": [137.0667297, 35.4763961]}}, {"type": "Feature", "properties": {"stop_id": "319_01", "stop_name": "為岡", "zone_id": "319_01", "location_type": "0"}, "geometry": {"type": "Point", "coordinates": [137.069572916666, 35.4739175833333]}}, {"type": "Feature", "properties": {"stop_id": "320_01", "stop_name": "山本", "zone_id": "320_01", "location_type": "0"}, "geometry": {"type": "Point", "coordinates": [137.076683472222, 35.4728401944444]}}, {"type": "Feature", "properties": {"stop_id": "321_01", "stop_name": "山本上池", "zone_id": "321_01", "location_type": "0"}, "geometry": {"type": "Point", "coordinates": [137.079938472222, 35.4737562777777]}}, {"type": "Feature", "properties": {"stop_id": "322_01", "stop_name": "信友公民館", "zone_id": "322_01", "location_type": "0"}, "geometry": {"type": "Point", "coordinates": [137.079061083333, 35.4662318888888]}}, {"type": "Feature", "properties": {"stop_id": "323_01", "stop_name": "信友下池", "zone_id": "323_01", "location_type": "0"}, "geometry": {"type": "Point", "coordinates": [137.076514527777, 35.4670348333333]}}, {"type": "Feature", "properties": {"stop_id": "324_01", "stop_name": "信友", "zone_id": "324_01", "location_type": "0"}, "geometry": {"type": "Point", "coordinates": [137.074890916666, 35.4684934444444]}}, {"type": "Feature", "properties": {"stop_id": "325_01", "stop_name": "則光公民館", "zone_id": "325_01", "location_type": "0"}, "geometry": {"type": "Point", "coordinates": [137.065950694444, 35.4643118055555]}}, {"type": "Feature", "properties": {"stop_id": "326_01", "stop_name": "下米田交流センター", "zone_id": "326_01", "location_type": "0"}, "geometry": {"type": "Point", "coordinates": [137.0616192, 35.4631835]}}, {"type": "Feature", "properties": {"stop_id": "327_01", "stop_name": "今", "zone_id": "327_01", "location_type": "0"}, "geometry": {"type": "Point", "coordinates": [137.060373, 35.460785]}}, {"type": "Feature", "properties": {"stop_id": "327_02", "stop_name": "今", "zone_id": "327_02", "location_type": "0"}, "geometry": {"type": "Point", "coordinates": [137.060336, 35.460705]}}, {"type": "Feature", "properties": {"stop_id": "328_01", "stop_name": "今公民館", "zone_id": "328_01", "location_type": "0"}, "geometry": {"type": "Point", "coordinates": [137.060768, 35.4577]}}, {"type": "Feature", "properties": {"stop_id": "328_02", "stop_name": "今公民館", "zone_id": "328_02", "location_type": "0"}, "geometry": {"type": "Point", "coordinates": [137.060851, 35.457628]}}, {"type": "Feature", "properties": {"stop_id": "329_01", "stop_name": "馬串山", "zone_id": "329_01", "location_type": "0"}, "geometry": {"type": "Point", "coordinates": [137.0642872, 35.4552266]}}, {"type": "Feature", "properties": {"stop_id": "330_01", "stop_name": "牧野北", "zone_id": "330_01", "location_type": "0"}, "geometry": {"type": "Point", "coordinates": [137.066333833333, 35.4529974166666]}}, {"type": "Feature", "properties": {"stop_id": "331_01", "stop_name": "牧野交流センター", "zone_id": "331_01", "location_type": "0"}, "geometry": {"type": "Point", "coordinates": [137.0726691, 35.4496949]}}, {"type": "Feature", "properties": {"stop_id": "332_01", "stop_name": "牧野中公民館", "zone_id": "332_01", "location_type": "0"}, "geometry": {"type": "Point", "coordinates": [137.073489611111, 35.4468687222222]}}, {"type": "Feature", "properties": {"stop_id": "333_01", "stop_name": "下牧野クラブ", "zone_id": "333_01", "location_type": "0"}, "geometry": {"type": "Point", "coordinates": [137.0748024, 35.4428649]}}, {"type": "Feature", "properties": {"stop_id": "334_01", "stop_name": "牧野東", "zone_id": "334_01", "location_type": "0"}, "geometry": {"type": "Point", "coordinates": [137.075776916666, 35.448224]}}, {"type": "Feature", "properties": {"stop_id": "335_01", "stop_name": "新興東", "zone_id": "335_01", "location_type": "0"}, "geometry": {"type": "Point", "coordinates": [137.067290611111, 35.4496329166666]}}, {"type": "Feature", "properties": {"stop_id": "336_01", "stop_name": "新興西", "zone_id": "336_01", "location_type": "0"}, "geometry": {"type": "Point", "coordinates": [137.063700722222, 35.4502210277777]}}, {"type": "Feature", "properties": {"stop_id": "337_01", "stop_name": "共進公民館", "zone_id": "337_01", "location_type": "0"}, "geometry": {"type": "Point", "coordinates": [137.054732972222, 35.4505601944444]}}, {"type": "Feature", "properties": {"stop_id": "338_01", "stop_name": "小山中", "zone_id": "338_01", "location_type": "0"}, "geometry": {"type": "Point", "coordinates": [137.054956916666, 35.45242325]}}, {"type": "Feature", "properties": {"stop_id": "339_01", "stop_name": "秋葉神社", "zone_id": "339_01", "location_type": "0"}, "geometry": {"type": "Point", "coordinates": [137.05536175, 35.4558109722222]}}, {"type": "Feature", "properties": {"stop_id": "340_01", "stop_name": "小山長福", "zone_id": "340_01", "location_type": "0"}, "geometry": {"type": "Point", "coordinates": [137.055607833333, 35.4582799722222]}}, {"type": "Feature", "properties": {"stop_id": "341_01", "stop_name": "深渡公民館", "zone_id": "341_01", "location_type": "0"}, "geometry": {"type": "Point", "coordinates": [137.0564158, 35.460319]}}, {"type": "Feature", "properties": {"stop_id": "401_01", "stop_name": "上野西", "zone_id": "401_01", "location_type": "0"}, "geometry": {"type": "Point", "coordinates": [137.036957527777, 35.4605341111111]}}, {"type": "Feature", "properties": {"stop_id": "402_01", "stop_name": "美濃加茂高校グラウンド", "zone_id": "402_01", "location_type": "0"}, "geometry": {"type": "Point", "coordinates": [137.0403693, 35.4625927]}}, {"type": "Feature", "properties": {"stop_id": "403_01", "stop_name": "サンスポーツランド", "zone_id": "403_01", "location_type": "0"}, "geometry": {"type": "Point", "coordinates": [137.045923, 35.4657719]}}, {"type": "Feature", "properties": {"stop_id": "404_01", "stop_name": "上野", "zone_id": "404_01", "location_type": "0"}, "geometry": {"type": "Point", "coordinates": [137.049663444444, 35.4668241666666]}}, {"type": "Feature", "properties": {"stop_id": "405_01", "stop_name": "フルーピア山之上", "zone_id": "405_01", "location_type": "0"}, "geometry": {"type": "Point", "coordinates": [137.0488773, 35.4692796]}}, {"type": "Feature", "properties": {"stop_id": "406_01", "stop_name": "上野北", "zone_id": "406_01", "location_type": "0"}, "geometry": {"type": "Point", "coordinates": [137.0452025, 35.4736406]}}, {"type": "Feature", "properties": {"stop_id": "407_01", "stop_name": "天王交差点", "zone_id": "407_01", "location_type": "0"}, "geometry": {"type": "Point", "coordinates": [137.044393138888, 35.47552125]}}, {"type": "Feature", "properties": {"stop_id": "407_02", "stop_name": "天王交差点", "zone_id": "407_02", "location_type": "0"}, "geometry": {"type": "Point", "coordinates": [137.0445014, 35.4754112]}}, {"type": "Feature", "properties": {"stop_id": "408_01", "stop_name": "中之番", "zone_id": "408_01", "location_type": "0"}, "geometry": {"type": "Point", "coordinates": [137.0475352, 35.4788881]}}, {"type": "Feature", "properties": {"stop_id": "409_01", "stop_name": "中之番公民館", "zone_id": "409_01", "location_type": "0"}, "geometry": {"type": "Point", "coordinates": [137.04550375, 35.4803199444444]}}, {"type": "Feature", "properties": {"stop_id": "410_01", "stop_name": "金谷公民館", "zone_id": "410_01", "location_type": "0"}, "geometry": {"type": "Point", "coordinates": [137.0414368, 35.4896761]}}, {"type": "Feature", "properties": {"stop_id": "411_01", "stop_name": "金谷", "zone_id": "411_01", "location_type": "0"}, "geometry": {"type": "Point", "coordinates": [137.038331, 35.4926058]}}, {"type": "Feature", "properties": {"stop_id": "412_01", "stop_name": "西洞南", "zone_id": "412_01", "location_type": "0"}, "geometry": {"type": "Point", "coordinates": [137.036904861111, 35.4838533333333]}}, {"type": "Feature", "properties": {"stop_id": "413_01", "stop_name": "西洞公民館", "zone_id": "413_01", "location_type": "0"}, "geometry": {"type": "Point", "coordinates": [137.035859277777, 35.4852065277777]}}, {"type": "Feature", "properties": {"stop_id": "414_01", "stop_name": "山之上交流センター", "zone_id": "414_01", "location_type": "0"}, "geometry": {"type": "Point", "coordinates": [137.042303, 35.478222]}}, {"type": "Feature", "properties": {"stop_id": "414_02", "stop_name": "山之上交流センター", "zone_id": "414_02", "location_type": "0"}, "geometry": {"type": "Point", "coordinates": [137.042282583333, 35.47788025]}}, {"type": "Feature", "properties": {"stop_id": "415_01", "stop_name": "佐口公民館", "zone_id": "415_01", "location_type": "0"}, "geometry": {"type": "Point", "coordinates": [137.035602222222, 35.4683133611111]}}, {"type": "Feature", "properties": {"stop_id": "416_01", "stop_name": "本地", "zone_id": "416_01", "location_type": "0"}, "geometry": {"type": "Point", "coordinates": [137.031285444444, 35.4656853611111]}}, {"type": "Feature", "properties": {"stop_id": "417_01", "stop_name": "本地公民館", "zone_id": "417_01", "location_type": "0"}, "geometry": {"type": "Point", "coordinates": [137.028007055555, 35.4627295555555]}}, {"type": "Feature", "properties": {"stop_id": "418_01", "stop_name": "本地南", "zone_id": "418_01", "location_type": "0"}, "geometry": {"type": "Point", "coordinates": [137.026636166666, 35.4573006666666]}}, {"type": "Feature", "properties": {"stop_id": "419_01", "stop_name": "八坂神社", "zone_id": "419_01", "location_type": "0"}, "geometry": {"type": "Point", "coordinates": [137.011814055555, 35.4468527777777]}}, {"type": "Feature", "properties": {"stop_id": "420_01", "stop_name": "前平町１丁目", "zone_id": "420_01", "location_type": "0"}, "geometry": {"type": "Point", "coordinates": [137.010319666666, 35.4518195833333]}}, {"type": "Feature", "properties": {"stop_id": "420_02", "stop_name": "前平町１丁目", "zone_id": "420_02", "location_type": "0"}, "geometry": {"type": "Point", "coordinates": [137.010521, 35.452211]}}, {"type": "Feature", "properties": {"stop_id": "421_01", "stop_name": "前平町３丁目", "zone_id": "421_01", "location_type": "0"}, "geometry": {"type": "Point", "coordinates": [137.00565075, 35.4529461944444]}}, {"type": "Feature", "properties": {"stop_id": "422_01", "stop_name": "前平公園", "zone_id": "422_01", "location_type": "0"}, "geometry": {"type": "Point", "coordinates": [137.001080166666, 35.4522961388888]}}, {"type": "Feature", "properties": {"stop_id": "423_01", "stop_name": "たんどーる", "zone_id": "423_01", "location_type": "0"}, "geometry": {"type": "Point", "coordinates": [137.002307, 35.457923]}}, {"type": "Feature", "properties": {"stop_id": "423_02", "stop_name": "たんどーる", "zone_id": "423_02", "location_type": "0"}, "geometry": {"type": "Point", "coordinates": [137.002329, 35.457825]}}, {"type": "Feature", "properties": {"stop_id": "424_01", "stop_name": "黒金化成", "zone_id": "424_01", "location_type": "0"}, "geometry": {"type": "Point", "coordinates": [137.0048351, 35.4603045]}}, {"type": "Feature", "properties": {"stop_id": "425_01", "stop_name": "引田", "zone_id": "425_01", "location_type": "0"}, "geometry": {"type": "Point", "coordinates": [137.010405888888, 35.4656690833333]}}, {"type": "Feature", "properties": {"stop_id": "425_02", "stop_name": "引田", "zone_id": "425_02", "location_type": "0"}, "geometry": {"type": "Point", "coordinates": [137.010508, 35.465651]}}, {"type": "Feature", "properties": {"stop_id": "426_01", "stop_name": "引田公民館", "zone_id": "426_01", "location_type": "0"}, "geometry": {"type": "Point", "coordinates": [137.008638972222, 35.4667160833333]}}, {"type": "Feature", "properties": {"stop_id": "427_01", "stop_name": "諏訪神社", "zone_id": "427_01", "location_type": "0"}, "geometry": {"type": "Point", "coordinates": [137.008215444444, 35.4688468888888]}}, {"type": "Feature", "properties": {"stop_id": "428_01", "stop_name": "蜂屋交流センター西", "zone_id": "428_01", "location_type": "0"}, "geometry": {"type": "Point", "coordinates": [137.006889, 35.4718630555555]}}, {"type": "Feature", "properties": {"stop_id": "429_01", "stop_name": "大仲寺", "zone_id": "429_01", "location_type": "0"}, "geometry": {"type": "Point", "coordinates": [137.003687083333, 35.4721168888888]}}, {"type": "Feature", "properties": {"stop_id": "430_01", "stop_name": "諸田", "zone_id": "430_01", "location_type": "0"}, "geometry": {"type": "Point", "coordinates": [136.999548277777, 35.4696103888888]}}, {"type": "Feature", "properties": {"stop_id": "431_01", "stop_name": "作り洞", "zone_id": "431_01", "location_type": "0"}, "geometry": {"type": "Point", "coordinates": [137.000240555555, 35.4740616944444]}}, {"type": "Feature", "properties": {"stop_id": "432_01", "stop_name": "下東", "zone_id": "432_01", "location_type": "0"}, "geometry": {"type": "Point", "coordinates": [136.996954833333, 35.4740183888888]}}, {"type": "Feature", "properties": {"stop_id": "433_01", "stop_name": "下東公民館", "zone_id": "433_01", "location_type": "0"}, "geometry": {"type": "Point", "coordinates": [136.994274527777, 35.4739728611111]}}, {"type": "Feature", "properties": {"stop_id": "434_01", "stop_name": "下西", "zone_id": "434_01", "location_type": "0"}, "geometry": {"type": "Point", "coordinates": [136.990072444444, 35.474399]}}, {"type": "Feature", "properties": {"stop_id": "435_01", "stop_name": "堀部医院", "zone_id": "435_01", "location_type": "0"}, "geometry": {"type": "Point", "coordinates": [136.9883246, 35.4736236]}}, {"type": "Feature", "properties": {"stop_id": "436_01", "stop_name": "富加羽生", "zone_id": "436_01", "location_type": "0"}, "geometry": {"type": "Point", "coordinates": [136.979322388888, 35.474544]}}, {"type": "Feature", "properties": {"stop_id": "437_01", "stop_name": "コメリ富加店", "zone_id": "437_01", "location_type": "0"}, "geometry": {"type": "Point", "coordinates": [136.982045, 35.4732767]}}, {"type": "Feature", "properties": {"stop_id": "438_01", "stop_name": "東今泉", "zone_id": "438_01", "location_type": "0"}, "geometry": {"type": "Point", "coordinates": [136.983536472222, 35.46653625]}}, {"type": "Feature", "properties": {"stop_id": "439_01", "stop_name": "伊瀬公民館", "zone_id": "439_01", "location_type": "0"}, "geometry": {"type": "Point", "coordinates": [136.9883192, 35.4664337]}}, {"type": "Feature", "properties": {"stop_id": "440_01", "stop_name": "上伊瀬", "zone_id": "440_01", "location_type": "0"}, "geometry": {"type": "Point", "coordinates": [136.991831138888, 35.4663948055555]}}, {"type": "Feature", "properties": {"stop_id": "441_01", "stop_name": "ナビ蜂屋集会所", "zone_id": "441_01", "location_type": "0"}, "geometry": {"type": "Point", "coordinates": [136.994516416666, 35.4631464722222]}}, {"type": "Feature", "properties": {"stop_id": "442_01", "stop_name": "五徳", "zone_id": "442_01", "location_type": "0"}, "geometry": {"type": "Point", "coordinates": [137.051182, 35.476816]}}, {"type": "Feature", "properties": {"stop_id": "501_01", "stop_name": "石塚", "zone_id": "501_01", "location_type": "0"}, "geometry": {"type": "Point", "coordinates": [137.016623027777, 35.4542173611111]}}, {"type": "Feature", "properties": {"stop_id": "502_01", "stop_name": "のぞみの丘ホスピタル", "zone_id": "502_01", "location_type": "0"}, "geometry": {"type": "Point", "coordinates": [137.013836361111, 35.4537222222222]}}, {"type": "Feature", "properties": {"stop_id": "503_01", "stop_name": "国際たくみアカデミー", "zone_id": "503_01", "location_type": "0"}, "geometry": {"type": "Point", "coordinates": [137.0111937, 35.4538149]}}, {"type": "Feature", "properties": {"stop_id": "504_01", "stop_name": "七福神", "zone_id": "504_01", "location_type": "0"}, "geometry": {"type": "Point", "coordinates": [137.009651, 35.456013]}}, {"type": "Feature", "properties": {"stop_id": "504_02", "stop_name": "七福神", "zone_id": "504_02", "location_type": "0"}, "geometry": {"type": "Point", "coordinates": [137.0098182, 35.4557408]}}, {"type": "Feature", "properties": {"stop_id": "505_01", "stop_name": "矢田公民館", "zone_id": "505_01", "location_type": "0"}, "geometry": {"type": "Point", "coordinates": [137.009579111111, 35.4581925555555]}}, {"type": "Feature", "properties": {"stop_id": "505_02", "stop_name": "矢田公民館", "zone_id": "505_02", "location_type": "0"}, "geometry": {"type": "Point", "coordinates": [137.009771, 35.458222]}}, {"type": "Feature", "properties": {"stop_id": "506_01", "stop_name": "島之洞公民館", "zone_id": "506_01", "location_type": "0"}, "geometry": {"type": "Point", "coordinates": [137.013756277777, 35.4740559444444]}}, {"type": "Feature", "properties": {"stop_id": "507_01", "stop_name": "広橋公民館", "zone_id": "507_01", "location_type": "0"}, "geometry": {"type": "Point", "coordinates": [137.014429972222, 35.4841806666666]}}, {"type": "Feature", "properties": {"stop_id": "508_01", "stop_name": "広橋", "zone_id": "508_01", "location_type": "0"}, "geometry": {"type": "Point", "coordinates": [137.013797194444, 35.4875726944444]}}, {"type": "Feature", "properties": {"stop_id": "509_01", "stop_name": "糠洞公民館", "zone_id": "509_01", "location_type": "0"}, "geometry": {"type": "Point", "coordinates": [137.0097307, 35.4942648]}}, {"type": "Feature", "properties": {"stop_id": "510_01", "stop_name": "伊深市営住宅", "zone_id": "510_01", "location_type": "0"}, "geometry": {"type": "Point", "coordinates": [137.0068048, 35.4952684]}}, {"type": "Feature", "properties": {"stop_id": "511_01", "stop_name": "野地原口", "zone_id": "511_01", "location_type": "0"}, "geometry": {"type": "Point", "coordinates": [137.014669277777, 35.49934075]}}, {"type": "Feature", "properties": {"stop_id": "512_01", "stop_name": "高倉神社", "zone_id": "512_01", "location_type": "0"}, "geometry": {"type": "Point", "coordinates": [137.014584722222, 35.5016941944444]}}, {"type": "Feature", "properties": {"stop_id": "513_01", "stop_name": "伊深本郷", "zone_id": "513_01", "location_type": "0"}, "geometry": {"type": "Point", "coordinates": [137.0107348, 35.5013347]}}, {"type": "Feature", "properties": {"stop_id": "514_01", "stop_name": "正眼寺前", "zone_id": "514_01", "location_type": "0"}, "geometry": {"type": "Point", "coordinates": [137.0078132, 35.5013257]}}, {"type": "Feature", "properties": {"stop_id": "515_01", "stop_name": "伊深交流センター", "zone_id": "515_01", "location_type": "0"}, "geometry": {"type": "Point", "coordinates": [137.005216, 35.501188]}}, {"type": "Feature", "properties": {"stop_id": "516_01", "stop_name": "正眼短期大学", "zone_id": "516_01", "location_type": "0"}, "geometry": {"type": "Point", "coordinates": [137.002605583333, 35.5041708611111]}}, {"type": "Feature", "properties": {"stop_id": "517_01", "stop_name": "中切公民館", "zone_id": "517_01", "location_type": "0"}, "geometry": {"type": "Point", "coordinates": [137.003893361111, 35.50858325]}}, {"type": "Feature", "properties": {"stop_id": "518_01", "stop_name": "大洞下", "zone_id": "518_01", "location_type": "0"}, "geometry": {"type": "Point", "coordinates": [137.0076118, 35.5166311]}}, {"type": "Feature", "properties": {"stop_id": "519_01", "stop_name": "大洞公民館", "zone_id": "519_01", "location_type": "0"}, "geometry": {"type": "Point", "coordinates": [137.010611722222, 35.5228716666666]}}, {"type": "Feature", "properties": {"stop_id": "520_01", "stop_name": "一文坂", "zone_id": "520_01", "location_type": "0"}, "geometry": {"type": "Point", "coordinates": [137.01208, 35.5265208]}}, {"type": "Feature", "properties": {"stop_id": "521_01", "stop_name": "中廿屋", "zone_id": "521_01", "location_type": "0"}, "geometry": {"type": "Point", "coordinates": [137.0215105, 35.5322514]}}, {"type": "Feature", "properties": {"stop_id": "522_01", "stop_name": "福昌寺", "zone_id": "522_01", "location_type": "0"}, "geometry": {"type": "Point", "coordinates": [137.0248259, 35.5334879]}}, {"type": "Feature", "properties": {"stop_id": "523_01", "stop_name": "弘法堂", "zone_id": "523_01", "location_type": "0"}, "geometry": {"type": "Point", "coordinates": [137.0349209, 35.5367057]}}, {"type": "Feature", "properties": {"stop_id": "524_01", "stop_name": "御殿山キャンプ場", "zone_id": "524_01", "location_type": "0"}, "geometry": {"type": "Point", "coordinates": [137.036504222222, 35.5384191944444]}}, {"type": "Feature", "properties": {"stop_id": "525_01", "stop_name": "上廿屋", "zone_id": "525_01", "location_type": "0"}, "geometry": {"type": "Point", "coordinates": [137.0362452, 35.5401079]}}, {"type": "Feature", "properties": {"stop_id": "526_01", "stop_name": "関也公民館", "zone_id": "526_01", "location_type": "0"}, "geometry": {"type": "Point", "coordinates": [137.0034108, 35.4987794]}}, {"type": "Feature", "properties": {"stop_id": "601_01", "stop_name": "加瀬田", "zone_id": "601_01", "location_type": "0"}, "geometry": {"type": "Point", "coordinates": [137.0237915, 35.4584931]}}, {"type": "Feature", "properties": {"stop_id": "602_01", "stop_name": "加瀬田公民館", "zone_id": "602_01", "location_type": "0"}, "geometry": {"type": "Point", "coordinates": [137.023943027777, 35.4630173611111]}}, {"type": "Feature", "properties": {"stop_id": "603_01", "stop_name": "中部台５丁目", "zone_id": "603_01", "location_type": "0"}, "geometry": {"type": "Point", "coordinates": [137.019693, 35.461749]}}, {"type": "Feature", "properties": {"stop_id": "603_02", "stop_name": "中部台５丁目", "zone_id": "603_02", "location_type": "0"}, "geometry": {"type": "Point", "coordinates": [137.019669, 35.46183]}}, {"type": "Feature", "properties": {"stop_id": "604_01", "stop_name": "下則友公民館", "zone_id": "604_01", "location_type": "0"}, "geometry": {"type": "Point", "coordinates": [137.019742416666, 35.4725438333333]}}, {"type": "Feature", "properties": {"stop_id": "605_01", "stop_name": "上開公民館", "zone_id": "605_01", "location_type": "0"}, "geometry": {"type": "Point", "coordinates": [137.0226886, 35.4761372]}}, {"type": "Feature", "properties": {"stop_id": "606_01", "stop_name": "上則友公民館", "zone_id": "606_01", "location_type": "0"}, "geometry": {"type": "Point", "coordinates": [137.0262662, 35.4795878]}}, {"type": "Feature", "properties": {"stop_id": "607_01", "stop_name": "南坂公民館", "zone_id": "607_01", "location_type": "0"}, "geometry": {"type": "Point", "coordinates": [137.027870416666, 35.4812188055555]}}, {"type": "Feature", "properties": {"stop_id": "608_01", "stop_name": "田畑公民館", "zone_id": "608_01", "location_type": "0"}, "geometry": {"type": "Point", "coordinates": [137.0283779, 35.4931789]}}, {"type": "Feature", "properties": {"stop_id": "609_01", "stop_name": "みのかも健康の森", "zone_id": "609_01", "location_type": "0"}, "geometry": {"type": "Point", "coordinates": [137.0280439, 35.5008041]}}, {"type": "Feature", "properties": {"stop_id": "610_01", "stop_name": "みのかも健康の森園内", "zone_id": "610_01", "location_type": "0"}, "geometry": {"type": "Point", "coordinates": [137.026884638888, 35.5005188055555]}}, {"type": "Feature", "properties": {"stop_id": "611_01", "stop_name": "廿屋口", "zone_id": "611_01", "location_type": "0"}, "geometry": {"type": "Point", "coordinates": [137.037044805555, 35.5129453055555]}}, {"type": "Feature", "properties": {"stop_id": "612_01", "stop_name": "一反田", "zone_id": "612_01", "location_type": "0"}, "geometry": {"type": "Point", "coordinates": [137.035377694444, 35.5139434722222]}}, {"type": "Feature", "properties": {"stop_id": "613_01", "stop_name": "長塚", "zone_id": "613_01", "location_type": "0"}, "geometry": {"type": "Point", "coordinates": [137.032668416666, 35.5186261388888]}}, {"type": "Feature", "properties": {"stop_id": "614_01", "stop_name": "下廿屋公民館", "zone_id": "614_01", "location_type": "0"}, "geometry": {"type": "Point", "coordinates": [137.030027861111, 35.5186874722222]}}, {"type": "Feature", "properties": {"stop_id": "615_01", "stop_name": "三和交流センター", "zone_id": "615_01", "location_type": "0"}, "geometry": {"type": "Point", "coordinates": [137.041458, 35.5125494]}}, {"type": "Feature", "properties": {"stop_id": "616_01", "stop_name": "平古市公民館", "zone_id": "616_01", "location_type": "0"}, "geometry": {"type": "Point", "coordinates": [137.047706277777, 35.51895975]}}, {"type": "Feature", "properties": {"stop_id": "617_01", "stop_name": "中川浦公民館西", "zone_id": "617_01", "location_type": "0"}, "geometry": {"type": "Point", "coordinates": [137.0532584, 35.5218811]}}, {"type": "Feature", "properties": {"stop_id": "618_01", "stop_name": "中川浦", "zone_id": "618_01", "location_type": "0"}, "geometry": {"type": "Point", "coordinates": [137.058289222222, 35.5228000277777]}}, {"type": "Feature", "properties": {"stop_id": "619_01", "stop_name": "水市", "zone_id": "619_01", "location_type": "0"}, "geometry": {"type": "Point", "coordinates": [137.0631276, 35.5277236]}}, {"type": "Feature", "properties": {"stop_id": "620_01", "stop_name": "上川浦公民館", "zone_id": "620_01", "location_type": "0"}, "geometry": {"type": "Point", "coordinates": [137.0666682, 35.5301071]}}, {"type": "Feature", "properties": {"stop_id": "701_01", "stop_name": "田島町１丁目", "zone_id": "701_01", "location_type": "0"}, "geometry": {"type": "Point", "coordinates": [137.023269, 35.446752]}}, {"type": "Feature", "properties": {"stop_id": "701_02", "stop_name": "田島町１丁目", "zone_id": "701_02", "location_type": "0"}, "geometry": {"type": "Point", "coordinates": [137.0237908, 35.4466226]}}, {"type": "Feature", "properties": {"stop_id": "702_01", "stop_name": "田島町３丁目", "zone_id": "702_01", "location_type": "0"}, "geometry": {"type": "Point", "coordinates": [137.0276959, 35.4493395]}}, {"type": "Feature", "properties": {"stop_id": "702_02", "stop_name": "田島町３丁目", "zone_id": "702_02", "location_type": "0"}, "geometry": {"type": "Point", "coordinates": [137.027822361111, 35.4492617777777]}}, {"type": "Feature", "properties": {"stop_id": "703_01", "stop_name": "加茂農林高校", "zone_id": "703_01", "location_type": "0"}, "geometry": {"type": "Point", "coordinates": [137.031726, 35.450978]}}, {"type": "Feature", "properties": {"stop_id": "703_02", "stop_name": "加茂農林高校", "zone_id": "703_02", "location_type": "0"}, "geometry": {"type": "Point", "coordinates": [137.0317167, 35.4508574]}}, {"type": "Feature", "properties": {"stop_id": "704_01", "stop_name": "加茂高校北", "zone_id": "704_01", "location_type": "0"}, "geometry": {"type": "Point", "coordinates": [137.035090833333, 35.4500180277777]}}, {"type": "Feature", "properties": {"stop_id": "705_01", "stop_name": "下中", "zone_id": "705_01", "location_type": "0"}, "geometry": {"type": "Point", "coordinates": [137.0346079, 35.4528602]}}, {"type": "Feature", "properties": {"stop_id": "706_01", "stop_name": "田畑西", "zone_id": "706_01", "location_type": "0"}, "geometry": {"type": "Point", "coordinates": [137.040116305555, 35.4535155833333]}}, {"type": "Feature", "properties": {"stop_id": "707_01", "stop_name": "本郷町７丁目", "zone_id": "707_01", "location_type": "0"}, "geometry": {"type": "Point", "coordinates": [137.041696888888, 35.4548767222222]}}, {"type": "Feature", "properties": {"stop_id": "708_01", "stop_name": "法務局北", "zone_id": "708_01", "location_type": "0"}, "geometry": {"type": "Point", "coordinates": [137.041271305555, 35.4586774722222]}}, {"type": "Feature", "properties": {"stop_id": "708_02", "stop_name": "法務局北", "zone_id": "708_02", "location_type": "0"}, "geometry": {"type": "Point", "coordinates": [137.041151, 35.458651]}}, {"type": "Feature", "properties": {"stop_id": "709_01", "stop_name": "美濃加茂高校", "zone_id": "709_01", "location_type": "0"}, "geometry": {"type": "Point", "coordinates": [137.043222, 35.461798]}}, {"type": "Feature", "properties": {"stop_id": "709_02", "stop_name": "美濃加茂高校", "zone_id": "709_02", "location_type": "0"}, "geometry": {"type": "Point", "coordinates": [137.043323, 35.461759]}}, {"type": "Feature", "properties": {"stop_id": "710_01", "stop_name": "森山団地北", "zone_id": "710_01", "location_type": "0"}, "geometry": {"type": "Point", "coordinates": [137.0468559, 35.4642772]}}, {"type": "Feature", "properties": {"stop_id": "711_01", "stop_name": "森山団地", "zone_id": "711_01", "location_type": "0"}, "geometry": {"type": "Point", "coordinates": [137.045607, 35.461668]}}, {"type": "Feature", "properties": {"stop_id": "712_01", "stop_name": "天狗山下", "zone_id": "712_01", "location_type": "0"}, "geometry": {"type": "Point", "coordinates": [137.0481789, 35.4601761]}}, {"type": "Feature", "properties": {"stop_id": "713_01", "stop_name": "プラザちゅうたい", "zone_id": "713_01", "location_type": "0"}, "geometry": {"type": "Point", "coordinates": [137.0132285, 35.4431496]}}, {"type": "Feature", "properties": {"stop_id": "713_02", "stop_name": "プラザちゅうたい", "zone_id": "713_02", "location_type": "0"}, "geometry": {"type": "Point", "coordinates": [137.0132224, 35.4432749]}}, {"type": "Feature", "properties": {"stop_id": "714_01", "stop_name": "花木センター", "zone_id": "714_01", "location_type": "0"}, "geometry": {"type": "Point", "coordinates": [137.0093742, 35.4222511]}}, {"type": "Feature", "properties": {"stop_id": "715_01", "stop_name": "可児とうのう病院", "zone_id": "715_01", "location_type": "0"}, "geometry": {"type": "Point", "coordinates": [137.016876, 35.418015]}}, {"type": "Feature", "properties": {"stop_id": "716_01", "stop_name": "名鉄可児川駅", "zone_id": "716_01", "location_type": "0"}, "geometry": {"type": "Point", "coordinates": [137.0177569, 35.4188327]}}, {"type": "Feature", "properties": {"stop_id": "717_01", "stop_name": "前平公園駅北", "zone_id": "717_01", "location_type": "0"}, "geometry": {"type": "Point", "coordinates": [137.003074, 35.451423]}}, {"type": "Feature", "properties": {"stop_id": "717_02", "stop_name": "前平公園駅北", "zone_id": "717_02", "location_type": "0"}, "geometry": {"type": "Point", "coordinates": [137.003362, 35.451517]}}, {"type": "Feature", "properties": {"stop_id": "718_01", "stop_name": "前平公園園内", "zone_id": "718_01", "location_type": "0"}, "geometry": {"type": "Point", "coordinates": [137.000038, 35.454624]}}, {"type": "Feature", "properties": {"stop_id": "719_01", "stop_name": "ヤマザキマザック工作機械博物館", "zone_id": "719_01", "location_type": "0"}, "geometry": {"type": "Point", "coordinates": [137.000472, 35.455762]}}, {"type": "Feature", "properties": {"stop_id": "720_01", "stop_name": "西町公民館南", "zone_id": "720_01", "location_type": "0"}, "geometry": {"type": "Point", "coordinates": [136.999732, 35.448602]}}, {"type": "Feature", "properties": {"stop_id": "720_02", "stop_name": "西町公民館南", "zone_id": "720_02", "location_type": "0"}, "geometry": {"type": "Point", "coordinates": [136.999563, 35.448606]}}, {"type": "Feature", "properties": {"stop_id": "721_01", "stop_name": "岐阜健康管理センター", "zone_id": "721_01", "location_type": "0"}, "geometry": {"type": "Point", "coordinates": [137.005794, 35.446067]}}]}