{"type": "FeatureCollection", "name": "stops", "crs": {"type": "name", "properties": {"name": "urn:ogc:def:crs:OGC:1.3:CRS84"}}, "features": [{"type": "Feature", "properties": {"stop_id": "1", "stop_name": "赤池", "zone_id": "1", "location_type": "0"}, "geometry": {"type": "Point", "coordinates": [138.381933973681, 37.033786105972]}}, {"type": "Feature", "properties": {"stop_id": "2", "stop_name": "青柳上", "zone_id": "2", "location_type": "0"}, "geometry": {"type": "Point", "coordinates": [138.377003762609, 37.0358864266694]}}, {"type": "Feature", "properties": {"stop_id": "3", "stop_name": "青柳", "zone_id": "3", "location_type": "0"}, "geometry": {"type": "Point", "coordinates": [138.373844346328, 37.0351832982859]}}, {"type": "Feature", "properties": {"stop_id": "4", "stop_name": "青柳下", "zone_id": "4", "location_type": "0"}, "geometry": {"type": "Point", "coordinates": [138.376170417479, 37.0379260999196]}}, {"type": "Feature", "properties": {"stop_id": "5", "stop_name": "梨平［奈良尾］", "zone_id": "5", "location_type": "0"}, "geometry": {"type": "Point", "coordinates": [138.384745729001, 37.045772647078]}}, {"type": "Feature", "properties": {"stop_id": "6", "stop_name": "梨平集落センター", "zone_id": "6", "location_type": "0"}, "geometry": {"type": "Point", "coordinates": [138.381100052891, 37.0496696699621]}}, {"type": "Feature", "properties": {"stop_id": "7", "stop_name": "梨平［米屋商店］", "zone_id": "7", "location_type": "0"}, "geometry": {"type": "Point", "coordinates": [138.379398770425, 37.0506938120115]}}, {"type": "Feature", "properties": {"stop_id": "8", "stop_name": "梨窪", "zone_id": "8", "location_type": "0"}, "geometry": {"type": "Point", "coordinates": [138.376551782076, 37.0510669568019]}}, {"type": "Feature", "properties": {"stop_id": "9", "stop_name": "梨窪入口", "zone_id": "9", "location_type": "0"}, "geometry": {"type": "Point", "coordinates": [138.378252922283, 37.0534625594966]}}, {"type": "Feature", "properties": {"stop_id": "10", "stop_name": "北野中", "zone_id": "10", "location_type": "0"}, "geometry": {"type": "Point", "coordinates": [138.379745795779, 37.0546950962314]}}, {"type": "Feature", "properties": {"stop_id": "11", "stop_name": "北野", "zone_id": "11", "location_type": "0"}, "geometry": {"type": "Point", "coordinates": [138.377211257676, 37.0556063817819]}}, {"type": "Feature", "properties": {"stop_id": "12", "stop_name": "棚田", "zone_id": "12", "location_type": "0"}, "geometry": {"type": "Point", "coordinates": [138.375614018284, 37.0593819455693]}}, {"type": "Feature", "properties": {"stop_id": "13", "stop_name": "上中條", "zone_id": "13", "location_type": "0"}, "geometry": {"type": "Point", "coordinates": [138.370892187015, 37.0599286313428]}}, {"type": "Feature", "properties": {"stop_id": "14", "stop_name": "鶯澤", "zone_id": "14", "location_type": "0"}, "geometry": {"type": "Point", "coordinates": [138.367385714819, 37.0559619809733]}}, {"type": "Feature", "properties": {"stop_id": "15", "stop_name": "棚田下", "zone_id": "15", "location_type": "0"}, "geometry": {"type": "Point", "coordinates": [138.374572375338, 37.0610049945281]}}, {"type": "Feature", "properties": {"stop_id": "16", "stop_name": "東戸野上", "zone_id": "16", "location_type": "0"}, "geometry": {"type": "Point", "coordinates": [138.363218789938, 37.0709427815297]}}, {"type": "Feature", "properties": {"stop_id": "17", "stop_name": "東戸野下", "zone_id": "17", "location_type": "0"}, "geometry": {"type": "Point", "coordinates": [138.359851008944, 37.0714374261549]}}, {"type": "Feature", "properties": {"stop_id": "18", "stop_name": "寺脇", "zone_id": "18", "location_type": "0"}, "geometry": {"type": "Point", "coordinates": [138.356066540745, 37.0733034293142]}}, {"type": "Feature", "properties": {"stop_id": "19", "stop_name": "鈴倉", "zone_id": "19", "location_type": "0"}, "geometry": {"type": "Point", "coordinates": [138.355302754923, 37.0724354534229]}}, {"type": "Feature", "properties": {"stop_id": "20", "stop_name": "荒牧", "zone_id": "20", "location_type": "0"}, "geometry": {"type": "Point", "coordinates": [138.340755131157, 37.0793526698768]}}, {"type": "Feature", "properties": {"stop_id": "21", "stop_name": "深沢入口", "zone_id": "21", "location_type": "0"}, "geometry": {"type": "Point", "coordinates": [138.337560942553, 37.0799341147113]}}, {"type": "Feature", "properties": {"stop_id": "22", "stop_name": "清里区総合事務所前", "zone_id": "22", "location_type": "0"}, "geometry": {"type": "Point", "coordinates": [138.334436169929, 37.0810536937905]}}, {"type": "Feature", "properties": {"stop_id": "23", "stop_name": "清里診療所", "zone_id": "23", "location_type": "0"}, "geometry": {"type": "Point", "coordinates": [138.331658774695, 37.0777119910819]}}, {"type": "Feature", "properties": {"stop_id": "Oya_1", "stop_name": "赤池", "zone_id": "Oya_1", "location_type": "1"}, "geometry": {"type": "Point", "coordinates": [138.381933973681, 37.033786105972]}}, {"type": "Feature", "properties": {"stop_id": "Oya_2", "stop_name": "青柳上", "zone_id": "Oya_2", "location_type": "1"}, "geometry": {"type": "Point", "coordinates": [138.377003762609, 37.0358864266694]}}, {"type": "Feature", "properties": {"stop_id": "Oya_3", "stop_name": "青柳", "zone_id": "Oya_3", "location_type": "1"}, "geometry": {"type": "Point", "coordinates": [138.373844346328, 37.0351832982859]}}, {"type": "Feature", "properties": {"stop_id": "Oya_4", "stop_name": "青柳下", "zone_id": "Oya_4", "location_type": "1"}, "geometry": {"type": "Point", "coordinates": [138.376170417479, 37.0379260999196]}}, {"type": "Feature", "properties": {"stop_id": "Oya_6", "stop_name": "梨平集落センター", "zone_id": "Oya_6", "location_type": "1"}, "geometry": {"type": "Point", "coordinates": [138.381100052891, 37.0496696699621]}}, {"type": "Feature", "properties": {"stop_id": "Oya_7", "stop_name": "梨平［米屋商店］", "zone_id": "Oya_7", "location_type": "1"}, "geometry": {"type": "Point", "coordinates": [138.379398770425, 37.0506938120115]}}, {"type": "Feature", "properties": {"stop_id": "Oya_8", "stop_name": "梨窪", "zone_id": "Oya_8", "location_type": "1"}, "geometry": {"type": "Point", "coordinates": [138.376551782076, 37.0510669568019]}}, {"type": "Feature", "properties": {"stop_id": "Oya_9", "stop_name": "梨窪入口", "zone_id": "Oya_9", "location_type": "1"}, "geometry": {"type": "Point", "coordinates": [138.378252922283, 37.0534625594966]}}, {"type": "Feature", "properties": {"stop_id": "Oya_10", "stop_name": "北野中", "zone_id": "Oya_10", "location_type": "1"}, "geometry": {"type": "Point", "coordinates": [138.379745795779, 37.0546950962314]}}, {"type": "Feature", "properties": {"stop_id": "Oya_11", "stop_name": "北野", "zone_id": "Oya_11", "location_type": "1"}, "geometry": {"type": "Point", "coordinates": [138.377211257676, 37.0556063817819]}}, {"type": "Feature", "properties": {"stop_id": "Oya_12", "stop_name": "棚田", "zone_id": "Oya_12", "location_type": "1"}, "geometry": {"type": "Point", "coordinates": [138.375614018284, 37.0593819455693]}}, {"type": "Feature", "properties": {"stop_id": "Oya_13", "stop_name": "上中條", "zone_id": "Oya_13", "location_type": "1"}, "geometry": {"type": "Point", "coordinates": [138.370892187015, 37.0599286313428]}}, {"type": "Feature", "properties": {"stop_id": "Oya_14", "stop_name": "鶯澤", "zone_id": "Oya_14", "location_type": "1"}, "geometry": {"type": "Point", "coordinates": [138.367385714819, 37.0559619809733]}}, {"type": "Feature", "properties": {"stop_id": "Oya_15", "stop_name": "棚田下", "zone_id": "Oya_15", "location_type": "1"}, "geometry": {"type": "Point", "coordinates": [138.374572375338, 37.0610049945281]}}, {"type": "Feature", "properties": {"stop_id": "Oya_16", "stop_name": "東戸野上", "zone_id": "Oya_16", "location_type": "1"}, "geometry": {"type": "Point", "coordinates": [138.363218789938, 37.0709427815297]}}, {"type": "Feature", "properties": {"stop_id": "Oya_17", "stop_name": "東戸野下", "zone_id": "Oya_17", "location_type": "1"}, "geometry": {"type": "Point", "coordinates": [138.359851008944, 37.0714374261549]}}, {"type": "Feature", "properties": {"stop_id": "Oya_18", "stop_name": "寺脇", "zone_id": "Oya_18", "location_type": "1"}, "geometry": {"type": "Point", "coordinates": [138.356066540745, 37.0733034293142]}}, {"type": "Feature", "properties": {"stop_id": "Oya_19", "stop_name": "鈴倉", "zone_id": "Oya_19", "location_type": "1"}, "geometry": {"type": "Point", "coordinates": [138.355302754923, 37.0724354534229]}}, {"type": "Feature", "properties": {"stop_id": "Oya_20", "stop_name": "荒牧", "zone_id": "Oya_20", "location_type": "1"}, "geometry": {"type": "Point", "coordinates": [138.340755131157, 37.0793526698768]}}, {"type": "Feature", "properties": {"stop_id": "Oya_21", "stop_name": "深沢入口", "zone_id": "Oya_21", "location_type": "1"}, "geometry": {"type": "Point", "coordinates": [138.337560942553, 37.0799341147113]}}, {"type": "Feature", "properties": {"stop_id": "Oya_22", "stop_name": "清里区総合事務所前", "zone_id": "Oya_22", "location_type": "1"}, "geometry": {"type": "Point", "coordinates": [138.334436169929, 37.0810536937905]}}, {"type": "Feature", "properties": {"stop_id": "Oya_23", "stop_name": "清里診療所", "zone_id": "Oya_23", "location_type": "1"}, "geometry": {"type": "Point", "coordinates": [138.331658774695, 37.0777119910819]}}]}