{"type": "FeatureCollection", "name": "stops", "crs": {"type": "name", "properties": {"name": "urn:ogc:def:crs:OGC:1.3:CRS84"}}, "features": [{"type": "Feature", "properties": {"stop_id": "S091100000100100", "stop_name": "文化活動交流館前", "zone_id": "Z000000", "location_type": "0"}, "geometry": {"type": "Point", "coordinates": [139.753327669827, 36.5688764559915]}}, {"type": "Feature", "properties": {"stop_id": "S091100000200100", "stop_name": "ビバモール入口", "zone_id": "Z000010", "location_type": "0"}, "geometry": {"type": "Point", "coordinates": [139.751348659977, 36.5691801866237]}}, {"type": "Feature", "properties": {"stop_id": "S091100000300100", "stop_name": "睦町", "zone_id": "Z000020", "location_type": "0"}, "geometry": {"type": "Point", "coordinates": [139.751070833942, 36.5708900540303]}}, {"type": "Feature", "properties": {"stop_id": "S091100000300200", "stop_name": "睦町", "zone_id": "Z000020", "location_type": "0"}, "geometry": {"type": "Point", "coordinates": [139.750966676935, 36.5708726920366]}}, {"type": "Feature", "properties": {"stop_id": "S091100000400100", "stop_name": "泉町", "zone_id": "Z000030", "location_type": "0"}, "geometry": {"type": "Point", "coordinates": [139.750723558435, 36.5728603065861]}}, {"type": "Feature", "properties": {"stop_id": "S091100000400200", "stop_name": "泉町", "zone_id": "Z000030", "location_type": "0"}, "geometry": {"type": "Point", "coordinates": [139.750619395574, 36.5729818176901]}}, {"type": "Feature", "properties": {"stop_id": "S091100000500100", "stop_name": "泉町北", "zone_id": "Z000040", "location_type": "0"}, "geometry": {"type": "Point", "coordinates": [139.748813868915, 36.5759675397694]}}, {"type": "Feature", "properties": {"stop_id": "S091100000600100", "stop_name": "千手町", "zone_id": "Z000050", "location_type": "0"}, "geometry": {"type": "Point", "coordinates": [139.744751690792, 36.5765923573032]}}, {"type": "Feature", "properties": {"stop_id": "S091100000700100", "stop_name": "玉田町", "zone_id": "Z000060", "location_type": "0"}, "geometry": {"type": "Point", "coordinates": [139.743085120894, 36.5776859372358]}}, {"type": "Feature", "properties": {"stop_id": "S091100000800100", "stop_name": "坂田山北", "zone_id": "Z000070", "location_type": "0"}, "geometry": {"type": "Point", "coordinates": [139.739161961355, 36.5749517655775]}}, {"type": "Feature", "properties": {"stop_id": "S091100000900100", "stop_name": "喫茶ジュエル前", "zone_id": "Z000080", "location_type": "0"}, "geometry": {"type": "Point", "coordinates": [139.739509195876, 36.5739536247162]}}, {"type": "Feature", "properties": {"stop_id": "S091100001000100", "stop_name": "文化センター入口", "zone_id": "Z000090", "location_type": "0"}, "geometry": {"type": "Point", "coordinates": [139.740759216738, 36.57091580999]}}, {"type": "Feature", "properties": {"stop_id": "S091100001100100", "stop_name": "市役所前", "zone_id": "Z000100", "location_type": "0"}, "geometry": {"type": "Point", "coordinates": [139.745967256525, 36.5672878930943]}}, {"type": "Feature", "properties": {"stop_id": "S091100001200100", "stop_name": "久保町", "zone_id": "Z000110", "location_type": "0"}, "geometry": {"type": "Point", "coordinates": [139.746974163307, 36.566133538068]}}, {"type": "Feature", "properties": {"stop_id": "S091100001200200", "stop_name": "久保町", "zone_id": "Z000110", "location_type": "0"}, "geometry": {"type": "Point", "coordinates": [139.747113033344, 36.5662984536805]}}, {"type": "Feature", "properties": {"stop_id": "S091100001300100", "stop_name": "仲町", "zone_id": "Z000120", "location_type": "0"}, "geometry": {"type": "Point", "coordinates": [139.746522898671, 36.5641025066212]}}, {"type": "Feature", "properties": {"stop_id": "S091100001300200", "stop_name": "仲町", "zone_id": "Z000120", "location_type": "0"}, "geometry": {"type": "Point", "coordinates": [139.746661767979, 36.5642847813712]}}, {"type": "Feature", "properties": {"stop_id": "S091100001400100", "stop_name": "石橋町", "zone_id": "Z000130", "location_type": "0"}, "geometry": {"type": "Point", "coordinates": [139.746488239023, 36.5626877359705]}}, {"type": "Feature", "properties": {"stop_id": "S091100001400200", "stop_name": "石橋町", "zone_id": "Z000130", "location_type": "0"}, "geometry": {"type": "Point", "coordinates": [139.746627103212, 36.5629915246828]}}, {"type": "Feature", "properties": {"stop_id": "S091100001500100", "stop_name": "寺町・下材木町", "zone_id": "Z000140", "location_type": "0"}, "geometry": {"type": "Point", "coordinates": [139.747147962476, 36.5613163821969]}}, {"type": "Feature", "properties": {"stop_id": "S091100001500200", "stop_name": "寺町・下材木町", "zone_id": "Z000140", "location_type": "0"}, "geometry": {"type": "Point", "coordinates": [139.747599312316, 36.5613250741395]}}, {"type": "Feature", "properties": {"stop_id": "S091100001600100", "stop_name": "上都賀病院前", "zone_id": "Z000150", "location_type": "0"}, "geometry": {"type": "Point", "coordinates": [139.750446304799, 36.5609866490115]}}, {"type": "Feature", "properties": {"stop_id": "S091100001600200", "stop_name": "上都賀病院前", "zone_id": "Z000150", "location_type": "0"}, "geometry": {"type": "Point", "coordinates": [139.750724065354, 36.560830424389]}}, {"type": "Feature", "properties": {"stop_id": "S091100001700100", "stop_name": "万町", "zone_id": "Z000160", "location_type": "0"}, "geometry": {"type": "Point", "coordinates": [139.752529556129, 36.5586952999684]}}, {"type": "Feature", "properties": {"stop_id": "S091100001700200", "stop_name": "万町", "zone_id": "Z000160", "location_type": "0"}, "geometry": {"type": "Point", "coordinates": [139.752668442257, 36.5584783145561]}}, {"type": "Feature", "properties": {"stop_id": "S091100001800100", "stop_name": "とちぎん前", "zone_id": "Z000170", "location_type": "0"}, "geometry": {"type": "Point", "coordinates": [139.755827958442, 36.5569421174999]}}, {"type": "Feature", "properties": {"stop_id": "S091100001900100", "stop_name": "西茂呂１丁目", "zone_id": "Z000180", "location_type": "0"}, "geometry": {"type": "Point", "coordinates": [139.765028577598, 36.5564997117821]}}, {"type": "Feature", "properties": {"stop_id": "S091100002000100", "stop_name": "コジマ・ビックカメラ前", "zone_id": "Z000190", "location_type": "0"}, "geometry": {"type": "Point", "coordinates": [139.766660447319, 36.5549547932682]}}, {"type": "Feature", "properties": {"stop_id": "S091100002100100", "stop_name": "ヨークベニマル前", "zone_id": "Z000200", "location_type": "0"}, "geometry": {"type": "Point", "coordinates": [139.769438107064, 36.5521079708271]}}, {"type": "Feature", "properties": {"stop_id": "S091100002100200", "stop_name": "ヨークベニマル前", "zone_id": "Z000200", "location_type": "0"}, "geometry": {"type": "Point", "coordinates": [139.769785292229, 36.5522815717284]}}, {"type": "Feature", "properties": {"stop_id": "S091100002200100", "stop_name": "栄町１丁目", "zone_id": "Z000210", "location_type": "0"}, "geometry": {"type": "Point", "coordinates": [139.772493391358, 36.5523337234156]}}, {"type": "Feature", "properties": {"stop_id": "S091100002200200", "stop_name": "栄町１丁目", "zone_id": "Z000210", "location_type": "0"}, "geometry": {"type": "Point", "coordinates": [139.772528105851, 36.5524465587648]}}, {"type": "Feature", "properties": {"stop_id": "S091100002300100", "stop_name": "栄町北", "zone_id": "Z000220", "location_type": "0"}, "geometry": {"type": "Point", "coordinates": [139.77568745207, 36.5549463612928]}}, {"type": "Feature", "properties": {"stop_id": "S091100002400100", "stop_name": "緑町西", "zone_id": "Z000230", "location_type": "0"}, "geometry": {"type": "Point", "coordinates": [139.771416937787, 36.5560572289793]}}, {"type": "Feature", "properties": {"stop_id": "S091100002400200", "stop_name": "緑町西", "zone_id": "Z000230", "location_type": "0"}, "geometry": {"type": "Point", "coordinates": [139.771451662155, 36.5559357159665]}}, {"type": "Feature", "properties": {"stop_id": "S091100002500100", "stop_name": "上野原東", "zone_id": "Z000240", "location_type": "0"}, "geometry": {"type": "Point", "coordinates": [139.76815332742, 36.5560831781724]}}, {"type": "Feature", "properties": {"stop_id": "S091100002500200", "stop_name": "上野原東", "zone_id": "Z000240", "location_type": "0"}, "geometry": {"type": "Point", "coordinates": [139.768396358861, 36.5561613009583]}}, {"type": "Feature", "properties": {"stop_id": "S091100002600100", "stop_name": "上野原", "zone_id": "Z000250", "location_type": "0"}, "geometry": {"type": "Point", "coordinates": [139.766590922885, 36.5569944900576]}}, {"type": "Feature", "properties": {"stop_id": "S091100002700100", "stop_name": "晃望台", "zone_id": "Z000260", "location_type": "0"}, "geometry": {"type": "Point", "coordinates": [139.766451882771, 36.5608655739654]}}, {"type": "Feature", "properties": {"stop_id": "S091100002800100", "stop_name": "上野町", "zone_id": "Z000270", "location_type": "0"}, "geometry": {"type": "Point", "coordinates": [139.766312875553, 36.5639554966587]}}, {"type": "Feature", "properties": {"stop_id": "S091100002900100", "stop_name": "府中町", "zone_id": "Z000280", "location_type": "0"}, "geometry": {"type": "Point", "coordinates": [139.758605172728, 36.5646670098941]}}, {"type": "Feature", "properties": {"stop_id": "S091100003000100", "stop_name": "東小前", "zone_id": "Z000290", "location_type": "0"}, "geometry": {"type": "Point", "coordinates": [139.753119589526, 36.5632954875997]}}, {"type": "Feature", "properties": {"stop_id": "S091100003100100", "stop_name": "福田屋前", "zone_id": "Z000300", "location_type": "0"}, "geometry": {"type": "Point", "coordinates": [139.752286232155, 36.5655608321884]}}, {"type": "Feature", "properties": {"stop_id": "S091100003100200", "stop_name": "福田屋前", "zone_id": "Z000300", "location_type": "0"}, "geometry": {"type": "Point", "coordinates": [139.752182078072, 36.5654740336451]}}, {"type": "Feature", "properties": {"stop_id": "S091100003200100", "stop_name": "文化橋町", "zone_id": "Z000310", "location_type": "0"}, "geometry": {"type": "Point", "coordinates": [139.751730623263, 36.5679563779146]}}, {"type": "Feature", "properties": {"stop_id": "S091100003200200", "stop_name": "文化橋町", "zone_id": "Z000310", "location_type": "0"}, "geometry": {"type": "Point", "coordinates": [139.751834778808, 36.568008458183]}}, {"type": "Feature", "properties": {"stop_id": "S091100003300100", "stop_name": "運転免許センター", "zone_id": "Z000320", "location_type": "0"}, "geometry": {"type": "Point", "coordinates": [139.801381622105, 36.5092144151181]}}, {"type": "Feature", "properties": {"stop_id": "S091100003400100", "stop_name": "前畑", "zone_id": "Z000330", "location_type": "0"}, "geometry": {"type": "Point", "coordinates": [139.806971577018, 36.5055170716929]}}, {"type": "Feature", "properties": {"stop_id": "S091100003400200", "stop_name": "前畑", "zone_id": "Z000330", "location_type": "0"}, "geometry": {"type": "Point", "coordinates": [139.806936862148, 36.5054129159036]}}, {"type": "Feature", "properties": {"stop_id": "S091100003500100", "stop_name": "下石川", "zone_id": "Z000340", "location_type": "0"}, "geometry": {"type": "Point", "coordinates": [139.811554428282, 36.50765237154]}}, {"type": "Feature", "properties": {"stop_id": "S091100003500200", "stop_name": "下石川", "zone_id": "Z000340", "location_type": "0"}, "geometry": {"type": "Point", "coordinates": [139.811693302728, 36.5077131323373]}}, {"type": "Feature", "properties": {"stop_id": "S091100003600100", "stop_name": "下石川中野屋前", "zone_id": "Z000350", "location_type": "0"}, "geometry": {"type": "Point", "coordinates": [139.809991917713, 36.5110807587361]}}, {"type": "Feature", "properties": {"stop_id": "S091100003600200", "stop_name": "下石川中野屋前", "zone_id": "Z000350", "location_type": "0"}, "geometry": {"type": "Point", "coordinates": [139.810096072908, 36.5111415185809]}}, {"type": "Feature", "properties": {"stop_id": "S091100003700100", "stop_name": "住山", "zone_id": "Z000360", "location_type": "0"}, "geometry": {"type": "Point", "coordinates": [139.808151480305, 36.5186145747291]}}, {"type": "Feature", "properties": {"stop_id": "S091100003700200", "stop_name": "住山", "zone_id": "Z000360", "location_type": "0"}, "geometry": {"type": "Point", "coordinates": [139.808429240885, 36.5184583500953]}}, {"type": "Feature", "properties": {"stop_id": "S091100003800100", "stop_name": "石川小学校前", "zone_id": "Z000370", "location_type": "0"}, "geometry": {"type": "Point", "coordinates": [139.80273504852, 36.5240478367015]}}, {"type": "Feature", "properties": {"stop_id": "S091100003800200", "stop_name": "石川小学校前", "zone_id": "Z000370", "location_type": "0"}, "geometry": {"type": "Point", "coordinates": [139.802769764481, 36.5241259537795]}}, {"type": "Feature", "properties": {"stop_id": "S091100003900100", "stop_name": "上石川十文字", "zone_id": "Z000380", "location_type": "0"}, "geometry": {"type": "Point", "coordinates": [139.800026779643, 36.5280230052362]}}, {"type": "Feature", "properties": {"stop_id": "S091100003900200", "stop_name": "上石川十文字", "zone_id": "Z000380", "location_type": "0"}, "geometry": {"type": "Point", "coordinates": [139.800130931909, 36.5281532016352]}}, {"type": "Feature", "properties": {"stop_id": "S091100004000100", "stop_name": "北犬飼コミュニティセンター前", "zone_id": "Z000390", "location_type": "0"}, "geometry": {"type": "Point", "coordinates": [139.798985108579, 36.5302449464377]}}, {"type": "Feature", "properties": {"stop_id": "S091100004000200", "stop_name": "北犬飼コミュニティセンター前", "zone_id": "Z000390", "location_type": "0"}, "geometry": {"type": "Point", "coordinates": [139.799123985578, 36.5302449502474]}}, {"type": "Feature", "properties": {"stop_id": "S091100004100100", "stop_name": "下茂呂たばこ屋前", "zone_id": "Z000400", "location_type": "0"}, "geometry": {"type": "Point", "coordinates": [139.79704070303, 36.5332740628178]}}, {"type": "Feature", "properties": {"stop_id": "S091100004100200", "stop_name": "下茂呂たばこ屋前", "zone_id": "Z000400", "location_type": "0"}, "geometry": {"type": "Point", "coordinates": [139.797110138603, 36.5333435012777]}}, {"type": "Feature", "properties": {"stop_id": "S091100004200100", "stop_name": "深津入口", "zone_id": "Z000410", "location_type": "0"}, "geometry": {"type": "Point", "coordinates": [139.793672744645, 36.5378133851873]}}, {"type": "Feature", "properties": {"stop_id": "S091100004200200", "stop_name": "深津入口", "zone_id": "Z000410", "location_type": "0"}, "geometry": {"type": "Point", "coordinates": [139.793672736235, 36.5380130152809]}}, {"type": "Feature", "properties": {"stop_id": "S091100004300100", "stop_name": "茂呂寺前", "zone_id": "Z000420", "location_type": "0"}, "geometry": {"type": "Point", "coordinates": [139.790235408831, 36.5409032175507]}}, {"type": "Feature", "properties": {"stop_id": "S091100004300200", "stop_name": "茂呂寺前", "zone_id": "Z000420", "location_type": "0"}, "geometry": {"type": "Point", "coordinates": [139.790270124058, 36.5409986937646]}}, {"type": "Feature", "properties": {"stop_id": "S091100004400100", "stop_name": "花木センター入口", "zone_id": "Z000430", "location_type": "0"}, "geometry": {"type": "Point", "coordinates": [139.788117392412, 36.5442795118708]}}, {"type": "Feature", "properties": {"stop_id": "S091100004400200", "stop_name": "花木センター入口", "zone_id": "Z000430", "location_type": "0"}, "geometry": {"type": "Point", "coordinates": [139.788186830909, 36.5442795137757]}}, {"type": "Feature", "properties": {"stop_id": "S091100004500100", "stop_name": "花木センター", "zone_id": "Z000440", "location_type": "0"}, "geometry": {"type": "Point", "coordinates": [139.777146126721, 36.5438799507548]}}, {"type": "Feature", "properties": {"stop_id": "S091100004500200", "stop_name": "花木センター", "zone_id": "Z000440", "location_type": "0"}, "geometry": {"type": "Point", "coordinates": [139.777632188519, 36.5440622350371]}}, {"type": "Feature", "properties": {"stop_id": "S091100004600100", "stop_name": "鹿沼脳神経外科", "zone_id": "Z000450", "location_type": "0"}, "geometry": {"type": "Point", "coordinates": [139.77200768128, 36.5438016937191]}}, {"type": "Feature", "properties": {"stop_id": "S091100004600200", "stop_name": "鹿沼脳神経外科", "zone_id": "Z000450", "location_type": "0"}, "geometry": {"type": "Point", "coordinates": [139.771556326669, 36.5439058361715]}}, {"type": "Feature", "properties": {"stop_id": "S091100004700100", "stop_name": "西茂呂南", "zone_id": "Z000460", "location_type": "0"}, "geometry": {"type": "Point", "coordinates": [139.767667713142, 36.545277101459]}}, {"type": "Feature", "properties": {"stop_id": "S091100004700200", "stop_name": "西茂呂南", "zone_id": "Z000460", "location_type": "0"}, "geometry": {"type": "Point", "coordinates": [139.767841315961, 36.545120873976]}}, {"type": "Feature", "properties": {"stop_id": "S091100004800100", "stop_name": "西茂呂中央", "zone_id": "Z000470", "location_type": "0"}, "geometry": {"type": "Point", "coordinates": [139.767320475705, 36.5463446789313]}}, {"type": "Feature", "properties": {"stop_id": "S091100004800200", "stop_name": "西茂呂中央", "zone_id": "Z000470", "location_type": "0"}, "geometry": {"type": "Point", "coordinates": [139.767424630523, 36.5464141183395]}}, {"type": "Feature", "properties": {"stop_id": "S091100004900100", "stop_name": "西茂呂北", "zone_id": "Z000480", "location_type": "0"}, "geometry": {"type": "Point", "coordinates": [139.766695441148, 36.5484364379288]}}, {"type": "Feature", "properties": {"stop_id": "S091100004900200", "stop_name": "西茂呂北", "zone_id": "Z000480", "location_type": "0"}, "geometry": {"type": "Point", "coordinates": [139.766764874891, 36.5485492742298]}}, {"type": "Feature", "properties": {"stop_id": "S091100005000100", "stop_name": "西茂呂交差点", "zone_id": "Z000490", "location_type": "0"}, "geometry": {"type": "Point", "coordinates": [139.766313416823, 36.5511097347041]}}, {"type": "Feature", "properties": {"stop_id": "S091100005000200", "stop_name": "西茂呂交差点", "zone_id": "Z000490", "location_type": "0"}, "geometry": {"type": "Point", "coordinates": [139.766487004652, 36.5513093695508]}}, {"type": "Feature", "properties": {"stop_id": "S091100005100100", "stop_name": "栄町２丁目", "zone_id": "Z000500", "location_type": "0"}, "geometry": {"type": "Point", "coordinates": [139.778187342524, 36.5524640731328]}}, {"type": "Feature", "properties": {"stop_id": "S091100005100200", "stop_name": "栄町２丁目", "zone_id": "Z000500", "location_type": "0"}, "geometry": {"type": "Point", "coordinates": [139.778152618522, 36.5525769065776]}}, {"type": "Feature", "properties": {"stop_id": "S091100005200100", "stop_name": "緑町２丁目南", "zone_id": "Z000520", "location_type": "0"}, "geometry": {"type": "Point", "coordinates": [139.774437474291, 36.5569599870042]}}, {"type": "Feature", "properties": {"stop_id": "S091100005200200", "stop_name": "緑町２丁目南", "zone_id": "Z000520", "location_type": "0"}, "geometry": {"type": "Point", "coordinates": [139.77447220305, 36.5567343191642]}}, {"type": "Feature", "properties": {"stop_id": "S091100005300100", "stop_name": "緑町２丁目北", "zone_id": "Z000530", "location_type": "0"}, "geometry": {"type": "Point", "coordinates": [139.772944459949, 36.5590170038854]}}, {"type": "Feature", "properties": {"stop_id": "S091100005300200", "stop_name": "緑町２丁目北", "zone_id": "Z000530", "location_type": "0"}, "geometry": {"type": "Point", "coordinates": [139.772770861883, 36.5590603969678]}}, {"type": "Feature", "properties": {"stop_id": "S091100005400100", "stop_name": "幸町１丁目", "zone_id": "Z000540", "location_type": "0"}, "geometry": {"type": "Point", "coordinates": [139.770930605313, 36.5622978256813]}}, {"type": "Feature", "properties": {"stop_id": "S091100005400200", "stop_name": "幸町１丁目", "zone_id": "Z000540", "location_type": "0"}, "geometry": {"type": "Point", "coordinates": [139.770861168281, 36.562263105501]}}, {"type": "Feature", "properties": {"stop_id": "S091100005500100", "stop_name": "東町１丁目", "zone_id": "Z000550", "location_type": "0"}, "geometry": {"type": "Point", "coordinates": [139.768257046923, 36.5664813045139]}}, {"type": "Feature", "properties": {"stop_id": "S091100005500200", "stop_name": "東町１丁目", "zone_id": "Z000550", "location_type": "0"}, "geometry": {"type": "Point", "coordinates": [139.768222334994, 36.5663077121857]}}, {"type": "Feature", "properties": {"stop_id": "S091100005600100", "stop_name": "上野町交差点", "zone_id": "Z000560", "location_type": "0"}, "geometry": {"type": "Point", "coordinates": [139.764160134065, 36.5674706629672]}}, {"type": "Feature", "properties": {"stop_id": "S091100005600200", "stop_name": "上野町交差点", "zone_id": "Z000560", "location_type": "0"}, "geometry": {"type": "Point", "coordinates": [139.764264290341, 36.5675053840994]}}, {"type": "Feature", "properties": {"stop_id": "S091100005700100", "stop_name": "ＪＲ鹿沼駅前", "zone_id": "Z000570", "location_type": "0"}, "geometry": {"type": "Point", "coordinates": [139.762319910434, 36.5699269304414]}}, {"type": "Feature", "properties": {"stop_id": "S091100005700200", "stop_name": "ＪＲ鹿沼駅前", "zone_id": "Z000570", "location_type": "0"}, "geometry": {"type": "Point", "coordinates": [139.76259767319, 36.5697186284115]}}, {"type": "Feature", "properties": {"stop_id": "S091100005800100", "stop_name": "ＪＲ鹿沼駅", "zone_id": "Z000580", "location_type": "0"}, "geometry": {"type": "Point", "coordinates": [139.762875383253, 36.5707601842759]}}, {"type": "Feature", "properties": {"stop_id": "S091100005900100", "stop_name": "府所町", "zone_id": "Z000590", "location_type": "0"}, "geometry": {"type": "Point", "coordinates": [139.757146799753, 36.5685727758286]}}, {"type": "Feature", "properties": {"stop_id": "S091100005900200", "stop_name": "府所町", "zone_id": "Z000590", "location_type": "0"}, "geometry": {"type": "Point", "coordinates": [139.756903765757, 36.5685554100256]}}, {"type": "Feature", "properties": {"stop_id": "S091100006000100", "stop_name": "朝日町", "zone_id": "Z000600", "location_type": "0"}, "geometry": {"type": "Point", "coordinates": [139.752841658171, 36.5675050708101]}}, {"type": "Feature", "properties": {"stop_id": "S091100006000200", "stop_name": "朝日町", "zone_id": "Z000600", "location_type": "0"}, "geometry": {"type": "Point", "coordinates": [139.752772223336, 36.5674182732191]}}, {"type": "Feature", "properties": {"stop_id": "S091100006100100", "stop_name": "下田町北", "zone_id": "Z000610", "location_type": "0"}, "geometry": {"type": "Point", "coordinates": [139.752321076839, 36.5625837410666]}}, {"type": "Feature", "properties": {"stop_id": "S091100006100200", "stop_name": "下田町北", "zone_id": "Z000610", "location_type": "0"}, "geometry": {"type": "Point", "coordinates": [139.752216918367, 36.5626010973482]}}, {"type": "Feature", "properties": {"stop_id": "S091100006200100", "stop_name": "鹿沼高校入口", "zone_id": "Z000620", "location_type": "0"}, "geometry": {"type": "Point", "coordinates": [139.74680085117, 36.5593895084175]}}, {"type": "Feature", "properties": {"stop_id": "S091100006200200", "stop_name": "鹿沼高校入口", "zone_id": "Z000620", "location_type": "0"}, "geometry": {"type": "Point", "coordinates": [139.746696678807, 36.5597366883123]}}, {"type": "Feature", "properties": {"stop_id": "S091100006300100", "stop_name": "鳥居跡町", "zone_id": "Z000630", "location_type": "0"}, "geometry": {"type": "Point", "coordinates": [139.747460603859, 36.5573237891334]}}, {"type": "Feature", "properties": {"stop_id": "S091100006300200", "stop_name": "鳥居跡町", "zone_id": "Z000630", "location_type": "0"}, "geometry": {"type": "Point", "coordinates": [139.747738361488, 36.5572370010594]}}, {"type": "Feature", "properties": {"stop_id": "S091100006300300", "stop_name": "鳥居跡町", "zone_id": "Z000630", "location_type": "0"}, "geometry": {"type": "Point", "coordinates": [139.746870354367, 36.5578532266494]}}, {"type": "Feature", "properties": {"stop_id": "S091100006300400", "stop_name": "鳥居跡町", "zone_id": "Z000630", "location_type": "0"}, "geometry": {"type": "Point", "coordinates": [139.746731468607, 36.558061532493]}}, {"type": "Feature", "properties": {"stop_id": "S091100006400100", "stop_name": "東武新鹿沼駅", "zone_id": "Z000640", "location_type": "0"}, "geometry": {"type": "Point", "coordinates": [139.745099699836, 36.5572108900228]}}, {"type": "Feature", "properties": {"stop_id": "S091100006500100", "stop_name": "鳥居跡新鹿沼", "zone_id": "Z000650", "location_type": "0"}, "geometry": {"type": "Point", "coordinates": [139.745689899614, 36.5578618738594]}}, {"type": "Feature", "properties": {"stop_id": "S091100006500200", "stop_name": "鳥居跡新鹿沼", "zone_id": "Z000650", "location_type": "0"}, "geometry": {"type": "Point", "coordinates": [139.745585739682, 36.557913948417]}}, {"type": "Feature", "properties": {"stop_id": "S091100006600100", "stop_name": "三幸町", "zone_id": "Z000660", "location_type": "0"}, "geometry": {"type": "Point", "coordinates": [139.745550974376, 36.5590075731292]}}, {"type": "Feature", "properties": {"stop_id": "S091100006600200", "stop_name": "三幸町", "zone_id": "Z000660", "location_type": "0"}, "geometry": {"type": "Point", "coordinates": [139.745377374122, 36.5591030436268]}}, {"type": "Feature", "properties": {"stop_id": "S091100006700100", "stop_name": "富士見通り", "zone_id": "Z000670", "location_type": "0"}, "geometry": {"type": "Point", "coordinates": [139.744405128108, 36.5616461306167]}}, {"type": "Feature", "properties": {"stop_id": "S091100006700200", "stop_name": "富士見通り", "zone_id": "Z000670", "location_type": "0"}, "geometry": {"type": "Point", "coordinates": [139.744335690347, 36.5616287695757]}}, {"type": "Feature", "properties": {"stop_id": "S091100006800100", "stop_name": "新・鹿沼宿", "zone_id": "Z000680", "location_type": "0"}, "geometry": {"type": "Point", "coordinates": [139.746210430207, 36.5639896636613]}}, {"type": "Feature", "properties": {"stop_id": "S091100006900100", "stop_name": "古峯神社", "zone_id": "Z000690", "location_type": "0"}, "geometry": {"type": "Point", "coordinates": [139.528551758824, 36.6530534293397]}}, {"type": "Feature", "properties": {"stop_id": "S091100007000100", "stop_name": "松手", "zone_id": "Z000700", "location_type": "0"}, "geometry": {"type": "Point", "coordinates": [139.536259611001, 36.6487312158145]}}, {"type": "Feature", "properties": {"stop_id": "S091100007000200", "stop_name": "松手", "zone_id": "Z000700", "location_type": "0"}, "geometry": {"type": "Point", "coordinates": [139.535947139704, 36.6486878094458]}}, {"type": "Feature", "properties": {"stop_id": "S091100007100100", "stop_name": "滝ケ花入口", "zone_id": "Z000710", "location_type": "0"}, "geometry": {"type": "Point", "coordinates": [139.543932689262, 36.6457109362983]}}, {"type": "Feature", "properties": {"stop_id": "S091100007100200", "stop_name": "滝ケ花入口", "zone_id": "Z000710", "location_type": "0"}, "geometry": {"type": "Point", "coordinates": [139.543724370558, 36.6457890467056]}}, {"type": "Feature", "properties": {"stop_id": "S091100007200100", "stop_name": "上原山", "zone_id": "Z000720", "location_type": "0"}, "geometry": {"type": "Point", "coordinates": [139.547057495399, 36.6439317105282]}}, {"type": "Feature", "properties": {"stop_id": "S091100007200200", "stop_name": "上原山", "zone_id": "Z000720", "location_type": "0"}, "geometry": {"type": "Point", "coordinates": [139.547022779084, 36.6438622730468]}}, {"type": "Feature", "properties": {"stop_id": "S091100007300100", "stop_name": "下原山", "zone_id": "Z000730", "location_type": "0"}, "geometry": {"type": "Point", "coordinates": [139.551675206088, 36.6426906586793]}}, {"type": "Feature", "properties": {"stop_id": "S091100007300200", "stop_name": "下原山", "zone_id": "Z000730", "location_type": "0"}, "geometry": {"type": "Point", "coordinates": [139.551987678853, 36.6426993467847]}}, {"type": "Feature", "properties": {"stop_id": "S091100007400100", "stop_name": "下の向", "zone_id": "Z000740", "location_type": "0"}, "geometry": {"type": "Point", "coordinates": [139.557716328086, 36.6432897138729]}}, {"type": "Feature", "properties": {"stop_id": "S091100007400200", "stop_name": "下の向", "zone_id": "Z000740", "location_type": "0"}, "geometry": {"type": "Point", "coordinates": [139.55785520759, 36.6432289607019]}}, {"type": "Feature", "properties": {"stop_id": "S091100007500100", "stop_name": "金剛山", "zone_id": "Z000750", "location_type": "0"}, "geometry": {"type": "Point", "coordinates": [139.562854793787, 36.6428471964192]}}, {"type": "Feature", "properties": {"stop_id": "S091100007500200", "stop_name": "金剛山", "zone_id": "Z000750", "location_type": "0"}, "geometry": {"type": "Point", "coordinates": [139.562820079665, 36.6427256815364]}}, {"type": "Feature", "properties": {"stop_id": "S091100007600100", "stop_name": "古越路", "zone_id": "Z000760", "location_type": "0"}, "geometry": {"type": "Point", "coordinates": [139.575180028006, 36.6451042207312]}}, {"type": "Feature", "properties": {"stop_id": "S091100007600200", "stop_name": "古越路", "zone_id": "Z000760", "location_type": "0"}, "geometry": {"type": "Point", "coordinates": [139.575180034584, 36.64494798853]}}, {"type": "Feature", "properties": {"stop_id": "S091100007700100", "stop_name": "一の鳥居大貫屋前", "zone_id": "Z000770", "location_type": "0"}, "geometry": {"type": "Point", "coordinates": [139.578478361412, 36.6449654378584]}}, {"type": "Feature", "properties": {"stop_id": "S091100007700200", "stop_name": "一の鳥居大貫屋前", "zone_id": "Z000770", "location_type": "0"}, "geometry": {"type": "Point", "coordinates": [139.578339485924, 36.6449307157936]}}, {"type": "Feature", "properties": {"stop_id": "S091100007800100", "stop_name": "一の鳥居", "zone_id": "Z000780", "location_type": "0"}, "geometry": {"type": "Point", "coordinates": [139.579936628235, 36.6435680674869]}}, {"type": "Feature", "properties": {"stop_id": "S091100007800200", "stop_name": "一の鳥居", "zone_id": "Z000780", "location_type": "0"}, "geometry": {"type": "Point", "coordinates": [139.579971355148, 36.6433857975341]}}, {"type": "Feature", "properties": {"stop_id": "S091100007900100", "stop_name": "両の手", "zone_id": "Z000790", "location_type": "0"}, "geometry": {"type": "Point", "coordinates": [139.583929416962, 36.6417541472181]}}, {"type": "Feature", "properties": {"stop_id": "S091100007900200", "stop_name": "両の手", "zone_id": "Z000790", "location_type": "0"}, "geometry": {"type": "Point", "coordinates": [139.583790543665, 36.6416673477519]}}, {"type": "Feature", "properties": {"stop_id": "S091100008000100", "stop_name": "小川橋", "zone_id": "Z000800", "location_type": "0"}, "geometry": {"type": "Point", "coordinates": [139.590699776561, 36.6391851805976]}}, {"type": "Feature", "properties": {"stop_id": "S091100008000200", "stop_name": "小川橋", "zone_id": "Z000800", "location_type": "0"}, "geometry": {"type": "Point", "coordinates": [139.590283149359, 36.639098373533]}}, {"type": "Feature", "properties": {"stop_id": "S091100008100100", "stop_name": "中内", "zone_id": "Z000810", "location_type": "0"}, "geometry": {"type": "Point", "coordinates": [139.594970218008, 36.6397755079599]}}, {"type": "Feature", "properties": {"stop_id": "S091100008100200", "stop_name": "中内", "zone_id": "Z000810", "location_type": "0"}, "geometry": {"type": "Point", "coordinates": [139.594692467391, 36.6396973842597]}}, {"type": "Feature", "properties": {"stop_id": "S091100008200100", "stop_name": "上八岡", "zone_id": "Z000820", "location_type": "0"}, "geometry": {"type": "Point", "coordinates": [139.600490502688, 36.6415376110688]}}, {"type": "Feature", "properties": {"stop_id": "S091100008200200", "stop_name": "上八岡", "zone_id": "Z000820", "location_type": "0"}, "geometry": {"type": "Point", "coordinates": [139.600802979124, 36.641459503516]}}, {"type": "Feature", "properties": {"stop_id": "S091100008300100", "stop_name": "八岡局前", "zone_id": "Z000830", "location_type": "0"}, "geometry": {"type": "Point", "coordinates": [139.603650000194, 36.6404267129484]}}, {"type": "Feature", "properties": {"stop_id": "S091100008300200", "stop_name": "八岡局前", "zone_id": "Z000830", "location_type": "0"}, "geometry": {"type": "Point", "coordinates": [139.603406962965, 36.6404874632671]}}, {"type": "Feature", "properties": {"stop_id": "S091100008400100", "stop_name": "西大芦小前", "zone_id": "Z000840", "location_type": "0"}, "geometry": {"type": "Point", "coordinates": [139.606566463411, 36.6393071286117]}}, {"type": "Feature", "properties": {"stop_id": "S091100008400200", "stop_name": "西大芦小前", "zone_id": "Z000840", "location_type": "0"}, "geometry": {"type": "Point", "coordinates": [139.606670626246, 36.6391856175241]}}, {"type": "Feature", "properties": {"stop_id": "S091100008500100", "stop_name": "鹿の入橋", "zone_id": "Z000850", "location_type": "0"}, "geometry": {"type": "Point", "coordinates": [139.609552445928, 36.6362693618638]}}, {"type": "Feature", "properties": {"stop_id": "S091100008600100", "stop_name": "古鹿の入", "zone_id": "Z000860", "location_type": "0"}, "geometry": {"type": "Point", "coordinates": [139.610490002853, 36.6330058703018]}}, {"type": "Feature", "properties": {"stop_id": "S091100008600200", "stop_name": "古鹿の入", "zone_id": "Z000860", "location_type": "0"}, "geometry": {"type": "Point", "coordinates": [139.610385845501, 36.6329971878848]}}, {"type": "Feature", "properties": {"stop_id": "S091100008700100", "stop_name": "塩沢橋", "zone_id": "Z000870", "location_type": "0"}, "geometry": {"type": "Point", "coordinates": [139.61375397505, 36.6243697902913]}}, {"type": "Feature", "properties": {"stop_id": "S091100008700200", "stop_name": "塩沢橋", "zone_id": "Z000870", "location_type": "0"}, "geometry": {"type": "Point", "coordinates": [139.613858138251, 36.6242395996329]}}, {"type": "Feature", "properties": {"stop_id": "S091100008800100", "stop_name": "草久星野屋前", "zone_id": "Z000880", "location_type": "0"}, "geometry": {"type": "Point", "coordinates": [139.618996618246, 36.6234672587418]}}, {"type": "Feature", "properties": {"stop_id": "S091100008800200", "stop_name": "草久星野屋前", "zone_id": "Z000880", "location_type": "0"}, "geometry": {"type": "Point", "coordinates": [139.619343813934, 36.6233891521366]}}, {"type": "Feature", "properties": {"stop_id": "S091100008900100", "stop_name": "大堺", "zone_id": "Z000890", "location_type": "0"}, "geometry": {"type": "Point", "coordinates": [139.62496829789, 36.6241704671039]}}, {"type": "Feature", "properties": {"stop_id": "S091100008900200", "stop_name": "大堺", "zone_id": "Z000890", "location_type": "0"}, "geometry": {"type": "Point", "coordinates": [139.624759986472, 36.624074986163]}}, {"type": "Feature", "properties": {"stop_id": "S091100009000100", "stop_name": "上大久保", "zone_id": "Z000900", "location_type": "0"}, "geometry": {"type": "Point", "coordinates": [139.631530272284, 36.6232679717005]}}, {"type": "Feature", "properties": {"stop_id": "S091100009000200", "stop_name": "上大久保", "zone_id": "Z000900", "location_type": "0"}, "geometry": {"type": "Point", "coordinates": [139.631183078419, 36.6233026804666]}}, {"type": "Feature", "properties": {"stop_id": "S091100009100100", "stop_name": "大久保田中", "zone_id": "Z000910", "location_type": "0"}, "geometry": {"type": "Point", "coordinates": [139.633648174091, 36.6225997029864]}}, {"type": "Feature", "properties": {"stop_id": "S091100009100200", "stop_name": "大久保田中", "zone_id": "Z000910", "location_type": "0"}, "geometry": {"type": "Point", "coordinates": [139.633300981322, 36.6226083730503]}}, {"type": "Feature", "properties": {"stop_id": "S091100009200100", "stop_name": "下大久保", "zone_id": "Z000920", "location_type": "0"}, "geometry": {"type": "Point", "coordinates": [139.638370036123, 36.621523565888]}}, {"type": "Feature", "properties": {"stop_id": "S091100009200200", "stop_name": "下大久保", "zone_id": "Z000920", "location_type": "0"}, "geometry": {"type": "Point", "coordinates": [139.638057562958, 36.6215235573341]}}, {"type": "Feature", "properties": {"stop_id": "S091100009300100", "stop_name": "三沢坪", "zone_id": "Z000930", "location_type": "0"}, "geometry": {"type": "Point", "coordinates": [139.645730569626, 36.6202305118551]}}, {"type": "Feature", "properties": {"stop_id": "S091100009300200", "stop_name": "三沢坪", "zone_id": "Z000930", "location_type": "0"}, "geometry": {"type": "Point", "coordinates": [139.645279220227, 36.6202131403625]}}, {"type": "Feature", "properties": {"stop_id": "S091100009400100", "stop_name": "片野道", "zone_id": "Z000940", "location_type": "0"}, "geometry": {"type": "Point", "coordinates": [139.651806492742, 36.6189027043994]}}, {"type": "Feature", "properties": {"stop_id": "S091100009400200", "stop_name": "片野道", "zone_id": "Z000940", "location_type": "0"}, "geometry": {"type": "Point", "coordinates": [139.651841217104, 36.6187811914054]}}, {"type": "Feature", "properties": {"stop_id": "S091100009500100", "stop_name": "高畑", "zone_id": "Z000950", "location_type": "0"}, "geometry": {"type": "Point", "coordinates": [139.653994051414, 36.61305273578]}}, {"type": "Feature", "properties": {"stop_id": "S091100009500200", "stop_name": "高畑", "zone_id": "Z000950", "location_type": "0"}, "geometry": {"type": "Point", "coordinates": [139.654202373079, 36.6129051888352]}}, {"type": "Feature", "properties": {"stop_id": "S091100009600100", "stop_name": "天王橋", "zone_id": "Z000960", "location_type": "0"}, "geometry": {"type": "Point", "coordinates": [139.659653402596, 36.6103275065151]}}, {"type": "Feature", "properties": {"stop_id": "S091100009600200", "stop_name": "天王橋", "zone_id": "Z000960", "location_type": "0"}, "geometry": {"type": "Point", "coordinates": [139.659306208716, 36.6103622152784]}}, {"type": "Feature", "properties": {"stop_id": "S091100009700100", "stop_name": "古関", "zone_id": "Z000970", "location_type": "0"}, "geometry": {"type": "Point", "coordinates": [139.666076554113, 36.6081491109259]}}, {"type": "Feature", "properties": {"stop_id": "S091100009700200", "stop_name": "古関", "zone_id": "Z000970", "location_type": "0"}, "geometry": {"type": "Point", "coordinates": [139.665555762557, 36.608218533205]}}, {"type": "Feature", "properties": {"stop_id": "S091100009800100", "stop_name": "引田岡", "zone_id": "Z000980", "location_type": "0"}, "geometry": {"type": "Point", "coordinates": [139.67222190092, 36.6071771676515]}}, {"type": "Feature", "properties": {"stop_id": "S091100009800200", "stop_name": "引田岡", "zone_id": "Z000980", "location_type": "0"}, "geometry": {"type": "Point", "coordinates": [139.67229134416, 36.6070643351728]}}, {"type": "Feature", "properties": {"stop_id": "S091100009900100", "stop_name": "引田宮一", "zone_id": "Z000990", "location_type": "0"}, "geometry": {"type": "Point", "coordinates": [139.675312016983, 36.6047209346109]}}, {"type": "Feature", "properties": {"stop_id": "S091100009900200", "stop_name": "引田宮一", "zone_id": "Z000990", "location_type": "0"}, "geometry": {"type": "Point", "coordinates": [139.674825939544, 36.6049118717883]}}, {"type": "Feature", "properties": {"stop_id": "S091100010000100", "stop_name": "岩花", "zone_id": "Z001000", "location_type": "0"}, "geometry": {"type": "Point", "coordinates": [139.679860348929, 36.6020824705773]}}, {"type": "Feature", "properties": {"stop_id": "S091100010000200", "stop_name": "岩花", "zone_id": "Z001000", "location_type": "0"}, "geometry": {"type": "Point", "coordinates": [139.679929793631, 36.6019349198259]}}, {"type": "Feature", "properties": {"stop_id": "S091100010100100", "stop_name": "引田橋", "zone_id": "Z001010", "location_type": "0"}, "geometry": {"type": "Point", "coordinates": [139.685137846446, 36.597985859096]}}, {"type": "Feature", "properties": {"stop_id": "S091100010100200", "stop_name": "引田橋", "zone_id": "Z001010", "location_type": "0"}, "geometry": {"type": "Point", "coordinates": [139.684408725888, 36.5983764196799]}}, {"type": "Feature", "properties": {"stop_id": "S091100010200100", "stop_name": "下沢西", "zone_id": "Z001020", "location_type": "0"}, "geometry": {"type": "Point", "coordinates": [139.687429343182, 36.5973523134097]}}, {"type": "Feature", "properties": {"stop_id": "S091100010200200", "stop_name": "下沢西", "zone_id": "Z001020", "location_type": "0"}, "geometry": {"type": "Point", "coordinates": [139.68722102809, 36.5973436281349]}}, {"type": "Feature", "properties": {"stop_id": "S091100010300100", "stop_name": "上坪", "zone_id": "Z001030", "location_type": "0"}, "geometry": {"type": "Point", "coordinates": [139.690970817524, 36.5947051421939]}}, {"type": "Feature", "properties": {"stop_id": "S091100010300200", "stop_name": "上坪", "zone_id": "Z001030", "location_type": "0"}, "geometry": {"type": "Point", "coordinates": [139.690901381232, 36.5946530628835]}}, {"type": "Feature", "properties": {"stop_id": "S091100010400100", "stop_name": "中坪", "zone_id": "Z001040", "location_type": "0"}, "geometry": {"type": "Point", "coordinates": [139.694512442889, 36.5884733093484]}}, {"type": "Feature", "properties": {"stop_id": "S091100010400200", "stop_name": "中坪", "zone_id": "Z001040", "location_type": "0"}, "geometry": {"type": "Point", "coordinates": [139.694477734613, 36.5882129213541]}}, {"type": "Feature", "properties": {"stop_id": "S091100010500100", "stop_name": "鹿沼森林組合", "zone_id": "Z001050", "location_type": "0"}, "geometry": {"type": "Point", "coordinates": [139.698088726068, 36.5836996448345]}}, {"type": "Feature", "properties": {"stop_id": "S091100010500200", "stop_name": "鹿沼森林組合", "zone_id": "Z001050", "location_type": "0"}, "geometry": {"type": "Point", "coordinates": [139.697567921689, 36.5840728519997]}}, {"type": "Feature", "properties": {"stop_id": "S091100010600100", "stop_name": "下沢大関橋", "zone_id": "Z001060", "location_type": "0"}, "geometry": {"type": "Point", "coordinates": [139.704512003737, 36.5785354776942]}}, {"type": "Feature", "properties": {"stop_id": "S091100010600200", "stop_name": "下沢大関橋", "zone_id": "Z001060", "location_type": "0"}, "geometry": {"type": "Point", "coordinates": [139.704268960984, 36.5787264215384]}}, {"type": "Feature", "properties": {"stop_id": "S091100010700100", "stop_name": "下沢", "zone_id": "Z001070", "location_type": "0"}, "geometry": {"type": "Point", "coordinates": [139.706282778043, 36.5763309158541]}}, {"type": "Feature", "properties": {"stop_id": "S091100010700200", "stop_name": "下沢", "zone_id": "Z001070", "location_type": "0"}, "geometry": {"type": "Point", "coordinates": [139.705900856119, 36.5765739333045]}}, {"type": "Feature", "properties": {"stop_id": "S091100010800100", "stop_name": "上日向", "zone_id": "Z001080", "location_type": "0"}, "geometry": {"type": "Point", "coordinates": [139.708470220199, 36.5732497290131]}}, {"type": "Feature", "properties": {"stop_id": "S091100010800200", "stop_name": "上日向", "zone_id": "Z001080", "location_type": "0"}, "geometry": {"type": "Point", "coordinates": [139.708227181101, 36.5733538771757]}}, {"type": "Feature", "properties": {"stop_id": "S091100010900100", "stop_name": "鹿沼西小前", "zone_id": "Z001090", "location_type": "0"}, "geometry": {"type": "Point", "coordinates": [139.711560366744, 36.5700730916298]}}, {"type": "Feature", "properties": {"stop_id": "S091100010900200", "stop_name": "鹿沼西小前", "zone_id": "Z001090", "location_type": "0"}, "geometry": {"type": "Point", "coordinates": [139.712289496835, 36.5694568622449]}}, {"type": "Feature", "properties": {"stop_id": "S091100011000100", "stop_name": "日向農協前", "zone_id": "Z001100", "location_type": "0"}, "geometry": {"type": "Point", "coordinates": [139.717428108098, 36.5655859154754]}}, {"type": "Feature", "properties": {"stop_id": "S091100011000200", "stop_name": "日向農協前", "zone_id": "Z001100", "location_type": "0"}, "geometry": {"type": "Point", "coordinates": [139.717046190553, 36.5657247781087]}}, {"type": "Feature", "properties": {"stop_id": "S091100011100100", "stop_name": "日向辻", "zone_id": "Z001110", "location_type": "0"}, "geometry": {"type": "Point", "coordinates": [139.717879517847, 36.5641711581708]}}, {"type": "Feature", "properties": {"stop_id": "S091100011100200", "stop_name": "日向辻", "zone_id": "Z001110", "location_type": "0"}, "geometry": {"type": "Point", "coordinates": [139.718018398118, 36.5640930458586]}}, {"type": "Feature", "properties": {"stop_id": "S091100011100300", "stop_name": "日向辻", "zone_id": "Z001110", "location_type": "0"}, "geometry": {"type": "Point", "coordinates": [139.718365563899, 36.5647266638734]}}, {"type": "Feature", "properties": {"stop_id": "S091100011100400", "stop_name": "日向辻", "zone_id": "Z001110", "location_type": "0"}, "geometry": {"type": "Point", "coordinates": [139.718330851596, 36.5645617511201]}}, {"type": "Feature", "properties": {"stop_id": "S091100011200100", "stop_name": "日向駐在所", "zone_id": "Z001120", "location_type": "0"}, "geometry": {"type": "Point", "coordinates": [139.720344572219, 36.5644576514672]}}, {"type": "Feature", "properties": {"stop_id": "S091100011200200", "stop_name": "日向駐在所", "zone_id": "Z001120", "location_type": "0"}, "geometry": {"type": "Point", "coordinates": [139.720483452855, 36.5643708595867]}}, {"type": "Feature", "properties": {"stop_id": "S091100011300100", "stop_name": "日吉団地入口", "zone_id": "Z001130", "location_type": "0"}, "geometry": {"type": "Point", "coordinates": [139.724823271208, 36.5664453953824]}}, {"type": "Feature", "properties": {"stop_id": "S091100011300200", "stop_name": "日吉団地入口", "zone_id": "Z001130", "location_type": "0"}, "geometry": {"type": "Point", "coordinates": [139.72478855708, 36.5663238804714]}}, {"type": "Feature", "properties": {"stop_id": "S091100011400100", "stop_name": "三軒店", "zone_id": "Z001140", "location_type": "0"}, "geometry": {"type": "Point", "coordinates": [139.728191044615, 36.5662892554363]}}, {"type": "Feature", "properties": {"stop_id": "S091100011400200", "stop_name": "三軒店", "zone_id": "Z001140", "location_type": "0"}, "geometry": {"type": "Point", "coordinates": [139.727913292478, 36.5662458499818]}}, {"type": "Feature", "properties": {"stop_id": "S091100011500100", "stop_name": "鹿沼西中入口", "zone_id": "Z001150", "location_type": "0"}, "geometry": {"type": "Point", "coordinates": [139.73246153634, 36.5657078413768]}}, {"type": "Feature", "properties": {"stop_id": "S091100011500200", "stop_name": "鹿沼西中入口", "zone_id": "Z001150", "location_type": "0"}, "geometry": {"type": "Point", "coordinates": [139.731350521935, 36.5656730926532]}}, {"type": "Feature", "properties": {"stop_id": "S091100011600100", "stop_name": "日吉町", "zone_id": "Z001160", "location_type": "0"}, "geometry": {"type": "Point", "coordinates": [139.736488971064, 36.5656558743514]}}, {"type": "Feature", "properties": {"stop_id": "S091100011600200", "stop_name": "日吉町", "zone_id": "Z001160", "location_type": "0"}, "geometry": {"type": "Point", "coordinates": [139.735829308315, 36.5655864197213]}}, {"type": "Feature", "properties": {"stop_id": "S091100011700100", "stop_name": "西鹿沼栃木屋前", "zone_id": "Z001170", "location_type": "0"}, "geometry": {"type": "Point", "coordinates": [139.738676306599, 36.5651091214834]}}, {"type": "Feature", "properties": {"stop_id": "S091100011700200", "stop_name": "西鹿沼栃木屋前", "zone_id": "Z001170", "location_type": "0"}, "geometry": {"type": "Point", "coordinates": [139.738329113772, 36.5651177915351]}}, {"type": "Feature", "properties": {"stop_id": "S091100011800100", "stop_name": "西鹿沼局前", "zone_id": "Z001180", "location_type": "0"}, "geometry": {"type": "Point", "coordinates": [139.741141407079, 36.5643019891708]}}, {"type": "Feature", "properties": {"stop_id": "S091100011800200", "stop_name": "西鹿沼局前", "zone_id": "Z001180", "location_type": "0"}, "geometry": {"type": "Point", "coordinates": [139.74121085069, 36.5641804771131]}}, {"type": "Feature", "properties": {"stop_id": "S091100011900100", "stop_name": "麻苧町", "zone_id": "Z001190", "location_type": "0"}, "geometry": {"type": "Point", "coordinates": [139.74433564611, 36.5626789973895]}}, {"type": "Feature", "properties": {"stop_id": "S091100011900200", "stop_name": "麻苧町", "zone_id": "Z001190", "location_type": "0"}, "geometry": {"type": "Point", "coordinates": [139.744266197014, 36.5629307029782]}}, {"type": "Feature", "properties": {"stop_id": "S091100012000100", "stop_name": "鹿沼高校前", "zone_id": "Z001200", "location_type": "0"}, "geometry": {"type": "Point", "coordinates": [139.750585330951, 36.5574453887571]}}, {"type": "Feature", "properties": {"stop_id": "S091100012000200", "stop_name": "鹿沼高校前", "zone_id": "Z001200", "location_type": "0"}, "geometry": {"type": "Point", "coordinates": [139.750377019857, 36.5573412282205]}}, {"type": "Feature", "properties": {"stop_id": "S091100012100100", "stop_name": "天神町", "zone_id": "Z001210", "location_type": "0"}, "geometry": {"type": "Point", "coordinates": [139.748640642882, 36.5671838115712]}}, {"type": "Feature", "properties": {"stop_id": "S091100012100200", "stop_name": "天神町", "zone_id": "Z001210", "location_type": "0"}, "geometry": {"type": "Point", "coordinates": [139.748050419716, 36.5670883201322]}}, {"type": "Feature", "properties": {"stop_id": "S091100012200100", "stop_name": "上田町", "zone_id": "Z001220", "location_type": "0"}, "geometry": {"type": "Point", "coordinates": [139.750341885225, 36.5672012173572]}}, {"type": "Feature", "properties": {"stop_id": "S091100012200200", "stop_name": "上田町", "zone_id": "Z001220", "location_type": "0"}, "geometry": {"type": "Point", "coordinates": [139.750619641392, 36.5671491475615]}}, {"type": "Feature", "properties": {"stop_id": "S091100012300100", "stop_name": "鹿沼南高校", "zone_id": "Z001230", "location_type": "0"}, "geometry": {"type": "Point", "coordinates": [139.771487845676, 36.5211566833135]}}, {"type": "Feature", "properties": {"stop_id": "S091100012300200", "stop_name": "鹿沼南高校", "zone_id": "Z001230", "location_type": "0"}, "geometry": {"type": "Point", "coordinates": [139.771592013647, 36.5209136582255]}}, {"type": "Feature", "properties": {"stop_id": "S091100012400100", "stop_name": "市営住宅前", "zone_id": "Z001240", "location_type": "0"}, "geometry": {"type": "Point", "coordinates": [139.771487681724, 36.5250538099512]}}, {"type": "Feature", "properties": {"stop_id": "S091100012400200", "stop_name": "市営住宅前", "zone_id": "Z001240", "location_type": "0"}, "geometry": {"type": "Point", "coordinates": [139.771591840566, 36.5250277740982]}}, {"type": "Feature", "properties": {"stop_id": "S091100012500100", "stop_name": "上奈良部町南", "zone_id": "Z001250", "location_type": "0"}, "geometry": {"type": "Point", "coordinates": [139.775896934289, 36.5272411822871]}}, {"type": "Feature", "properties": {"stop_id": "S091100012500200", "stop_name": "上奈良部町南", "zone_id": "Z001250", "location_type": "0"}, "geometry": {"type": "Point", "coordinates": [139.77593165646, 36.5271717466843]}}, {"type": "Feature", "properties": {"stop_id": "S091100012600100", "stop_name": "上奈良部町北・上石川", "zone_id": "Z001260", "location_type": "0"}, "geometry": {"type": "Point", "coordinates": [139.775098204532, 36.5316850998725]}}, {"type": "Feature", "properties": {"stop_id": "S091100012600200", "stop_name": "上奈良部町北・上石川", "zone_id": "Z001260", "location_type": "0"}, "geometry": {"type": "Point", "coordinates": [139.775271808813, 36.531494154108]}}, {"type": "Feature", "properties": {"stop_id": "S091100012700100", "stop_name": "公設市場", "zone_id": "Z001270", "location_type": "0"}, "geometry": {"type": "Point", "coordinates": [139.771764922471, 36.5372486123601]}}, {"type": "Feature", "properties": {"stop_id": "S091100012700200", "stop_name": "公設市場", "zone_id": "Z001270", "location_type": "0"}, "geometry": {"type": "Point", "coordinates": [139.771834358045, 36.5373180508172]}}, {"type": "Feature", "properties": {"stop_id": "S091100012800100", "stop_name": "西茂呂東", "zone_id": "Z001280", "location_type": "0"}, "geometry": {"type": "Point", "coordinates": [139.771660076021, 36.5536009176321]}}, {"type": "Feature", "properties": {"stop_id": "S091100012800200", "stop_name": "西茂呂東", "zone_id": "Z001280", "location_type": "0"}, "geometry": {"type": "Point", "coordinates": [139.771764230472, 36.5536790366096]}}, {"type": "Feature", "properties": {"stop_id": "S091100012900100", "stop_name": "上野原西", "zone_id": "Z001290", "location_type": "0"}, "geometry": {"type": "Point", "coordinates": [139.764750802774, 36.5569944395915]}}, {"type": "Feature", "properties": {"stop_id": "S091100012900200", "stop_name": "上野原西", "zone_id": "Z001290", "location_type": "0"}, "geometry": {"type": "Point", "coordinates": [139.764889676107, 36.557081239089]}}, {"type": "Feature", "properties": {"stop_id": "S091100013000100", "stop_name": "貝島町", "zone_id": "Z001300", "location_type": "0"}, "geometry": {"type": "Point", "coordinates": [139.762320385617, 36.5586521705946]}}, {"type": "Feature", "properties": {"stop_id": "S091100013000200", "stop_name": "貝島町", "zone_id": "Z001300", "location_type": "0"}, "geometry": {"type": "Point", "coordinates": [139.762598142521, 36.5585827416609]}}, {"type": "Feature", "properties": {"stop_id": "S091100013100100", "stop_name": "貝島橋東", "zone_id": "Z001310", "location_type": "0"}, "geometry": {"type": "Point", "coordinates": [139.760167762673, 36.559355156639]}}, {"type": "Feature", "properties": {"stop_id": "S091100013100200", "stop_name": "貝島橋東", "zone_id": "Z001310", "location_type": "0"}, "geometry": {"type": "Point", "coordinates": [139.760306636004, 36.5594419561357]}}, {"type": "Feature", "properties": {"stop_id": "S091100013200100", "stop_name": "貝島橋西", "zone_id": "Z001320", "location_type": "0"}, "geometry": {"type": "Point", "coordinates": [139.756834717883, 36.5592856286903]}}, {"type": "Feature", "properties": {"stop_id": "S091100013200200", "stop_name": "貝島橋西", "zone_id": "Z001320", "location_type": "0"}, "geometry": {"type": "Point", "coordinates": [139.756799994613, 36.5593811029952]}}, {"type": "Feature", "properties": {"stop_id": "S091100013300100", "stop_name": "下田町南", "zone_id": "Z001330", "location_type": "0"}, "geometry": {"type": "Point", "coordinates": [139.753328036649, 36.560170848557]}}, {"type": "Feature", "properties": {"stop_id": "S091100013300200", "stop_name": "下田町南", "zone_id": "Z001330", "location_type": "0"}, "geometry": {"type": "Point", "coordinates": [139.75367522802, 36.560196896783]}}, {"type": "Feature", "properties": {"stop_id": "S091100013400100", "stop_name": "口粟野車庫", "zone_id": "Z001340", "location_type": "0"}, "geometry": {"type": "Point", "coordinates": [139.660004794802, 36.5103909670496]}}, {"type": "Feature", "properties": {"stop_id": "S091100013400200", "stop_name": "口粟野車庫", "zone_id": "Z001340", "location_type": "0"}, "geometry": {"type": "Point", "coordinates": [139.659796470233, 36.5106079505807]}}, {"type": "Feature", "properties": {"stop_id": "S091100013500100", "stop_name": "叶", "zone_id": "Z001350", "location_type": "0"}, "geometry": {"type": "Point", "coordinates": [139.666844353713, 36.5135505170068]}}, {"type": "Feature", "properties": {"stop_id": "S091100013500200", "stop_name": "叶", "zone_id": "Z001350", "location_type": "0"}, "geometry": {"type": "Point", "coordinates": [139.667677598864, 36.5139497999462]}}, {"type": "Feature", "properties": {"stop_id": "S091100013600100", "stop_name": "粟野上町", "zone_id": "Z001360", "location_type": "0"}, "geometry": {"type": "Point", "coordinates": [139.669448244355, 36.5148091256558]}}, {"type": "Feature", "properties": {"stop_id": "S091100013600200", "stop_name": "粟野上町", "zone_id": "Z001360", "location_type": "0"}, "geometry": {"type": "Point", "coordinates": [139.669517685396, 36.5147483705713]}}, {"type": "Feature", "properties": {"stop_id": "S091100013700100", "stop_name": "上仲町", "zone_id": "Z001370", "location_type": "0"}, "geometry": {"type": "Point", "coordinates": [139.670941144981, 36.5154514545551]}}, {"type": "Feature", "properties": {"stop_id": "S091100013700200", "stop_name": "上仲町", "zone_id": "Z001370", "location_type": "0"}, "geometry": {"type": "Point", "coordinates": [139.670975867139, 36.5153820189529]}}, {"type": "Feature", "properties": {"stop_id": "S091100013800100", "stop_name": "旧粟野町役場", "zone_id": "Z001380", "location_type": "0"}, "geometry": {"type": "Point", "coordinates": [139.673440915019, 36.515824744341]}}, {"type": "Feature", "properties": {"stop_id": "S091100013900100", "stop_name": "粟野小学校前", "zone_id": "Z001390", "location_type": "0"}, "geometry": {"type": "Point", "coordinates": [139.673336733252, 36.5163975930409]}}, {"type": "Feature", "properties": {"stop_id": "S091100013900200", "stop_name": "粟野小学校前", "zone_id": "Z001390", "location_type": "0"}, "geometry": {"type": "Point", "coordinates": [139.672885395436, 36.516102475362]}}, {"type": "Feature", "properties": {"stop_id": "S091100014000100", "stop_name": "粟野保育園前", "zone_id": "Z001400", "location_type": "0"}, "geometry": {"type": "Point", "coordinates": [139.676496142015, 36.5174131889632]}}, {"type": "Feature", "properties": {"stop_id": "S091100014000200", "stop_name": "粟野保育園前", "zone_id": "Z001400", "location_type": "0"}, "geometry": {"type": "Point", "coordinates": [139.676600301574, 36.5173697939661]}}, {"type": "Feature", "properties": {"stop_id": "S091100014100100", "stop_name": "ファミリータウン入口", "zone_id": "Z001410", "location_type": "0"}, "geometry": {"type": "Point", "coordinates": [139.679447265531, 36.5177083749815]}}, {"type": "Feature", "properties": {"stop_id": "S091100014100200", "stop_name": "ファミリータウン入口", "zone_id": "Z001410", "location_type": "0"}, "geometry": {"type": "Point", "coordinates": [139.678995921161, 36.5175694895399]}}, {"type": "Feature", "properties": {"stop_id": "S091100014200100", "stop_name": "筌場", "zone_id": "Z001420", "location_type": "0"}, "geometry": {"type": "Point", "coordinates": [139.682051198416, 36.51796015367]}}, {"type": "Feature", "properties": {"stop_id": "S091100014200200", "stop_name": "筌場", "zone_id": "Z001420", "location_type": "0"}, "geometry": {"type": "Point", "coordinates": [139.68198176393, 36.5178646765134]}}, {"type": "Feature", "properties": {"stop_id": "S091100014300100", "stop_name": "落の沢", "zone_id": "Z001430", "location_type": "0"}, "geometry": {"type": "Point", "coordinates": [139.685071808149, 36.5171183180698]}}, {"type": "Feature", "properties": {"stop_id": "S091100014300200", "stop_name": "落の沢", "zone_id": "Z001430", "location_type": "0"}, "geometry": {"type": "Point", "coordinates": [139.685349575959, 36.5167885020442]}}, {"type": "Feature", "properties": {"stop_id": "S091100014400100", "stop_name": "久野丁字路", "zone_id": "Z001440", "location_type": "0"}, "geometry": {"type": "Point", "coordinates": [139.690765843207, 36.5152436868643]}}, {"type": "Feature", "properties": {"stop_id": "S091100014400200", "stop_name": "久野丁字路", "zone_id": "Z001440", "location_type": "0"}, "geometry": {"type": "Point", "coordinates": [139.691147756374, 36.5152089790317]}}, {"type": "Feature", "properties": {"stop_id": "S091100014500100", "stop_name": "久野中坪", "zone_id": "Z001450", "location_type": "0"}, "geometry": {"type": "Point", "coordinates": [139.694827967721, 36.5158947656256]}}, {"type": "Feature", "properties": {"stop_id": "S091100014500200", "stop_name": "久野中坪", "zone_id": "Z001450", "location_type": "0"}, "geometry": {"type": "Point", "coordinates": [139.694897409492, 36.5158166514035]}}, {"type": "Feature", "properties": {"stop_id": "S091100014600100", "stop_name": "豊年町", "zone_id": "Z001460", "location_type": "0"}, "geometry": {"type": "Point", "coordinates": [139.705278371692, 36.5180215458864]}}, {"type": "Feature", "properties": {"stop_id": "S091100014600200", "stop_name": "豊年町", "zone_id": "Z001460", "location_type": "0"}, "geometry": {"type": "Point", "coordinates": [139.705139501993, 36.5178479507062]}}, {"type": "Feature", "properties": {"stop_id": "S091100014700100", "stop_name": "北川医院前", "zone_id": "Z001470", "location_type": "0"}, "geometry": {"type": "Point", "coordinates": [139.707882272925, 36.5190284471353]}}, {"type": "Feature", "properties": {"stop_id": "S091100014700200", "stop_name": "北川医院前", "zone_id": "Z001470", "location_type": "0"}, "geometry": {"type": "Point", "coordinates": [139.707639246216, 36.5188374899669]}}, {"type": "Feature", "properties": {"stop_id": "S091100014800100", "stop_name": "ＪＡ南摩支店前", "zone_id": "Z001480", "location_type": "0"}, "geometry": {"type": "Point", "coordinates": [139.710520900696, 36.5198617579599]}}, {"type": "Feature", "properties": {"stop_id": "S091100014800200", "stop_name": "ＪＡ南摩支店前", "zone_id": "Z001480", "location_type": "0"}, "geometry": {"type": "Point", "coordinates": [139.710486185823, 36.5197576021813]}}, {"type": "Feature", "properties": {"stop_id": "S091100014900100", "stop_name": "下南摩", "zone_id": "Z001490", "location_type": "0"}, "geometry": {"type": "Point", "coordinates": [139.716249514471, 36.5213374414623]}}, {"type": "Feature", "properties": {"stop_id": "S091100014900200", "stop_name": "下南摩", "zone_id": "Z001490", "location_type": "0"}, "geometry": {"type": "Point", "coordinates": [139.716214800693, 36.5212072469762]}}, {"type": "Feature", "properties": {"stop_id": "S091100015000100", "stop_name": "南摩十文字", "zone_id": "Z001500", "location_type": "0"}, "geometry": {"type": "Point", "coordinates": [139.721492068275, 36.5225874428954]}}, {"type": "Feature", "properties": {"stop_id": "S091100015000200", "stop_name": "南摩十文字", "zone_id": "Z001500", "location_type": "0"}, "geometry": {"type": "Point", "coordinates": [139.721943423594, 36.5224659412826]}}, {"type": "Feature", "properties": {"stop_id": "S091100015100100", "stop_name": "赤石橋", "zone_id": "Z001510", "location_type": "0"}, "geometry": {"type": "Point", "coordinates": [139.725901386781, 36.5232038129994]}}, {"type": "Feature", "properties": {"stop_id": "S091100015100200", "stop_name": "赤石橋", "zone_id": "Z001510", "location_type": "0"}, "geometry": {"type": "Point", "coordinates": [139.725623642649, 36.5229694570303]}}, {"type": "Feature", "properties": {"stop_id": "S091100015200100", "stop_name": "酒野谷入口", "zone_id": "Z001520", "location_type": "0"}, "geometry": {"type": "Point", "coordinates": [139.731143885157, 36.5257731089825]}}, {"type": "Feature", "properties": {"stop_id": "S091100015200200", "stop_name": "酒野谷入口", "zone_id": "Z001520", "location_type": "0"}, "geometry": {"type": "Point", "coordinates": [139.731352201372, 36.5257557555482]}}, {"type": "Feature", "properties": {"stop_id": "S091100015300100", "stop_name": "大師窪", "zone_id": "Z001530", "location_type": "0"}, "geometry": {"type": "Point", "coordinates": [139.739615190326, 36.5303214351767]}}, {"type": "Feature", "properties": {"stop_id": "S091100015300200", "stop_name": "大師窪", "zone_id": "Z001530", "location_type": "0"}, "geometry": {"type": "Point", "coordinates": [139.739754066951, 36.5303301185496]}}, {"type": "Feature", "properties": {"stop_id": "S091100015400100", "stop_name": "東武樅山駅", "zone_id": "Z001540", "location_type": "0"}, "geometry": {"type": "Point", "coordinates": [139.741142724062, 36.5330121434319]}}, {"type": "Feature", "properties": {"stop_id": "S091100015400200", "stop_name": "東武樅山駅", "zone_id": "Z001540", "location_type": "0"}, "geometry": {"type": "Point", "coordinates": [139.741246888376, 36.532855914042]}}, {"type": "Feature", "properties": {"stop_id": "S091100015500100", "stop_name": "生子神社入口", "zone_id": "Z001550", "location_type": "0"}, "geometry": {"type": "Point", "coordinates": [139.743607636564, 36.536674989096]}}, {"type": "Feature", "properties": {"stop_id": "S091100015500200", "stop_name": "生子神社入口", "zone_id": "Z001550", "location_type": "0"}, "geometry": {"type": "Point", "coordinates": [139.744336713374, 36.5373259767479]}}, {"type": "Feature", "properties": {"stop_id": "S091100015600100", "stop_name": "大門宿", "zone_id": "Z001560", "location_type": "0"}, "geometry": {"type": "Point", "coordinates": [139.747565474102, 36.5403986326476]}}, {"type": "Feature", "properties": {"stop_id": "S091100015600200", "stop_name": "大門宿", "zone_id": "Z001560", "location_type": "0"}, "geometry": {"type": "Point", "coordinates": [139.74766963988, 36.5402076849837]}}, {"type": "Feature", "properties": {"stop_id": "S091100015700100", "stop_name": "上殿丁字路", "zone_id": "Z001570", "location_type": "0"}, "geometry": {"type": "Point", "coordinates": [139.747843099509, 36.54345384854]}}, {"type": "Feature", "properties": {"stop_id": "S091100015700200", "stop_name": "上殿丁字路", "zone_id": "Z001570", "location_type": "0"}, "geometry": {"type": "Point", "coordinates": [139.747947258347, 36.5434278126875]}}, {"type": "Feature", "properties": {"stop_id": "S091100015800100", "stop_name": "上殿", "zone_id": "Z001580", "location_type": "0"}, "geometry": {"type": "Point", "coordinates": [139.74805134193, 36.5451897680392]}}, {"type": "Feature", "properties": {"stop_id": "S091100015800200", "stop_name": "上殿", "zone_id": "Z001580", "location_type": "0"}, "geometry": {"type": "Point", "coordinates": [139.748155459485, 36.5461445234766]}}, {"type": "Feature", "properties": {"stop_id": "S091100015900100", "stop_name": "押原神社入口", "zone_id": "Z001590", "location_type": "0"}, "geometry": {"type": "Point", "coordinates": [139.747808194674, 36.5478630686072]}}, {"type": "Feature", "properties": {"stop_id": "S091100015900200", "stop_name": "押原神社入口", "zone_id": "Z001590", "location_type": "0"}, "geometry": {"type": "Point", "coordinates": [139.748051249133, 36.5473943785468]}}, {"type": "Feature", "properties": {"stop_id": "S091100016000100", "stop_name": "桜内", "zone_id": "Z001600", "location_type": "0"}, "geometry": {"type": "Point", "coordinates": [139.747113702673, 36.5504061632604]}}, {"type": "Feature", "properties": {"stop_id": "S091100016000200", "stop_name": "桜内", "zone_id": "Z001600", "location_type": "0"}, "geometry": {"type": "Point", "coordinates": [139.747252586238, 36.550249934827]}}, {"type": "Feature", "properties": {"stop_id": "S091100016100100", "stop_name": "鹿沼営業所", "zone_id": "Z001610", "location_type": "0"}, "geometry": {"type": "Point", "coordinates": [139.746870575126, 36.5526107670887]}}, {"type": "Feature", "properties": {"stop_id": "S091100016100200", "stop_name": "鹿沼営業所", "zone_id": "Z001610", "location_type": "0"}, "geometry": {"type": "Point", "coordinates": [139.747009464173, 36.5523243451234]}}, {"type": "Feature", "properties": {"stop_id": "S091100016200100", "stop_name": "鹿沼商工入口", "zone_id": "Z001620", "location_type": "0"}, "geometry": {"type": "Point", "coordinates": [139.746835780594, 36.5543987573162]}}, {"type": "Feature", "properties": {"stop_id": "S091100016200200", "stop_name": "鹿沼商工入口", "zone_id": "Z001620", "location_type": "0"}, "geometry": {"type": "Point", "coordinates": [139.746974656119, 36.5544334793981]}}, {"type": "Feature", "properties": {"stop_id": "S091100016300100", "stop_name": "東武新鹿沼駅入口", "zone_id": "Z001630", "location_type": "0"}, "geometry": {"type": "Point", "coordinates": [139.746800986054, 36.5561867475389]}}, {"type": "Feature", "properties": {"stop_id": "S091100016300200", "stop_name": "東武新鹿沼駅入口", "zone_id": "Z001630", "location_type": "0"}, "geometry": {"type": "Point", "coordinates": [139.746905143064, 36.5562041095316]}}, {"type": "Feature", "properties": {"stop_id": "S091100016400100", "stop_name": "樅山駅入口", "zone_id": "Z001640", "location_type": "0"}, "geometry": {"type": "Point", "coordinates": [139.747461618354, 36.5332206261946]}}, {"type": "Feature", "properties": {"stop_id": "S091100016500100", "stop_name": "樅山町北", "zone_id": "Z001650", "location_type": "0"}, "geometry": {"type": "Point", "coordinates": [139.747183788064, 36.5350346485217]}}, {"type": "Feature", "properties": {"stop_id": "S091100016500200", "stop_name": "樅山町北", "zone_id": "Z001650", "location_type": "0"}, "geometry": {"type": "Point", "coordinates": [139.747287943981, 36.5350780492208]}}, {"type": "Feature", "properties": {"stop_id": "S091100016600100", "stop_name": "北押原コミュニティセンター入口", "zone_id": "Z001660", "location_type": "0"}, "geometry": {"type": "Point", "coordinates": [139.747079530634, 36.5374041680184]}}, {"type": "Feature", "properties": {"stop_id": "S091100016600200", "stop_name": "北押原コミュニティセンター入口", "zone_id": "Z001660", "location_type": "0"}, "geometry": {"type": "Point", "coordinates": [139.747183681073, 36.5375777622529]}}, {"type": "Feature", "properties": {"stop_id": "S091100016700100", "stop_name": "小来川森崎", "zone_id": "Z001670", "location_type": "0"}, "geometry": {"type": "Point", "coordinates": [139.623682076035, 36.6623605268474]}}, {"type": "Feature", "properties": {"stop_id": "S091100016800100", "stop_name": "上原", "zone_id": "Z001680", "location_type": "0"}, "geometry": {"type": "Point", "coordinates": [139.626598645523, 36.6587238682341]}}, {"type": "Feature", "properties": {"stop_id": "S091100016800200", "stop_name": "上原", "zone_id": "Z001680", "location_type": "0"}, "geometry": {"type": "Point", "coordinates": [139.626494485609, 36.6587759427824]}}, {"type": "Feature", "properties": {"stop_id": "S091100016900100", "stop_name": "長久保", "zone_id": "Z001690", "location_type": "0"}, "geometry": {"type": "Point", "coordinates": [139.627814060916, 36.6529867078058]}}, {"type": "Feature", "properties": {"stop_id": "S091100016900200", "stop_name": "長久保", "zone_id": "Z001690", "location_type": "0"}, "geometry": {"type": "Point", "coordinates": [139.627848756357, 36.6535508806065]}}, {"type": "Feature", "properties": {"stop_id": "S091100017000100", "stop_name": "山口橋", "zone_id": "Z001700", "location_type": "0"}, "geometry": {"type": "Point", "coordinates": [139.627432259115, 36.6503828272648]}}, {"type": "Feature", "properties": {"stop_id": "S091100017100100", "stop_name": "天善教", "zone_id": "Z001710", "location_type": "0"}, "geometry": {"type": "Point", "coordinates": [139.640799327333, 36.6465641838875]}}, {"type": "Feature", "properties": {"stop_id": "S091100017100200", "stop_name": "天善教", "zone_id": "Z001710", "location_type": "0"}, "geometry": {"type": "Point", "coordinates": [139.64100765229, 36.6463385208499]}}, {"type": "Feature", "properties": {"stop_id": "S091100017200100", "stop_name": "山中", "zone_id": "Z001720", "location_type": "0"}, "geometry": {"type": "Point", "coordinates": [139.649513853584, 36.6466338591675]}}, {"type": "Feature", "properties": {"stop_id": "S091100017200200", "stop_name": "山中", "zone_id": "Z001720", "location_type": "0"}, "geometry": {"type": "Point", "coordinates": [139.649652737502, 36.6464689511973]}}, {"type": "Feature", "properties": {"stop_id": "S091100017300100", "stop_name": "大原", "zone_id": "Z001730", "location_type": "0"}, "geometry": {"type": "Point", "coordinates": [139.667394408472, 36.6431712018606]}}, {"type": "Feature", "properties": {"stop_id": "S091100017300200", "stop_name": "大原", "zone_id": "Z001730", "location_type": "0"}, "geometry": {"type": "Point", "coordinates": [139.667290252582, 36.6431278011693]}}, {"type": "Feature", "properties": {"stop_id": "S091100017400100", "stop_name": "大原入口", "zone_id": "Z001740", "location_type": "0"}, "geometry": {"type": "Point", "coordinates": [139.671282990544, 36.6425290204711]}}, {"type": "Feature", "properties": {"stop_id": "S091100017400200", "stop_name": "大原入口", "zone_id": "Z001740", "location_type": "0"}, "geometry": {"type": "Point", "coordinates": [139.671213552795, 36.6425116594331]}}, {"type": "Feature", "properties": {"stop_id": "S091100017500100", "stop_name": "唐沢", "zone_id": "Z001750", "location_type": "0"}, "geometry": {"type": "Point", "coordinates": [139.680310060986, 36.64092354799]}}, {"type": "Feature", "properties": {"stop_id": "S091100017500200", "stop_name": "唐沢", "zone_id": "Z001750", "location_type": "0"}, "geometry": {"type": "Point", "coordinates": [139.680275344676, 36.6408541104991]}}, {"type": "Feature", "properties": {"stop_id": "S091100017600100", "stop_name": "泉内", "zone_id": "Z001760", "location_type": "0"}, "geometry": {"type": "Point", "coordinates": [139.689927251626, 36.6418525254189]}}, {"type": "Feature", "properties": {"stop_id": "S091100017600200", "stop_name": "泉内", "zone_id": "Z001760", "location_type": "0"}, "geometry": {"type": "Point", "coordinates": [139.689892535683, 36.6417744083601]}}, {"type": "Feature", "properties": {"stop_id": "S091100017700100", "stop_name": "板荷コミュニティセンター前", "zone_id": "Z001770", "location_type": "0"}, "geometry": {"type": "Point", "coordinates": [139.69586423534, 36.6420089204689]}}, {"type": "Feature", "properties": {"stop_id": "S091100017700200", "stop_name": "板荷コミュニティセンター前", "zone_id": "Z001770", "location_type": "0"}, "geometry": {"type": "Point", "coordinates": [139.695864237906, 36.6419481634968]}}, {"type": "Feature", "properties": {"stop_id": "S091100017800100", "stop_name": "板荷小学校前", "zone_id": "Z001780", "location_type": "0"}, "geometry": {"type": "Point", "coordinates": [139.701801235952, 36.6417660554418]}}, {"type": "Feature", "properties": {"stop_id": "S091100017800200", "stop_name": "板荷小学校前", "zone_id": "Z001780", "location_type": "0"}, "geometry": {"type": "Point", "coordinates": [139.701835959228, 36.6416705811521]}}, {"type": "Feature", "properties": {"stop_id": "S091100017900100", "stop_name": "新田", "zone_id": "Z001790", "location_type": "0"}, "geometry": {"type": "Point", "coordinates": [139.705238586092, 36.6383290410056]}}, {"type": "Feature", "properties": {"stop_id": "S091100017900200", "stop_name": "新田", "zone_id": "Z001790", "location_type": "0"}, "geometry": {"type": "Point", "coordinates": [139.705134430566, 36.6382769607429]}}, {"type": "Feature", "properties": {"stop_id": "S091100018000100", "stop_name": "足立野外センター", "zone_id": "Z001800", "location_type": "0"}, "geometry": {"type": "Point", "coordinates": [139.705481713533, 36.6361331170825]}}, {"type": "Feature", "properties": {"stop_id": "S091100018000200", "stop_name": "足立野外センター", "zone_id": "Z001800", "location_type": "0"}, "geometry": {"type": "Point", "coordinates": [139.705377548475, 36.6363067055764]}}, {"type": "Feature", "properties": {"stop_id": "S091100018100100", "stop_name": "今里", "zone_id": "Z001810", "location_type": "0"}, "geometry": {"type": "Point", "coordinates": [139.705759582566, 36.6334077404809]}}, {"type": "Feature", "properties": {"stop_id": "S091100018100200", "stop_name": "今里", "zone_id": "Z001810", "location_type": "0"}, "geometry": {"type": "Point", "coordinates": [139.705690139682, 36.6335118933872]}}, {"type": "Feature", "properties": {"stop_id": "S091100018200100", "stop_name": "大鹿島", "zone_id": "Z001820", "location_type": "0"}, "geometry": {"type": "Point", "coordinates": [139.706211105697, 36.6293109969412]}}, {"type": "Feature", "properties": {"stop_id": "S091100018200200", "stop_name": "大鹿島", "zone_id": "Z001820", "location_type": "0"}, "geometry": {"type": "Point", "coordinates": [139.70614167344, 36.6291634423864]}}, {"type": "Feature", "properties": {"stop_id": "S091100018300100", "stop_name": "東武板荷駅前", "zone_id": "Z001830", "location_type": "0"}, "geometry": {"type": "Point", "coordinates": [139.708641841412, 36.6201020422482]}}, {"type": "Feature", "properties": {"stop_id": "S091100018400100", "stop_name": "長ノ原", "zone_id": "Z001840", "location_type": "0"}, "geometry": {"type": "Point", "coordinates": [139.709961290958, 36.6172985780292]}}, {"type": "Feature", "properties": {"stop_id": "S091100018400200", "stop_name": "長ノ原", "zone_id": "Z001840", "location_type": "0"}, "geometry": {"type": "Point", "coordinates": [139.709857133228, 36.6172985751728]}}, {"type": "Feature", "properties": {"stop_id": "S091100018500100", "stop_name": "川化下", "zone_id": "Z001850", "location_type": "0"}, "geometry": {"type": "Point", "coordinates": [139.712600216761, 36.6110580410888]}}, {"type": "Feature", "properties": {"stop_id": "S091100018500200", "stop_name": "川化下", "zone_id": "Z001850", "location_type": "0"}, "geometry": {"type": "Point", "coordinates": [139.712496058298, 36.6110753973684]}}, {"type": "Feature", "properties": {"stop_id": "S091100018600100", "stop_name": "下遠部", "zone_id": "Z001860", "location_type": "0"}, "geometry": {"type": "Point", "coordinates": [139.715655712311, 36.6062670033571]}}, {"type": "Feature", "properties": {"stop_id": "S091100018600200", "stop_name": "下遠部", "zone_id": "Z001860", "location_type": "0"}, "geometry": {"type": "Point", "coordinates": [139.715516835336, 36.606266999549]}}, {"type": "Feature", "properties": {"stop_id": "S091100018700100", "stop_name": "松ヶ久保", "zone_id": "Z001870", "location_type": "0"}, "geometry": {"type": "Point", "coordinates": [139.719266616551, 36.6038281437569]}}, {"type": "Feature", "properties": {"stop_id": "S091100018700200", "stop_name": "松ヶ久保", "zone_id": "Z001870", "location_type": "0"}, "geometry": {"type": "Point", "coordinates": [139.719474941168, 36.6036111602682]}}, {"type": "Feature", "properties": {"stop_id": "S091100018800100", "stop_name": "原坪", "zone_id": "Z001880", "location_type": "0"}, "geometry": {"type": "Point", "coordinates": [139.725828760911, 36.598915688162]}}, {"type": "Feature", "properties": {"stop_id": "S091100018800200", "stop_name": "原坪", "zone_id": "Z001880", "location_type": "0"}, "geometry": {"type": "Point", "coordinates": [139.725828767134, 36.5987681355035]}}, {"type": "Feature", "properties": {"stop_id": "S091100018900100", "stop_name": "見野駐在所前", "zone_id": "Z001890", "location_type": "0"}, "geometry": {"type": "Point", "coordinates": [139.728918972442, 36.5942027673771]}}, {"type": "Feature", "properties": {"stop_id": "S091100018900200", "stop_name": "見野駐在所前", "zone_id": "Z001890", "location_type": "0"}, "geometry": {"type": "Point", "coordinates": [139.728849535051, 36.5941767267683]}}, {"type": "Feature", "properties": {"stop_id": "S091100019000100", "stop_name": "菊沢西小学校前", "zone_id": "Z001900", "location_type": "0"}, "geometry": {"type": "Point", "coordinates": [139.731245283358, 36.5913212145103]}}, {"type": "Feature", "properties": {"stop_id": "S091100019000200", "stop_name": "菊沢西小学校前", "zone_id": "Z001900", "location_type": "0"}, "geometry": {"type": "Point", "coordinates": [139.731280009557, 36.5911563036652]}}, {"type": "Feature", "properties": {"stop_id": "S091100019100100", "stop_name": "上玉田", "zone_id": "Z001910", "location_type": "0"}, "geometry": {"type": "Point", "coordinates": [139.73707826475, 36.5878061493032]}}, {"type": "Feature", "properties": {"stop_id": "S091100019100200", "stop_name": "上玉田", "zone_id": "Z001910", "location_type": "0"}, "geometry": {"type": "Point", "coordinates": [139.737008830286, 36.5877106721471]}}, {"type": "Feature", "properties": {"stop_id": "S091100019200100", "stop_name": "下玉田", "zone_id": "Z001920", "location_type": "0"}, "geometry": {"type": "Point", "coordinates": [139.744265290552, 36.5844386738774]}}, {"type": "Feature", "properties": {"stop_id": "S091100019200200", "stop_name": "下玉田", "zone_id": "Z001920", "location_type": "0"}, "geometry": {"type": "Point", "coordinates": [139.744091696154, 36.584395271274]}}, {"type": "Feature", "properties": {"stop_id": "S091100019300100", "stop_name": "鹿沼自動車教習所入口", "zone_id": "Z001930", "location_type": "0"}, "geometry": {"type": "Point", "coordinates": [139.747285960084, 36.5821820689285]}}, {"type": "Feature", "properties": {"stop_id": "S091100019300200", "stop_name": "鹿沼自動車教習所入口", "zone_id": "Z001930", "location_type": "0"}, "geometry": {"type": "Point", "coordinates": [139.747251244497, 36.5820952722914]}}, {"type": "Feature", "properties": {"stop_id": "S091100019400100", "stop_name": "御成橋", "zone_id": "Z001940", "location_type": "0"}, "geometry": {"type": "Point", "coordinates": [139.75162609638, 36.5767140597968]}}, {"type": "Feature", "properties": {"stop_id": "S091100019400200", "stop_name": "御成橋", "zone_id": "Z001940", "location_type": "0"}, "geometry": {"type": "Point", "coordinates": [139.75152193169, 36.5768789687427]}}, {"type": "Feature", "properties": {"stop_id": "S091100019500100", "stop_name": "御成橋１丁目", "zone_id": "Z001950", "location_type": "0"}, "geometry": {"type": "Point", "coordinates": [139.751313668539, 36.5756377847236]}}, {"type": "Feature", "properties": {"stop_id": "S091100019500200", "stop_name": "御成橋１丁目", "zone_id": "Z001950", "location_type": "0"}, "geometry": {"type": "Point", "coordinates": [139.75117479009, 36.5756724991889]}}, {"type": "Feature", "properties": {"stop_id": "S091100019600100", "stop_name": "図書館・川上澄生美術館前", "zone_id": "Z001960", "location_type": "0"}, "geometry": {"type": "Point", "coordinates": [139.754091440572, 36.5701263348275]}}, {"type": "Feature", "properties": {"stop_id": "S091100019700100", "stop_name": "ハローワーク前", "zone_id": "Z001970", "location_type": "0"}, "geometry": {"type": "Point", "coordinates": [139.751938841806, 36.5702564693229]}}, {"type": "Feature", "properties": {"stop_id": "S091100019800100", "stop_name": "平和タクシー本社", "zone_id": "Z001980", "location_type": "0"}, "geometry": {"type": "Point", "coordinates": [139.744405128108, 36.5616461306167]}}, {"type": "Feature", "properties": {"stop_id": "S091100019800200", "stop_name": "平和タクシー本社", "zone_id": "Z001980", "location_type": "0"}, "geometry": {"type": "Point", "coordinates": [139.744335690347, 36.5616287695757]}}, {"type": "Feature", "properties": {"stop_id": "S091100019900100", "stop_name": "石裂山", "zone_id": "Z001990", "location_type": "0"}, "geometry": {"type": "Point", "coordinates": [139.603061366628, 36.6025664247559]}}, {"type": "Feature", "properties": {"stop_id": "S091100020000100", "stop_name": "上久我馬返", "zone_id": "Z002000", "location_type": "0"}, "geometry": {"type": "Point", "coordinates": [139.627226139813, 36.598244660913]}}, {"type": "Feature", "properties": {"stop_id": "S091100020100100", "stop_name": "法長内", "zone_id": "Z002010", "location_type": "0"}, "geometry": {"type": "Point", "coordinates": [139.634725730687, 36.5926639040375]}}, {"type": "Feature", "properties": {"stop_id": "S091100020100200", "stop_name": "法長内", "zone_id": "Z002010", "location_type": "0"}, "geometry": {"type": "Point", "coordinates": [139.634968773045, 36.5924816397634]}}, {"type": "Feature", "properties": {"stop_id": "S091100020200100", "stop_name": "小佐部沢", "zone_id": "Z002020", "location_type": "0"}, "geometry": {"type": "Point", "coordinates": [139.636947770906, 36.5924556551954]}}, {"type": "Feature", "properties": {"stop_id": "S091100020200200", "stop_name": "小佐部沢", "zone_id": "Z002020", "location_type": "0"}, "geometry": {"type": "Point", "coordinates": [139.636704739502, 36.5923775324375]}}, {"type": "Feature", "properties": {"stop_id": "S091100020300100", "stop_name": "和田内", "zone_id": "Z002030", "location_type": "0"}, "geometry": {"type": "Point", "coordinates": [139.641426590323, 36.5915704618102]}}, {"type": "Feature", "properties": {"stop_id": "S091100020300200", "stop_name": "和田内", "zone_id": "Z002030", "location_type": "0"}, "geometry": {"type": "Point", "coordinates": [139.64142659434, 36.5914749865647]}}, {"type": "Feature", "properties": {"stop_id": "S091100020400100", "stop_name": "寺畑", "zone_id": "Z002040", "location_type": "0"}, "geometry": {"type": "Point", "coordinates": [139.645488737965, 36.5916573686271]}}, {"type": "Feature", "properties": {"stop_id": "S091100020400200", "stop_name": "寺畑", "zone_id": "Z002040", "location_type": "0"}, "geometry": {"type": "Point", "coordinates": [139.645349864284, 36.5915792487172]}}, {"type": "Feature", "properties": {"stop_id": "S091100020500100", "stop_name": "富見沢入口", "zone_id": "Z002050", "location_type": "0"}, "geometry": {"type": "Point", "coordinates": [139.648127416786, 36.5912668602752]}}, {"type": "Feature", "properties": {"stop_id": "S091100020500200", "stop_name": "富見沢入口", "zone_id": "Z002050", "location_type": "0"}, "geometry": {"type": "Point", "coordinates": [139.648162138949, 36.5911974246827]}}, {"type": "Feature", "properties": {"stop_id": "S091100020600100", "stop_name": "久我小学校入口", "zone_id": "Z002060", "location_type": "0"}, "geometry": {"type": "Point", "coordinates": [139.651946604265, 36.5895831286211]}}, {"type": "Feature", "properties": {"stop_id": "S091100020600200", "stop_name": "久我小学校入口", "zone_id": "Z002060", "location_type": "0"}, "geometry": {"type": "Point", "coordinates": [139.651946607186, 36.5895136920782]}}, {"type": "Feature", "properties": {"stop_id": "S091100020700100", "stop_name": "久我神社入口", "zone_id": "Z002070", "location_type": "0"}, "geometry": {"type": "Point", "coordinates": [139.654967242254, 36.5880642869023]}}, {"type": "Feature", "properties": {"stop_id": "S091100020700200", "stop_name": "久我神社入口", "zone_id": "Z002070", "location_type": "0"}, "geometry": {"type": "Point", "coordinates": [139.654967247367, 36.5879427729519]}}, {"type": "Feature", "properties": {"stop_id": "S091100020800100", "stop_name": "沢河原", "zone_id": "Z002080", "location_type": "0"}, "geometry": {"type": "Point", "coordinates": [139.659550258224, 36.586259062197]}}, {"type": "Feature", "properties": {"stop_id": "S091100020800200", "stop_name": "沢河原", "zone_id": "Z002080", "location_type": "0"}, "geometry": {"type": "Point", "coordinates": [139.659550262606, 36.5861549073818]}}, {"type": "Feature", "properties": {"stop_id": "S091100020900100", "stop_name": "小奈良橋", "zone_id": "Z002090", "location_type": "0"}, "geometry": {"type": "Point", "coordinates": [139.66048776871, 36.584097875432]}}, {"type": "Feature", "properties": {"stop_id": "S091100020900200", "stop_name": "小奈良橋", "zone_id": "Z002090", "location_type": "0"}, "geometry": {"type": "Point", "coordinates": [139.660383609156, 36.5841412704213]}}, {"type": "Feature", "properties": {"stop_id": "S091100021000100", "stop_name": "たびや前", "zone_id": "Z002100", "location_type": "0"}, "geometry": {"type": "Point", "coordinates": [139.661946072582, 36.5818238685264]}}, {"type": "Feature", "properties": {"stop_id": "S091100021100100", "stop_name": "岩の下", "zone_id": "Z002110", "location_type": "0"}, "geometry": {"type": "Point", "coordinates": [139.666702695046, 36.5797756206472]}}, {"type": "Feature", "properties": {"stop_id": "S091100021200100", "stop_name": "待居", "zone_id": "Z002120", "location_type": "0"}, "geometry": {"type": "Point", "coordinates": [139.671702383654, 36.5769809365601]}}, {"type": "Feature", "properties": {"stop_id": "S091100021200200", "stop_name": "待居", "zone_id": "Z002120", "location_type": "0"}, "geometry": {"type": "Point", "coordinates": [139.671875984983, 36.5768594273578]}}, {"type": "Feature", "properties": {"stop_id": "S091100021300100", "stop_name": "加蘇中学校前", "zone_id": "Z002130", "location_type": "0"}, "geometry": {"type": "Point", "coordinates": [139.676424401239, 36.5722159828793]}}, {"type": "Feature", "properties": {"stop_id": "S091100021300200", "stop_name": "加蘇中学校前", "zone_id": "Z002130", "location_type": "0"}, "geometry": {"type": "Point", "coordinates": [139.676563287707, 36.5719903179072]}}, {"type": "Feature", "properties": {"stop_id": "S091100021400100", "stop_name": "春日丘", "zone_id": "Z002140", "location_type": "0"}, "geometry": {"type": "Point", "coordinates": [139.679236722422, 36.5707318536893]}}, {"type": "Feature", "properties": {"stop_id": "S091100021400200", "stop_name": "春日丘", "zone_id": "Z002140", "location_type": "0"}, "geometry": {"type": "Point", "coordinates": [139.679167287221, 36.5706537356745]}}, {"type": "Feature", "properties": {"stop_id": "S091100021500100", "stop_name": "桑原", "zone_id": "Z002150", "location_type": "0"}, "geometry": {"type": "Point", "coordinates": [139.681354785425, 36.5662358952931]}}, {"type": "Feature", "properties": {"stop_id": "S091100021500200", "stop_name": "桑原", "zone_id": "Z002150", "location_type": "0"}, "geometry": {"type": "Point", "coordinates": [139.6811117467, 36.5663313638924]}}, {"type": "Feature", "properties": {"stop_id": "S091100021600100", "stop_name": "加園農協前", "zone_id": "Z002160", "location_type": "0"}, "geometry": {"type": "Point", "coordinates": [139.686111531061, 36.5612626328182]}}, {"type": "Feature", "properties": {"stop_id": "S091100021600200", "stop_name": "加園農協前", "zone_id": "Z002160", "location_type": "0"}, "geometry": {"type": "Point", "coordinates": [139.686042094762, 36.5612105535073]}}, {"type": "Feature", "properties": {"stop_id": "S091100021700100", "stop_name": "加園小学校前", "zone_id": "Z002170", "location_type": "0"}, "geometry": {"type": "Point", "coordinates": [139.688715505792, 36.5605162612094]}}, {"type": "Feature", "properties": {"stop_id": "S091100021700200", "stop_name": "加園小学校前", "zone_id": "Z002170", "location_type": "0"}, "geometry": {"type": "Point", "coordinates": [139.688819667905, 36.5604121092395]}}, {"type": "Feature", "properties": {"stop_id": "S091100021800100", "stop_name": "加園火の見下", "zone_id": "Z002180", "location_type": "0"}, "geometry": {"type": "Point", "coordinates": [139.694826108189, 36.560151886609]}}, {"type": "Feature", "properties": {"stop_id": "S091100021800200", "stop_name": "加園火の見下", "zone_id": "Z002180", "location_type": "0"}, "geometry": {"type": "Point", "coordinates": [139.69486083072, 36.5600737714433]}}, {"type": "Feature", "properties": {"stop_id": "S091100021900100", "stop_name": "加園宿", "zone_id": "Z002190", "location_type": "0"}, "geometry": {"type": "Point", "coordinates": [139.699131289807, 36.560264838867]}}, {"type": "Feature", "properties": {"stop_id": "S091100021900200", "stop_name": "加園宿", "zone_id": "Z002190", "location_type": "0"}, "geometry": {"type": "Point", "coordinates": [139.698957696868, 36.5601867179976]}}, {"type": "Feature", "properties": {"stop_id": "S091100022000100", "stop_name": "八幡越路", "zone_id": "Z002200", "location_type": "0"}, "geometry": {"type": "Point", "coordinates": [139.702881012817, 36.5592060341791]}}, {"type": "Feature", "properties": {"stop_id": "S091100022000200", "stop_name": "八幡越路", "zone_id": "Z002200", "location_type": "0"}, "geometry": {"type": "Point", "coordinates": [139.703262925244, 36.5591886854995]}}, {"type": "Feature", "properties": {"stop_id": "S091100022100100", "stop_name": "御幣岩橋", "zone_id": "Z002210", "location_type": "0"}, "geometry": {"type": "Point", "coordinates": [139.706977800848, 36.5611764084197]}}, {"type": "Feature", "properties": {"stop_id": "S091100022100200", "stop_name": "御幣岩橋", "zone_id": "Z002210", "location_type": "0"}, "geometry": {"type": "Point", "coordinates": [139.707186116319, 36.5611764141246]}}, {"type": "Feature", "properties": {"stop_id": "S091100022200100", "stop_name": "風ヶ台", "zone_id": "Z002220", "location_type": "0"}, "geometry": {"type": "Point", "coordinates": [139.711803716033, 36.562599989831]}}, {"type": "Feature", "properties": {"stop_id": "S091100022200200", "stop_name": "風ヶ台", "zone_id": "Z002220", "location_type": "0"}, "geometry": {"type": "Point", "coordinates": [139.711769000076, 36.5625218727633]}}, {"type": "Feature", "properties": {"stop_id": "S091100022300100", "stop_name": "東大芦コミュニティセンター入口", "zone_id": "Z002230", "location_type": "0"}, "geometry": {"type": "Point", "coordinates": [139.716907393225, 36.563832628366]}}, {"type": "Feature", "properties": {"stop_id": "S091100022300200", "stop_name": "東大芦コミュニティセンター入口", "zone_id": "Z002230", "location_type": "0"}, "geometry": {"type": "Point", "coordinates": [139.717011553884, 36.5637631946711]}}, {"type": "Feature", "properties": {"stop_id": "S091100022400100", "stop_name": "山の神", "zone_id": "Z002240", "location_type": "0"}, "geometry": {"type": "Point", "coordinates": [139.49810539412, 36.5957761381792]}}, {"type": "Feature", "properties": {"stop_id": "S091100022500100", "stop_name": "墨田学園前", "zone_id": "Z002250", "location_type": "0"}, "geometry": {"type": "Point", "coordinates": [139.505014715448, 36.5911674764508]}}, {"type": "Feature", "properties": {"stop_id": "S091100022600100", "stop_name": "羽立口", "zone_id": "Z002260", "location_type": "0"}, "geometry": {"type": "Point", "coordinates": [139.511299138232, 36.5854217743565]}}, {"type": "Feature", "properties": {"stop_id": "S091100022700100", "stop_name": "上粕尾発光路", "zone_id": "Z002270", "location_type": "0"}, "geometry": {"type": "Point", "coordinates": [139.513000435803, 36.5841112060956]}}, {"type": "Feature", "properties": {"stop_id": "S091100022800100", "stop_name": "井戸産業前", "zone_id": "Z002280", "location_type": "0"}, "geometry": {"type": "Point", "coordinates": [139.518729209708, 36.581733160864]}}, {"type": "Feature", "properties": {"stop_id": "S091100022900100", "stop_name": "田の端", "zone_id": "Z002290", "location_type": "0"}, "geometry": {"type": "Point", "coordinates": [139.522583064769, 36.5812645693076]}}, {"type": "Feature", "properties": {"stop_id": "S091100023000100", "stop_name": "大井", "zone_id": "Z002300", "location_type": "0"}, "geometry": {"type": "Point", "coordinates": [139.534387750243, 36.5778191029915]}}, {"type": "Feature", "properties": {"stop_id": "S091100023100100", "stop_name": "大井煙草屋", "zone_id": "Z002310", "location_type": "0"}, "geometry": {"type": "Point", "coordinates": [139.539248526625, 36.575840294198]}}, {"type": "Feature", "properties": {"stop_id": "S091100023200100", "stop_name": "上粕尾小学校前", "zone_id": "Z002320", "location_type": "0"}, "geometry": {"type": "Point", "coordinates": [139.541262356007, 36.5731323240852]}}, {"type": "Feature", "properties": {"stop_id": "S091100023300100", "stop_name": "半繩", "zone_id": "Z002330", "location_type": "0"}, "geometry": {"type": "Point", "coordinates": [139.544456530731, 36.5730195768305]}}, {"type": "Feature", "properties": {"stop_id": "S091100023400100", "stop_name": "水神", "zone_id": "Z002340", "location_type": "0"}, "geometry": {"type": "Point", "coordinates": [139.547199431044, 36.5711014672322]}}, {"type": "Feature", "properties": {"stop_id": "S091100023500100", "stop_name": "上粕尾郵便局前", "zone_id": "Z002350", "location_type": "0"}, "geometry": {"type": "Point", "coordinates": [139.55157411088, 36.5697736127338]}}, {"type": "Feature", "properties": {"stop_id": "S091100023600100", "stop_name": "栃原", "zone_id": "Z002360", "location_type": "0"}, "geometry": {"type": "Point", "coordinates": [139.557788961398, 36.5672306689781]}}, {"type": "Feature", "properties": {"stop_id": "S091100023700100", "stop_name": "上の内", "zone_id": "Z002370", "location_type": "0"}, "geometry": {"type": "Point", "coordinates": [139.559316726577, 36.5644011716074]}}, {"type": "Feature", "properties": {"stop_id": "S091100023800100", "stop_name": "馬置", "zone_id": "Z002380", "location_type": "0"}, "geometry": {"type": "Point", "coordinates": [139.563899772153, 36.5618755424461]}}, {"type": "Feature", "properties": {"stop_id": "S091100023900100", "stop_name": "遠木金田屋", "zone_id": "Z002390", "location_type": "0"}, "geometry": {"type": "Point", "coordinates": [139.56987188534, 36.5522413851248]}}, {"type": "Feature", "properties": {"stop_id": "S091100024000100", "stop_name": "遠木橋", "zone_id": "Z002400", "location_type": "0"}, "geometry": {"type": "Point", "coordinates": [139.574211805728, 36.5518769616795]}}, {"type": "Feature", "properties": {"stop_id": "S091100024100100", "stop_name": "遠木鈴木商店前", "zone_id": "Z002410", "location_type": "0"}, "geometry": {"type": "Point", "coordinates": [139.576989395577, 36.5506705775256]}}, {"type": "Feature", "properties": {"stop_id": "S091100024200100", "stop_name": "赤石河原", "zone_id": "Z002420", "location_type": "0"}, "geometry": {"type": "Point", "coordinates": [139.583065530532, 36.5442825812769]}}, {"type": "Feature", "properties": {"stop_id": "S091100024300100", "stop_name": "加戸沢入口", "zone_id": "Z002430", "location_type": "0"}, "geometry": {"type": "Point", "coordinates": [139.580843778718, 36.5376079328049]}}, {"type": "Feature", "properties": {"stop_id": "S091100024400100", "stop_name": "加戸", "zone_id": "Z002440", "location_type": "0"}, "geometry": {"type": "Point", "coordinates": [139.581711805574, 36.5365143309006]}}, {"type": "Feature", "properties": {"stop_id": "S091100024500100", "stop_name": "鬼平", "zone_id": "Z002450", "location_type": "0"}, "geometry": {"type": "Point", "coordinates": [139.587232270118, 36.5340060863051]}}, {"type": "Feature", "properties": {"stop_id": "S091100024600100", "stop_name": "上向橋", "zone_id": "Z002460", "location_type": "0"}, "geometry": {"type": "Point", "coordinates": [139.587718494745, 36.5302999239384]}}, {"type": "Feature", "properties": {"stop_id": "S091100024700100", "stop_name": "中粕尾車庫", "zone_id": "Z002470", "location_type": "0"}, "geometry": {"type": "Point", "coordinates": [139.591016898379, 36.5284946637223]}}, {"type": "Feature", "properties": {"stop_id": "S091100024800100", "stop_name": "弁天下", "zone_id": "Z002480", "location_type": "0"}, "geometry": {"type": "Point", "coordinates": [139.592232140934, 36.5268455788984]}}, {"type": "Feature", "properties": {"stop_id": "S091100024900100", "stop_name": "島田入口", "zone_id": "Z002490", "location_type": "0"}, "geometry": {"type": "Point", "coordinates": [139.593239178887, 36.5225492200393]}}, {"type": "Feature", "properties": {"stop_id": "S091100025000100", "stop_name": "粕尾保育園入口", "zone_id": "Z002500", "location_type": "0"}, "geometry": {"type": "Point", "coordinates": [139.59865539349, 36.5222455829068]}}, {"type": "Feature", "properties": {"stop_id": "S091100025100100", "stop_name": "釜丁", "zone_id": "Z002510", "location_type": "0"}, "geometry": {"type": "Point", "coordinates": [139.605043785469, 36.5210219380649]}}, {"type": "Feature", "properties": {"stop_id": "S091100025200100", "stop_name": "粕尾局前", "zone_id": "Z002520", "location_type": "0"}, "geometry": {"type": "Point", "coordinates": [139.608828310947, 36.5179668332259]}}, {"type": "Feature", "properties": {"stop_id": "S091100025300100", "stop_name": "布施谷神社前", "zone_id": "Z002530", "location_type": "0"}, "geometry": {"type": "Point", "coordinates": [139.612508807741, 36.5118304786778]}}, {"type": "Feature", "properties": {"stop_id": "S091100025400100", "stop_name": "粕尾小学校前", "zone_id": "Z002540", "location_type": "0"}, "geometry": {"type": "Point", "coordinates": [139.618584792098, 36.5090445029405]}}, {"type": "Feature", "properties": {"stop_id": "S091100025500100", "stop_name": "大越路", "zone_id": "Z002550", "location_type": "0"}, "geometry": {"type": "Point", "coordinates": [139.622646992736, 36.5078728720233]}}, {"type": "Feature", "properties": {"stop_id": "S091100025600100", "stop_name": "宮沢", "zone_id": "Z002560", "location_type": "0"}, "geometry": {"type": "Point", "coordinates": [139.629382558145, 36.5071092538099]}}, {"type": "Feature", "properties": {"stop_id": "S091100025700100", "stop_name": "寒沢入口", "zone_id": "Z002570", "location_type": "0"}, "geometry": {"type": "Point", "coordinates": [139.636604209033, 36.5059637478638]}}, {"type": "Feature", "properties": {"stop_id": "S091100025800100", "stop_name": "松崎火の見下", "zone_id": "Z002580", "location_type": "0"}, "geometry": {"type": "Point", "coordinates": [139.641430149539, 36.5067884386607]}}, {"type": "Feature", "properties": {"stop_id": "S091100025900100", "stop_name": "松崎大昭屋前", "zone_id": "Z002590", "location_type": "0"}, "geometry": {"type": "Point", "coordinates": [139.647089359215, 36.5074395608566]}}, {"type": "Feature", "properties": {"stop_id": "S091100026000100", "stop_name": "岩鼻", "zone_id": "Z002600", "location_type": "0"}, "geometry": {"type": "Point", "coordinates": [139.654970657001, 36.5067454105923]}}, {"type": "Feature", "properties": {"stop_id": "S091100026100100", "stop_name": "楡木車庫", "zone_id": "Z002610", "location_type": "0"}, "geometry": {"type": "Point", "coordinates": [139.750205738882, 36.5022953959344]}}, {"type": "Feature", "properties": {"stop_id": "S091100026200100", "stop_name": "楡木下町", "zone_id": "Z002620", "location_type": "0"}, "geometry": {"type": "Point", "coordinates": [139.751212489544, 36.5048558964987]}}, {"type": "Feature", "properties": {"stop_id": "S091100026200200", "stop_name": "楡木下町", "zone_id": "Z002620", "location_type": "0"}, "geometry": {"type": "Point", "coordinates": [139.751316655312, 36.5046649488225]}}, {"type": "Feature", "properties": {"stop_id": "S091100026300100", "stop_name": "楡木町西", "zone_id": "Z002630", "location_type": "0"}, "geometry": {"type": "Point", "coordinates": [139.749545930961, 36.5056804099655]}}, {"type": "Feature", "properties": {"stop_id": "S091100026300200", "stop_name": "楡木町西", "zone_id": "Z002630", "location_type": "0"}, "geometry": {"type": "Point", "coordinates": [139.749615365812, 36.5057672075613]}}, {"type": "Feature", "properties": {"stop_id": "S091100026400100", "stop_name": "南押原コミュニティセンター", "zone_id": "Z002640", "location_type": "0"}, "geometry": {"type": "Point", "coordinates": [139.747254468201, 36.5054980762666]}}, {"type": "Feature", "properties": {"stop_id": "S091100026400200", "stop_name": "南押原コミュニティセンター", "zone_id": "Z002640", "location_type": "0"}, "geometry": {"type": "Point", "coordinates": [139.747497498931, 36.5055935581845]}}, {"type": "Feature", "properties": {"stop_id": "S091100026500100", "stop_name": "楡木駅前", "zone_id": "Z002650", "location_type": "0"},