{"type": "FeatureCollection", "name": "stops", "crs": {"type": "name", "properties": {"name": "urn:ogc:def:crs:OGC:1.3:CRS84"}}, "features": [{"type": "Feature", "properties": {"stop_id": "1_0", "stop_name": "加東市役所", "zone_id": "1_0", "location_type": "0"}, "geometry": {"type": "Point", "coordinates": [134.97353, 34.918845]}}, {"type": "Feature", "properties": {"stop_id": "2_0", "stop_name": "ローソン社嬉野店", "zone_id": "2_0", "location_type": "0"}, "geometry": {"type": "Point", "coordinates": [134.974226, 34.915311]}}, {"type": "Feature", "properties": {"stop_id": "3_0", "stop_name": "ひろのが丘", "zone_id": "3_0", "location_type": "0"}, "geometry": {"type": "Point", "coordinates": [134.971708, 34.912606]}}, {"type": "Feature", "properties": {"stop_id": "4_0", "stop_name": "明治館", "zone_id": "4_0", "location_type": "0"}, "geometry": {"type": "Point", "coordinates": [134.964889, 34.913984]}}, {"type": "Feature", "properties": {"stop_id": "5_0", "stop_name": "兵庫県信用組合南", "zone_id": "5_0", "location_type": "0"}, "geometry": {"type": "Point", "coordinates": [134.967465, 34.916024]}}, {"type": "Feature", "properties": {"stop_id": "6_0", "stop_name": "加東市商工会館", "zone_id": "6_0", "location_type": "0"}, "geometry": {"type": "Point", "coordinates": [134.965877, 34.916746]}}, {"type": "Feature", "properties": {"stop_id": "7_0", "stop_name": "アーケードショップ", "zone_id": "7_0", "location_type": "0"}, "geometry": {"type": "Point", "coordinates": [134.968501, 34.918321]}}, {"type": "Feature", "properties": {"stop_id": "8_0", "stop_name": "千鳥ヶ丘公園", "zone_id": "8_0", "location_type": "0"}, "geometry": {"type": "Point", "coordinates": [134.96949, 34.920164]}}, {"type": "Feature", "properties": {"stop_id": "9_0", "stop_name": "小元団地", "zone_id": "9_0", "location_type": "0"}, "geometry": {"type": "Point", "coordinates": [134.971148, 34.923087]}}, {"type": "Feature", "properties": {"stop_id": "10_0", "stop_name": "マックスバリュ社店", "zone_id": "10_0", "location_type": "0"}, "geometry": {"type": "Point", "coordinates": [134.965314, 34.924758]}}, {"type": "Feature", "properties": {"stop_id": "11_0", "stop_name": "滝野社インター", "zone_id": "11_0", "location_type": "0"}, "geometry": {"type": "Point", "coordinates": [134.961688, 34.934281]}}, {"type": "Feature", "properties": {"stop_id": "12_0", "stop_name": "上中第二公園", "zone_id": "12_0", "location_type": "0"}, "geometry": {"type": "Point", "coordinates": [134.962594, 34.926299]}}, {"type": "Feature", "properties": {"stop_id": "13_0", "stop_name": "加東市民病院", "zone_id": "13_0", "location_type": "0"}, "geometry": {"type": "Point", "coordinates": [134.963195, 34.922574]}}, {"type": "Feature", "properties": {"stop_id": "14_0", "stop_name": "神姫バス（株）社案内所", "zone_id": "14_0", "location_type": "0"}, "geometry": {"type": "Point", "coordinates": [134.96414, 34.916547]}}, {"type": "Feature", "properties": {"stop_id": "15_0", "stop_name": "イオン社店", "zone_id": "15_0", "location_type": "0"}, "geometry": {"type": "Point", "coordinates": [134.961877, 34.914288]}}, {"type": "Feature", "properties": {"stop_id": "16_0", "stop_name": "ボンマルシェ社店", "zone_id": "16_0", "location_type": "0"}, "geometry": {"type": "Point", "coordinates": [134.969265, 34.912209]}}, {"type": "Feature", "properties": {"stop_id": "17_0", "stop_name": "Bio南ターミナル", "zone_id": "17_0", "location_type": "0"}, "geometry": {"type": "Point", "coordinates": [134.961266, 34.91343]}}]}