{"type": "FeatureCollection", "name": "stops", "crs": {"type": "name", "properties": {"name": "urn:ogc:def:crs:OGC:1.3:CRS84"}}, "features": [{"type": "Feature", "properties": {"stop_id": "101_01", "stop_name": "奥出橋", "zone_id": "101_01", "location_type": "0"}, "geometry": {"type": "Point", "coordinates": [136.53941, 34.4101427]}}, {"type": "Feature", "properties": {"stop_id": "102_01", "stop_name": "注連指大橋", "zone_id": "102_01", "location_type": "0"}, "geometry": {"type": "Point", "coordinates": [136.539235, 34.4143672]}}, {"type": "Feature", "properties": {"stop_id": "103_01", "stop_name": "注連指", "zone_id": "103_01", "location_type": "0"}, "geometry": {"type": "Point", "coordinates": [136.53771, 34.41663]}}, {"type": "Feature", "properties": {"stop_id": "104_01", "stop_name": "集会所前", "zone_id": "104_01", "location_type": "0"}, "geometry": {"type": "Point", "coordinates": [136.53102, 34.42539]}}, {"type": "Feature", "properties": {"stop_id": "105_01", "stop_name": "注連指口", "zone_id": "105_01", "location_type": "0"}, "geometry": {"type": "Point", "coordinates": [136.5323, 34.4330368]}}, {"type": "Feature", "properties": {"stop_id": "106_01", "stop_name": "上田口", "zone_id": "106_01", "location_type": "0"}, "geometry": {"type": "Point", "coordinates": [136.538182, 34.4337808]}}, {"type": "Feature", "properties": {"stop_id": "107_01", "stop_name": "下田口", "zone_id": "107_01", "location_type": "0"}, "geometry": {"type": "Point", "coordinates": [136.54778, 34.4366333]}}, {"type": "Feature", "properties": {"stop_id": "108_01", "stop_name": "麻加江", "zone_id": "108_01", "location_type": "0"}, "geometry": {"type": "Point", "coordinates": [136.55599, 34.437529]}}, {"type": "Feature", "properties": {"stop_id": "109_01", "stop_name": "立花口", "zone_id": "109_01", "location_type": "0"}, "geometry": {"type": "Point", "coordinates": [136.559761, 34.436864]}}, {"type": "Feature", "properties": {"stop_id": "110_01", "stop_name": "立花", "zone_id": "110_01", "location_type": "0"}, "geometry": {"type": "Point", "coordinates": [136.566957, 34.427865]}}, {"type": "Feature", "properties": {"stop_id": "111_01", "stop_name": "坂井中", "zone_id": "111_01", "location_type": "0"}, "geometry": {"type": "Point", "coordinates": [136.56474, 34.44012]}}, {"type": "Feature", "properties": {"stop_id": "112_01", "stop_name": "坂井", "zone_id": "112_01", "location_type": "0"}, "geometry": {"type": "Point", "coordinates": [136.564442, 34.4365035]}}, {"type": "Feature", "properties": {"stop_id": "112_02", "stop_name": "坂井", "zone_id": "112_02", "location_type": "0"}, "geometry": {"type": "Point", "coordinates": [136.564298, 34.4366402]}}, {"type": "Feature", "properties": {"stop_id": "113_01", "stop_name": "長原保育所", "zone_id": "113_01", "location_type": "0"}, "geometry": {"type": "Point", "coordinates": [136.56952, 34.43136]}}, {"type": "Feature", "properties": {"stop_id": "113_02", "stop_name": "長原保育所", "zone_id": "113_02", "location_type": "0"}, "geometry": {"type": "Point", "coordinates": [136.5694, 34.43134]}}, {"type": "Feature", "properties": {"stop_id": "114_01", "stop_name": "長原", "zone_id": "114_01", "location_type": "0"}, "geometry": {"type": "Point", "coordinates": [136.573467, 34.429628]}}, {"type": "Feature", "properties": {"stop_id": "115_01", "stop_name": "鮠川大橋", "zone_id": "115_01", "location_type": "0"}, "geometry": {"type": "Point", "coordinates": [136.58179, 34.4296832]}}, {"type": "Feature", "properties": {"stop_id": "115_02", "stop_name": "鮠川大橋", "zone_id": "115_02", "location_type": "0"}, "geometry": {"type": "Point", "coordinates": [136.581693, 34.4290806]}}, {"type": "Feature", "properties": {"stop_id": "116_01", "stop_name": "鮠川", "zone_id": "116_01", "location_type": "0"}, "geometry": {"type": "Point", "coordinates": [136.584137, 34.4307153]}}, {"type": "Feature", "properties": {"stop_id": "117_01", "stop_name": "立岡", "zone_id": "117_01", "location_type": "0"}, "geometry": {"type": "Point", "coordinates": [136.589047, 34.434219]}}, {"type": "Feature", "properties": {"stop_id": "118_01", "stop_name": "大久保", "zone_id": "118_01", "location_type": "0"}, "geometry": {"type": "Point", "coordinates": [136.592626, 34.4376897]}}, {"type": "Feature", "properties": {"stop_id": "119_01", "stop_name": "平生", "zone_id": "119_01", "location_type": "0"}, "geometry": {"type": "Point", "coordinates": [136.59559973, 34.440137488]}}, {"type": "Feature", "properties": {"stop_id": "119_02", "stop_name": "平生", "zone_id": "119_02", "location_type": "0"}, "geometry": {"type": "Point", "coordinates": [136.59626592, 34.440355811]}}, {"type": "Feature", "properties": {"stop_id": "120_01", "stop_name": "平生中", "zone_id": "120_01", "location_type": "0"}, "geometry": {"type": "Point", "coordinates": [136.597183, 34.4446594]}}, {"type": "Feature", "properties": {"stop_id": "121_01", "stop_name": "平生口", "zone_id": "121_01", "location_type": "0"}, "geometry": {"type": "Point", "coordinates": [136.601978, 34.441692]}}, {"type": "Feature", "properties": {"stop_id": "122_01", "stop_name": "牧戸", "zone_id": "122_01", "location_type": "0"}, "geometry": {"type": "Point", "coordinates": [136.610713, 34.4406681]}}, {"type": "Feature", "properties": {"stop_id": "122_02", "stop_name": "牧戸", "zone_id": "122_02", "location_type": "0"}, "geometry": {"type": "Point", "coordinates": [136.611299, 34.44042327]}}, {"type": "Feature", "properties": {"stop_id": "123_01", "stop_name": "度会団地中", "zone_id": "123_01", "location_type": "0"}, "geometry": {"type": "Point", "coordinates": [136.61385, 34.4353347]}}, {"type": "Feature", "properties": {"stop_id": "124_01", "stop_name": "度会棚橋", "zone_id": "124_01", "location_type": "0"}, "geometry": {"type": "Point", "coordinates": [136.622976, 34.435399]}}, {"type": "Feature", "properties": {"stop_id": "125_01", "stop_name": "度会町役場前", "zone_id": "125_01", "location_type": "0"}, "geometry": {"type": "Point", "coordinates": [136.622199, 34.438607]}}, {"type": "Feature", "properties": {"stop_id": "126_01", "stop_name": "コミュニティセンター", "zone_id": "126_01", "location_type": "0"}, "geometry": {"type": "Point", "coordinates": [136.624048, 34.435961]}}, {"type": "Feature", "properties": {"stop_id": "126_02", "stop_name": "コミュニティセンター", "zone_id": "126_02", "location_type": "0"}, "geometry": {"type": "Point", "coordinates": [136.62398, 34.43594]}}, {"type": "Feature", "properties": {"stop_id": "127_01", "stop_name": "度会特別支援学校前", "zone_id": "127_01", "location_type": "0"}, "geometry": {"type": "Point", "coordinates": [136.628049, 34.437001]}}, {"type": "Feature", "properties": {"stop_id": "127_02", "stop_name": "度会特別支援学校前", "zone_id": "127_02", "location_type": "0"}, "geometry": {"type": "Point", "coordinates": [136.62762, 34.43672]}}, {"type": "Feature", "properties": {"stop_id": "128_01", "stop_name": "南伊勢高校度会校舎前", "zone_id": "128_01", "location_type": "0"}, "geometry": {"type": "Point", "coordinates": [136.631349, 34.439019]}}, {"type": "Feature", "properties": {"stop_id": "128_02", "stop_name": "南伊勢高校度会校舎前", "zone_id": "128_02", "location_type": "0"}, "geometry": {"type": "Point", "coordinates": [136.631559, 34.438971]}}, {"type": "Feature", "properties": {"stop_id": "129_01", "stop_name": "大野木", "zone_id": "129_01", "location_type": "0"}, "geometry": {"type": "Point", "coordinates": [136.636601, 34.442899]}}, {"type": "Feature", "properties": {"stop_id": "129_02", "stop_name": "大野木", "zone_id": "129_02", "location_type": "0"}, "geometry": {"type": "Point", "coordinates": [136.6367, 34.44285]}}, {"type": "Feature", "properties": {"stop_id": "130_01", "stop_name": "グッディ", "zone_id": "130_01", "location_type": "0"}, "geometry": {"type": "Point", "coordinates": [136.64053, 34.44662]}}, {"type": "Feature", "properties": {"stop_id": "131_01", "stop_name": "大野木東", "zone_id": "131_01", "location_type": "0"}, "geometry": {"type": "Point", "coordinates": [136.63973, 34.44455]}}, {"type": "Feature", "properties": {"stop_id": "131_02", "stop_name": "大野木東", "zone_id": "131_02", "location_type": "0"}, "geometry": {"type": "Point", "coordinates": [136.639611, 34.444554]}}, {"type": "Feature", "properties": {"stop_id": "132_01", "stop_name": "大泉寺前", "zone_id": "132_01", "location_type": "0"}, "geometry": {"type": "Point", "coordinates": [136.63934, 34.43703]}}, {"type": "Feature", "properties": {"stop_id": "132_02", "stop_name": "大泉寺前", "zone_id": "132_02", "location_type": "0"}, "geometry": {"type": "Point", "coordinates": [136.639525, 34.437165]}}, {"type": "Feature", "properties": {"stop_id": "133_01", "stop_name": "宮リバー度会パーク前", "zone_id": "133_01", "location_type": "0"}, "geometry": {"type": "Point", "coordinates": [136.63054, 34.43218]}}, {"type": "Feature", "properties": {"stop_id": "133_02", "stop_name": "宮リバー度会パーク前", "zone_id": "133_02", "location_type": "0"}, "geometry": {"type": "Point", "coordinates": [136.63062, 34.43229]}}, {"type": "Feature", "properties": {"stop_id": "134_01", "stop_name": "當津", "zone_id": "134_01", "location_type": "0"}, "geometry": {"type": "Point", "coordinates": [136.586811537924, 34.4270011888884]}}, {"type": "Feature", "properties": {"stop_id": "135_01", "stop_name": "茶屋広", "zone_id": "135_01", "location_type": "0"}, "geometry": {"type": "Point", "coordinates": [136.584666, 34.424713]}}, {"type": "Feature", "properties": {"stop_id": "136_01", "stop_name": "田間", "zone_id": "136_01", "location_type": "0"}, "geometry": {"type": "Point", "coordinates": [136.603634, 34.436319]}}, {"type": "Feature", "properties": {"stop_id": "137_01", "stop_name": "上久具", "zone_id": "137_01", "location_type": "0"}, "geometry": {"type": "Point", "coordinates": [136.608801, 34.432031]}}, {"type": "Feature", "properties": {"stop_id": "138_01", "stop_name": "矢村", "zone_id": "138_01", "location_type": "0"}, "geometry": {"type": "Point", "coordinates": [136.611683, 34.427545]}}, {"type": "Feature", "properties": {"stop_id": "139_01", "stop_name": "山川中", "zone_id": "139_01", "location_type": "0"}, "geometry": {"type": "Point", "coordinates": [136.61299, 34.42741]}}, {"type": "Feature", "properties": {"stop_id": "140_01", "stop_name": "下久具", "zone_id": "140_01", "location_type": "0"}, "geometry": {"type": "Point", "coordinates": [136.61899, 34.42785]}}, {"type": "Feature", "properties": {"stop_id": "141_01", "stop_name": "内城田大橋", "zone_id": "141_01", "location_type": "0"}, "geometry": {"type": "Point", "coordinates": [136.624183, 34.429374]}}, {"type": "Feature", "properties": {"stop_id": "141_02", "stop_name": "内城田大橋", "zone_id": "141_02", "location_type": "0"}, "geometry": {"type": "Point", "coordinates": [136.62428, 34.42925]}}, {"type": "Feature", "properties": {"stop_id": "142_01", "stop_name": "棚橋南", "zone_id": "142_01", "location_type": "0"}, "geometry": {"type": "Point", "coordinates": [136.62425, 34.43481]}}, {"type": "Feature", "properties": {"stop_id": "142_02", "stop_name": "棚橋南", "zone_id": "142_02", "location_type": "0"}, "geometry": {"type": "Point", "coordinates": [136.62427, 34.43506]}}, {"type": "Feature", "properties": {"stop_id": "143_01", "stop_name": "川上", "zone_id": "143_01", "location_type": "0"}, "geometry": {"type": "Point", "coordinates": [136.57136, 34.3394809]}}, {"type": "Feature", "properties": {"stop_id": "144_01", "stop_name": "川上口", "zone_id": "144_01", "location_type": "0"}, "geometry": {"type": "Point", "coordinates": [136.578093, 34.338154]}}, {"type": "Feature", "properties": {"stop_id": "145_01", "stop_name": "中井出", "zone_id": "145_01", "location_type": "0"}, "geometry": {"type": "Point", "coordinates": [136.592322, 34.34047714]}}, {"type": "Feature", "properties": {"stop_id": "146_01", "stop_name": "岩ノ鼻", "zone_id": "146_01", "location_type": "0"}, "geometry": {"type": "Point", "coordinates": [136.59429, 34.34214]}}, {"type": "Feature", "properties": {"stop_id": "146_02", "stop_name": "岩ノ鼻", "zone_id": "146_02", "location_type": "0"}, "geometry": {"type": "Point", "coordinates": [136.59404, 34.34165]}}, {"type": "Feature", "properties": {"stop_id": "147_01", "stop_name": "脇出南", "zone_id": "147_01", "location_type": "0"}, "geometry": {"type": "Point", "coordinates": [136.58911, 34.34905]}}, {"type": "Feature", "properties": {"stop_id": "148_01", "stop_name": "一之瀬公民館", "zone_id": "148_01", "location_type": "0"}, "geometry": {"type": "Point", "coordinates": [136.588719, 34.3511593]}}, {"type": "Feature", "properties": {"stop_id": "149_01", "stop_name": "和井野", "zone_id": "149_01", "location_type": "0"}, "geometry": {"type": "Point", "coordinates": [136.595692, 34.3519064]}}, {"type": "Feature", "properties": {"stop_id": "150_01", "stop_name": "脇出", "zone_id": "150_01", "location_type": "0"}, "geometry": {"type": "Point", "coordinates": [136.58868, 34.35275]}}, {"type": "Feature", "properties": {"stop_id": "150_02", "stop_name": "脇出", "zone_id": "150_02", "location_type": "0"}, "geometry": {"type": "Point", "coordinates": [136.58877, 34.35269]}}, {"type": "Feature", "properties": {"stop_id": "151_01", "stop_name": "市場", "zone_id": "151_01", "location_type": "0"}, "geometry": {"type": "Point", "coordinates": [136.588639, 34.35624]}}, {"type": "Feature", "properties": {"stop_id": "152_01", "stop_name": "市場口", "zone_id": "152_01", "location_type": "0"}, "geometry": {"type": "Point", "coordinates": [136.58881, 34.35826]}}, {"type": "Feature", "properties": {"stop_id": "153_01", "stop_name": "柳", "zone_id": "153_01", "location_type": "0"}, "geometry": {"type": "Point", "coordinates": [136.588533, 34.3639393]}}, {"type": "Feature", "properties": {"stop_id": "154_01", "stop_name": "柳口", "zone_id": "154_01", "location_type": "0"}, "geometry": {"type": "Point", "coordinates": [136.587602, 34.3649173]}}, {"type": "Feature", "properties": {"stop_id": "155_01", "stop_name": "小萩", "zone_id": "155_01", "location_type": "0"}, "geometry": {"type": "Point", "coordinates": [136.57867, 34.369371]}}, {"type": "Feature", "properties": {"stop_id": "156_01", "stop_name": "出合橋", "zone_id": "156_01", "location_type": "0"}, "geometry": {"type": "Point", "coordinates": [136.585692, 34.3752707]}}, {"type": "Feature", "properties": {"stop_id": "157_01", "stop_name": "駒ヶ野", "zone_id": "157_01", "location_type": "0"}, "geometry": {"type": "Point", "coordinates": [136.59518, 34.3807]}}, {"type": "Feature", "properties": {"stop_id": "157_02", "stop_name": "駒ヶ野", "zone_id": "157_02", "location_type": "0"}, "geometry": {"type": "Point", "coordinates": [136.59531, 34.38069]}}, {"type": "Feature", "properties": {"stop_id": "158_01", "stop_name": "火打石", "zone_id": "158_01", "location_type": "0"}, "geometry": {"type": "Point", "coordinates": [136.595414, 34.3847199]}}, {"type": "Feature", "properties": {"stop_id": "159_01", "stop_name": "木越", "zone_id": "159_01", "location_type": "0"}, "geometry": {"type": "Point", "coordinates": [136.595853, 34.3882565]}}, {"type": "Feature", "properties": {"stop_id": "160_01", "stop_name": "小川", "zone_id": "160_01", "location_type": "0"}, "geometry": {"type": "Point", "coordinates": [136.588996, 34.387478]}}, {"type": "Feature", "properties": {"stop_id": "161_01", "stop_name": "五ヶ町", "zone_id": "161_01", "location_type": "0"}, "geometry": {"type": "Point", "coordinates": [136.597757, 34.392003]}}, {"type": "Feature", "properties": {"stop_id": "162_01", "stop_name": "日向", "zone_id": "162_01", "location_type": "0"}, "geometry": {"type": "Point", "coordinates": [136.602412, 34.3974489]}}, {"type": "Feature", "properties": {"stop_id": "163_01", "stop_name": "日向中", "zone_id": "163_01", "location_type": "0"}, "geometry": {"type": "Point", "coordinates": [136.603375, 34.395596]}}, {"type": "Feature", "properties": {"stop_id": "164_01", "stop_name": "古河橋", "zone_id": "164_01", "location_type": "0"}, "geometry": {"type": "Point", "coordinates": [136.604004, 34.3999437]}}, {"type": "Feature", "properties": {"stop_id": "165_01", "stop_name": "内野", "zone_id": "165_01", "location_type": "0"}, "geometry": {"type": "Point", "coordinates": [136.604252, 34.402961]}}, {"type": "Feature", "properties": {"stop_id": "166_01", "stop_name": "中之郷", "zone_id": "166_01", "location_type": "0"}, "geometry": {"type": "Point", "coordinates": [136.605095, 34.4052794]}}, {"type": "Feature", "properties": {"stop_id": "167_01", "stop_name": "栗原中", "zone_id": "167_01", "location_type": "0"}, "geometry": {"type": "Point", "coordinates": [136.61108, 34.40837]}}, {"type": "Feature", "properties": {"stop_id": "168_01", "stop_name": "栗原", "zone_id": "168_01", "location_type": "0"}, "geometry": {"type": "Point", "coordinates": [136.6074, 34.40862]}}, {"type": "Feature", "properties": {"stop_id": "168_02", "stop_name": "栗原", "zone_id": "168_02", "location_type": "0"}, "geometry": {"type": "Point", "coordinates": [136.60753, 34.40823]}}, {"type": "Feature", "properties": {"stop_id": "169_01", "stop_name": "西垣内", "zone_id": "169_01", "location_type": "0"}, "geometry": {"type": "Point", "coordinates": [136.6105498, 34.4116]}}, {"type": "Feature", "properties": {"stop_id": "169_02", "stop_name": "西垣内", "zone_id": "169_02", "location_type": "0"}, "geometry": {"type": "Point", "coordinates": [136.61004, 34.41111]}}, {"type": "Feature", "properties": {"stop_id": "170_01", "stop_name": "畦地", "zone_id": "170_01", "location_type": "0"}, "geometry": {"type": "Point", "coordinates": [136.613846, 34.4143528]}}, {"type": "Feature", "properties": {"stop_id": "171_01", "stop_name": "五里山橋", "zone_id": "171_01", "location_type": "0"}, "geometry": {"type": "Point", "coordinates": [136.623074, 34.4216569]}}, {"type": "Feature", "properties": {"stop_id": "172_01", "stop_name": "川口", "zone_id": "172_01", "location_type": "0"}, "geometry": {"type": "Point", "coordinates": [136.625095, 34.424763]}}]}