{"type": "FeatureCollection", "name": "stops", "crs": {"type": "name", "properties": {"name": "urn:ogc:def:crs:OGC:1.3:CRS84"}}, "features": [{"type": "Feature", "properties": {"stop_id": "1_1", "stop_name": "八尾駅", "zone_id": "1_1", "location_type": "0"}, "geometry": {"type": "Point", "coordinates": [137.138387, 36.591197]}}, {"type": "Feature", "properties": {"stop_id": "2_1", "stop_name": "公民館前", "zone_id": "2_1", "location_type": "0"}, "geometry": {"type": "Point", "coordinates": [137.139331, 36.58983]}}, {"type": "Feature", "properties": {"stop_id": "3_1", "stop_name": "福島第一", "zone_id": "3_1", "location_type": "0"}, "geometry": {"type": "Point", "coordinates": [137.140515, 36.588501]}}, {"type": "Feature", "properties": {"stop_id": "4_1", "stop_name": "八尾行政サービスセンター前", "zone_id": "4_1", "location_type": "0"}, "geometry": {"type": "Point", "coordinates": [137.140737, 36.585106]}}, {"type": "Feature", "properties": {"stop_id": "5_1", "stop_name": "健康福祉総合センター前", "zone_id": "5_1", "location_type": "0"}, "geometry": {"type": "Point", "coordinates": [137.138069, 36.582631]}}, {"type": "Feature", "properties": {"stop_id": "6_1", "stop_name": "天の平", "zone_id": "6_1", "location_type": "0"}, "geometry": {"type": "Point", "coordinates": [137.13471, 36.592035]}}, {"type": "Feature", "properties": {"stop_id": "7_1", "stop_name": "望岳台", "zone_id": "7_1", "location_type": "0"}, "geometry": {"type": "Point", "coordinates": [137.13305, 36.600103]}}, {"type": "Feature", "properties": {"stop_id": "8_1", "stop_name": "保内公民館前", "zone_id": "8_1", "location_type": "0"}, "geometry": {"type": "Point", "coordinates": [137.131901, 36.605543]}}, {"type": "Feature", "properties": {"stop_id": "9_1", "stop_name": "八尾コミュニティセンター前", "zone_id": "9_1", "location_type": "0"}, "geometry": {"type": "Point", "coordinates": [137.143895, 36.600747]}}, {"type": "Feature", "properties": {"stop_id": "10_1", "stop_name": "上井田", "zone_id": "10_1", "location_type": "0"}, "geometry": {"type": "Point", "coordinates": [137.144973, 36.590344]}}, {"type": "Feature", "properties": {"stop_id": "11_1", "stop_name": "久婦須橋", "zone_id": "11_1", "location_type": "0"}, "geometry": {"type": "Point", "coordinates": [137.14318, 36.584834]}}, {"type": "Feature", "properties": {"stop_id": "12_1", "stop_name": "聞名寺下", "zone_id": "12_1", "location_type": "0"}, "geometry": {"type": "Point", "coordinates": [137.138975, 36.580769]}}, {"type": "Feature", "properties": {"stop_id": "13_1", "stop_name": "聞名寺前", "zone_id": "13_1", "location_type": "0"}, "geometry": {"type": "Point", "coordinates": [137.138025, 36.579202]}}, {"type": "Feature", "properties": {"stop_id": "14_1", "stop_name": "八尾ふらっと館前", "zone_id": "14_1", "location_type": "0"}, "geometry": {"type": "Point", "coordinates": [137.137782, 36.578543]}}, {"type": "Feature", "properties": {"stop_id": "15_1", "stop_name": "おわら資料館前", "zone_id": "15_1", "location_type": "0"}, "geometry": {"type": "Point", "coordinates": [137.135819, 36.576834]}}, {"type": "Feature", "properties": {"stop_id": "16_1", "stop_name": "梅苑町公民館前", "zone_id": "16_1", "location_type": "0"}, "geometry": {"type": "Point", "coordinates": [137.136139, 36.573183]}}, {"type": "Feature", "properties": {"stop_id": "17_1", "stop_name": "鏡町", "zone_id": "17_1", "location_type": "0"}, "geometry": {"type": "Point", "coordinates": [137.134585, 36.576737]}}, {"type": "Feature", "properties": {"stop_id": "18_1", "stop_name": "曳山展示館前", "zone_id": "18_1", "location_type": "0"}, "geometry": {"type": "Point", "coordinates": [137.131325, 36.575563]}}, {"type": "Feature", "properties": {"stop_id": "19_1", "stop_name": "西新町", "zone_id": "19_1", "location_type": "0"}, "geometry": {"type": "Point", "coordinates": [137.128928, 36.574665]}}, {"type": "Feature", "properties": {"stop_id": "20_1", "stop_name": "西新町口", "zone_id": "20_1", "location_type": "0"}, "geometry": {"type": "Point", "coordinates": [137.127828, 36.574586]}}, {"type": "Feature", "properties": {"stop_id": "21_1", "stop_name": "上新町口", "zone_id": "21_1", "location_type": "0"}, "geometry": {"type": "Point", "coordinates": [137.132226, 36.577283]}}, {"type": "Feature", "properties": {"stop_id": "22_1", "stop_name": "横町", "zone_id": "22_1", "location_type": "0"}, "geometry": {"type": "Point", "coordinates": [137.135882, 36.57815]}}, {"type": "Feature", "properties": {"stop_id": "23_1", "stop_name": "今町", "zone_id": "23_1", "location_type": "0"}, "geometry": {"type": "Point", "coordinates": [137.137652, 36.579351]}}, {"type": "Feature", "properties": {"stop_id": "24_1", "stop_name": "八尾小学校前", "zone_id": "24_1", "location_type": "0"}, "geometry": {"type": "Point", "coordinates": [137.137044, 36.576406]}}, {"type": "Feature", "properties": {"stop_id": "25_1", "stop_name": "角間公民館前", "zone_id": "25_1", "location_type": "0"}, "geometry": {"type": "Point", "coordinates": [137.135123, 36.570156]}}, {"type": "Feature", "properties": {"stop_id": "26_1", "stop_name": "梅谷橋", "zone_id": "26_1", "location_type": "0"}, "geometry": {"type": "Point", "coordinates": [137.140913, 36.546002]}}, {"type": "Feature", "properties": {"stop_id": "27_1", "stop_name": "上笹原公民館前", "zone_id": "27_1", "location_type": "0"}, "geometry": {"type": "Point", "coordinates": [137.149951, 36.549099]}}, {"type": "Feature", "properties": {"stop_id": "28_1", "stop_name": "掛畑", "zone_id": "28_1", "location_type": "0"}, "geometry": {"type": "Point", "coordinates": [137.157662, 36.555791]}}, {"type": "Feature", "properties": {"stop_id": "29_1", "stop_name": "上掛畑", "zone_id": "29_1", "location_type": "0"}, "geometry": {"type": "Point", "coordinates": [137.158227, 36.547913]}}, {"type": "Feature", "properties": {"stop_id": "30_1", "stop_name": "上黒瀬", "zone_id": "30_1", "location_type": "0"}, "geometry": {"type": "Point", "coordinates": [137.159509, 36.543255]}}, {"type": "Feature", "properties": {"stop_id": "31_1", "stop_name": "桐谷口", "zone_id": "31_1", "location_type": "0"}, "geometry": {"type": "Point", "coordinates": [137.180154, 36.524276]}}, {"type": "Feature", "properties": {"stop_id": "32_1", "stop_name": "桐谷", "zone_id": "32_1", "location_type": "0"}, "geometry": {"type": "Point", "coordinates": [137.181839, 36.521596]}}, {"type": "Feature", "properties": {"stop_id": "33_1", "stop_name": "杉原公民館前", "zone_id": "33_1", "location_type": "0"}, "geometry": {"type": "Point", "coordinates": [137.162967, 36.601131]}}, {"type": "Feature", "properties": {"stop_id": "34_1", "stop_name": "大杉公民館前", "zone_id": "34_1", "location_type": "0"}, "geometry": {"type": "Point", "coordinates": [137.161929, 36.604632]}}, {"type": "Feature", "properties": {"stop_id": "35_1", "stop_name": "大杉", "zone_id": "35_1", "location_type": "0"}, "geometry": {"type": "Point", "coordinates": [137.159321, 36.609144]}}, {"type": "Feature", "properties": {"stop_id": "36_1", "stop_name": "杉田会館前", "zone_id": "36_1", "location_type": "0"}, "geometry": {"type": "Point", "coordinates": [137.169293, 36.612073]}}, {"type": "Feature", "properties": {"stop_id": "37_1", "stop_name": "杉田東部公民館前", "zone_id": "37_1", "location_type": "0"}, "geometry": {"type": "Point", "coordinates": [137.17458, 36.611571]}}, {"type": "Feature", "properties": {"stop_id": "38_1", "stop_name": "薄島", "zone_id": "38_1", "location_type": "0"}, "geometry": {"type": "Point", "coordinates": [137.175487, 36.602671]}}, {"type": "Feature", "properties": {"stop_id": "39_1", "stop_name": "深谷北部", "zone_id": "39_1", "location_type": "0"}, "geometry": {"type": "Point", "coordinates": [137.159366, 36.595341]}}, {"type": "Feature", "properties": {"stop_id": "40_1", "stop_name": "Aコープウインズ前", "zone_id": "40_1", "location_type": "0"}, "geometry": {"type": "Point", "coordinates": [137.148022, 36.595122]}}, {"type": "Feature", "properties": {"stop_id": "41_1", "stop_name": "八尾高校前", "zone_id": "41_1", "location_type": "0"}, "geometry": {"type": "Point", "coordinates": [137.130685, 36.585403]}}, {"type": "Feature", "properties": {"stop_id": "42_1", "stop_name": "小長谷", "zone_id": "42_1", "location_type": "0"}, "geometry": {"type": "Point", "coordinates": [137.149282, 36.581156]}}, {"type": "Feature", "properties": {"stop_id": "43_1", "stop_name": "小長谷南口", "zone_id": "43_1", "location_type": "0"}, "geometry": {"type": "Point", "coordinates": [137.151482, 36.579499]}}, {"type": "Feature", "properties": {"stop_id": "44_1", "stop_name": "下新村口", "zone_id": "44_1", "location_type": "0"}, "geometry": {"type": "Point", "coordinates": [137.152994, 36.577232]}}, {"type": "Feature", "properties": {"stop_id": "45_1", "stop_name": "旧樫尾小学校前", "zone_id": "45_1", "location_type": "0"}, "geometry": {"type": "Point", "coordinates": [137.158148, 36.57098]}}, {"type": "Feature", "properties": {"stop_id": "46_1", "stop_name": "樫尾", "zone_id": "46_1", "location_type": "0"}, "geometry": {"type": "Point", "coordinates": [137.159351, 36.567896]}}, {"type": "Feature", "properties": {"stop_id": "47_1", "stop_name": "岩屋", "zone_id": "47_1", "location_type": "0"}, "geometry": {"type": "Point", "coordinates": [137.161542, 36.564032]}}, {"type": "Feature", "properties": {"stop_id": "48_1", "stop_name": "本法寺下", "zone_id": "48_1", "location_type": "0"}, "geometry": {"type": "Point", "coordinates": [137.160038, 36.555777]}}, {"type": "Feature", "properties": {"stop_id": "49_1", "stop_name": "高熊", "zone_id": "49_1", "location_type": "0"}, "geometry": {"type": "Point", "coordinates": [137.125405, 36.57297]}}, {"type": "Feature", "properties": {"stop_id": "50_1", "stop_name": "高熊ふれあいセンター前", "zone_id": "50_1", "location_type": "0"}, "geometry": {"type": "Point", "coordinates": [137.125748, 36.575263]}}, {"type": "Feature", "properties": {"stop_id": "51_1", "stop_name": "谷橋", "zone_id": "51_1", "location_type": "0"}, "geometry": {"type": "Point", "coordinates": [137.117423, 36.573091]}}, {"type": "Feature", "properties": {"stop_id": "52_1", "stop_name": "谷内", "zone_id": "52_1", "location_type": "0"}, "geometry": {"type": "Point", "coordinates": [137.114443, 36.571959]}}, {"type": "Feature", "properties": {"stop_id": "53_1", "stop_name": "室牧地区センター前", "zone_id": "53_1", "location_type": "0"}, "geometry": {"type": "Point", "coordinates": [137.110957, 36.571405]}}, {"type": "Feature", "properties": {"stop_id": "54_1", "stop_name": "中村", "zone_id": "54_1", "location_type": "0"}, "geometry": {"type": "Point", "coordinates": [137.108814, 36.570023]}}, {"type": "Feature", "properties": {"stop_id": "55_1", "stop_name": "上野", "zone_id": "55_1", "location_type": "0"}, "geometry": {"type": "Point", "coordinates": [137.106825, 36.566847]}}, {"type": "Feature", "properties": {"stop_id": "56_1", "stop_name": "柚木", "zone_id": "56_1", "location_type": "0"}, "geometry": {"type": "Point", "coordinates": [137.104318, 36.565892]}}, {"type": "Feature", "properties": {"stop_id": "58_1", "stop_name": "大開", "zone_id": "58_1", "location_type": "0"}, "geometry": {"type": "Point", "coordinates": [137.169805, 36.607759]}}, {"type": "Feature", "properties": {"stop_id": "59_1", "stop_name": "杉田東", "zone_id": "59_1", "location_type": "0"}, "geometry": {"type": "Point", "coordinates": [137.174704, 36.610889]}}, {"type": "Feature", "properties": {"stop_id": "67_1", "stop_name": "西葛坂", "zone_id": "67_1", "location_type": "0"}, "geometry": {"type": "Point", "coordinates": [137.126891, 36.570492]}}, {"type": "Feature", "properties": {"stop_id": "68_1", "stop_name": "三和", "zone_id": "68_1", "location_type": "0"}, "geometry": {"type": "Point", "coordinates": [137.126501, 36.557635]}}, {"type": "Feature", "properties": {"stop_id": "69_1", "stop_name": "新名", "zone_id": "69_1", "location_type": "0"}, "geometry": {"type": "Point", "coordinates": [137.121545, 36.557103]}}, {"type": "Feature", "properties": {"stop_id": "70_1", "stop_name": "乗嶺", "zone_id": "70_1", "location_type": "0"}, "geometry": {"type": "Point", "coordinates": [137.118764, 36.555026]}}, {"type": "Feature", "properties": {"stop_id": "71_1", "stop_name": "下仁歩", "zone_id": "71_1", "location_type": "0"}, "geometry": {"type": "Point", "coordinates": [137.112851, 36.543831]}}, {"type": "Feature", "properties": {"stop_id": "72_1", "stop_name": "中仁歩", "zone_id": "72_1", "location_type": "0"}, "geometry": {"type": "Point", "coordinates": [137.110483, 36.540624]}}, {"type": "Feature", "properties": {"stop_id": "73_1", "stop_name": "上仁歩", "zone_id": "73_1", "location_type": "0"}, "geometry": {"type": "Point", "coordinates": [137.110272, 36.537432]}}, {"type": "Feature", "properties": {"stop_id": "74_1", "stop_name": "入谷", "zone_id": "74_1", "location_type": "0"}, "geometry": {"type": "Point", "coordinates": [137.108233, 36.534246]}}, {"type": "Feature", "properties": {"stop_id": "75_1", "stop_name": "正間", "zone_id": "75_1", "location_type": "0"}, "geometry": {"type": "Point", "coordinates": [137.090403, 36.530425]}}, {"type": "Feature", "properties": {"stop_id": "76_1", "stop_name": "川戸", "zone_id": "76_1", "location_type": "0"}, "geometry": {"type": "Point", "coordinates": [137.064784, 36.505764]}}, {"type": "Feature", "properties": {"stop_id": "77_1", "stop_name": "内名口", "zone_id": "77_1", "location_type": "0"}, "geometry": {"type": "Point", "coordinates": [137.08544, 36.475681]}}, {"type": "Feature", "properties": {"stop_id": "78_1", "stop_name": "内名", "zone_id": "78_1", "location_type": "0"}, "geometry": {"type": "Point", "coordinates": [137.085275, 36.47337]}}, {"type": "Feature", "properties": {"stop_id": "79_1", "stop_name": "田ノ頭", "zone_id": "79_1", "location_type": "0"}, "geometry": {"type": "Point", "coordinates": [137.084921, 36.463858]}}, {"type": "Feature", "properties": {"stop_id": "80_1", "stop_name": "西ヶ原", "zone_id": "80_1", "location_type": "0"}, "geometry": {"type": "Point", "coordinates": [137.084695, 36.456444]}}, {"type": "Feature", "properties": {"stop_id": "81_1", "stop_name": "東原", "zone_id": "81_1", "location_type": "0"}, "geometry": {"type": "Point", "coordinates": [137.083813, 36.448891]}}, {"type": "Feature", "properties": {"stop_id": "82_1", "stop_name": "庵谷", "zone_id": "82_1", "location_type": "0"}, "geometry": {"type": "Point", "coordinates": [137.08135, 36.436046]}}, {"type": "Feature", "properties": {"stop_id": "83_1", "stop_name": "大長谷温泉", "zone_id": "83_1", "location_type": "0"}, "geometry": {"type": "Point", "coordinates": [137.08247, 36.433115]}}, {"type": "Feature", "properties": {"stop_id": "84_1", "stop_name": "水谷", "zone_id": "84_1", "location_type": "0"}, "geometry": {"type": "Point", "coordinates": [137.129201, 36.599937]}}, {"type": "Feature", "properties": {"stop_id": "85_1", "stop_name": "SMK前", "zone_id": "85_1", "location_type": "0"}, "geometry": {"type": "Point", "coordinates": [137.122935, 36.593502]}}, {"type": "Feature", "properties": {"stop_id": "86_1", "stop_name": "団地センター前", "zone_id": "86_1", "location_type": "0"}, "geometry": {"type": "Point", "coordinates": [137.120871, 36.589838]}}, {"type": "Feature", "properties": {"stop_id": "87_1", "stop_name": "ユニゾン前", "zone_id": "87_1", "location_type": "0"}, "geometry": {"type": "Point", "coordinates": [137.122601, 36.587905]}}, {"type": "Feature", "properties": {"stop_id": "88_1", "stop_name": "富士通前", "zone_id": "88_1", "location_type": "0"}, "geometry": {"type": "Point", "coordinates": [137.124467, 36.586608]}}, {"type": "Feature", "properties": {"stop_id": "89_1", "stop_name": "団地東", "zone_id": "89_1", "location_type": "0"}, "geometry": {"type": "Point", "coordinates": [137.126195, 36.586547]}}, {"type": "Feature", "properties": {"stop_id": "90_1", "stop_name": "KOKUSAI ELECTRIC前", "zone_id": "90_1", "location_type": "0"}, "geometry": {"type": "Point", "coordinates": [137.125631, 36.588728]}}, {"type": "Feature", "properties": {"stop_id": "91_1", "stop_name": "上新田グリーンタウン公園前", "zone_id": "91_1", "location_type": "0"}, "geometry": {"type": "Point", "coordinates": [137.130372, 36.605885]}}, {"type": "Feature", "properties": {"stop_id": "92_1", "stop_name": "中新田公民館前", "zone_id": "92_1", "location_type": "0"}, "geometry": {"type": "Point", "coordinates": [137.128269, 36.612122]}}, {"type": "Feature", "properties": {"stop_id": "93_1", "stop_name": "下新田公民館下交差点", "zone_id": "93_1", "location_type": "0"}, "geometry": {"type": "Point", "coordinates": [137.123088, 36.614792]}}, {"type": "Feature", "properties": {"stop_id": "94_1", "stop_name": "三田消防器具庫前", "zone_id": "94_1", "location_type": "0"}, "geometry": {"type": "Point", "coordinates": [137.119177, 36.621909]}}, {"type": "Feature", "properties": {"stop_id": "95_1", "stop_name": "奥田", "zone_id": "95_1", "location_type": "0"}, "geometry": {"type": "Point", "coordinates": [137.127344, 36.618827]}}, {"type": "Feature", "properties": {"stop_id": "96_1", "stop_name": "翠尾", "zone_id": "96_1", "location_type": "0"}, "geometry": {"type": "Point", "coordinates": [137.13653, 36.621361]}}, {"type": "Feature", "properties": {"stop_id": "97_1", "stop_name": "田中（西円寺前）", "zone_id": "97_1", "location_type": "0"}, "geometry": {"type": "Point", "coordinates": [137.140018, 36.620025]}}, {"type": "Feature", "properties": {"stop_id": "98_1", "stop_name": "本郷公民館前", "zone_id": "98_1", "location_type": "0"}, "geometry": {"type": "Point", "coordinates": [137.137929, 36.616043]}}, {"type": "Feature", "properties": {"stop_id": "99_1", "stop_name": "高善寺（保内小学校前）", "zone_id": "99_1", "location_type": "0"}, "geometry": {"type": "Point", "coordinates": [137.137999, 36.610958]}}, {"type": "Feature", "properties": {"stop_id": "100_1", "stop_name": "石戸", "zone_id": "100_1", "location_type": "0"}, "geometry": {"type": "Point", "coordinates": [137.140408, 36.599251]}}, {"type": "Feature", "properties": {"stop_id": "101_1", "stop_name": "道畑", "zone_id": "101_1", "location_type": "0"}, "geometry": {"type": "Point", "coordinates": [137.128226, 36.55761]}}, {"type": "Feature", "properties": {"stop_id": "102_1", "stop_name": "宮ノ下", "zone_id": "102_1", "location_type": "0"}, "geometry": {"type": "Point", "coordinates": [137.125863, 36.554081]}}, {"type": "Feature", "properties": {"stop_id": "103_1", "stop_name": "水口", "zone_id": "103_1", "location_type": "0"}, "geometry": {"type": "Point", "coordinates": [137.125587, 36.547405]}}, {"type": "Feature", "properties": {"stop_id": "104_1", "stop_name": "川倉口", "zone_id": "104_1", "location_type": "0"}, "geometry": {"type": "Point", "coordinates": [137.126622, 36.539344]}}, {"type": "Feature", "properties": {"stop_id": "105_1", "stop_name": "川倉", "zone_id": "105_1", "location_type": "0"}, "geometry": {"type": "Point", "coordinates": [137.127104, 36.5356]}}, {"type": "Feature", "properties": {"stop_id": "106_1", "stop_name": "広畑", "zone_id": "106_1", "location_type": "0"}, "geometry": {"type": "Point", "coordinates": [137.118941, 36.518849]}}, {"type": "Feature", "properties": {"stop_id": "107_1", "stop_name": "西松瀬", "zone_id": "107_1", "location_type": "0"}, "geometry": {"type": "Point", "coordinates": [137.128902, 36.506291]}}, {"type": "Feature", "properties": {"stop_id": "108_1", "stop_name": "東町", "zone_id": "108_1", "location_type": "0"}, "geometry": {"type": "Point", "coordinates": [137.136361, 36.57765]}}, {"type": "Feature", "properties": {"stop_id": "109_1", "stop_name": "日東メディック前", "zone_id": "109_1", "location_type": "0"}, "geometry": {"type": "Point", "coordinates": [137.118858, 36.591471]}}, {"type": "Feature", "properties": {"stop_id": "110_1", "stop_name": "喜楽鉱業前", "zone_id": "110_1", "location_type": "0"}, "geometry": {"type": "Point", "coordinates": [137.114362, 36.595054]}}, {"type": "Feature", "properties": {"stop_id": "111_1", "stop_name": "アクティブファーマ前", "zone_id": "111_1", "location_type": "0"}, "geometry": {"type": "Point", "coordinates": [137.117644, 36.595878]}}, {"type": "Feature", "properties": {"stop_id": "112_1", "stop_name": "ユースキン製薬前", "zone_id": "112_1", "location_type": "0"}, "geometry": {"type": "Point", "coordinates": [137.12005, 36.597254]}}, {"type": "Feature", "properties": {"stop_id": "113_1", "stop_name": "河村産業所前", "zone_id": "113_1", "location_type": "0"}, "geometry": {"type": "Point", "coordinates": [137.120097, 36.598641]}}, {"type": "Feature", "properties": {"stop_id": "114_1", "stop_name": "香栄興業前", "zone_id": "114_1", "location_type": "0"}, "geometry": {"type": "Point", "coordinates": [137.122343, 36.599413]}}, {"type": "Feature", "properties": {"stop_id": "116_1", "stop_name": "杉田", "zone_id": "116_1", "location_type": "0"}, "geometry": {"type": "Point", "coordinates": [137.161306, 36.612336]}}, {"type": "Feature", "properties": {"stop_id": "117_1", "stop_name": "滅鬼（西）", "zone_id": "117_1", "location_type": "0"}, "geometry": {"type": "Point", "coordinates": [137.166292, 36.60025]}}, {"type": "Feature", "properties": {"stop_id": "118_1", "stop_name": "旧八尾中学校前", "zone_id": "118_1", "location_type": "0"}, "geometry": {"type": "Point", "coordinates": [137.134583, 36.584932]}}, {"type": "Feature", "properties": {"stop_id": "119_1", "stop_name": "滅鬼", "zone_id": "119_1", "location_type": "0"}, "geometry": {"type": "Point", "coordinates": [137.17516, 36.597815]}}, {"type": "Feature", "properties": {"stop_id": "121_1", "stop_name": "奥田（東）", "zone_id": "121_1", "location_type": "0"}, "geometry": {"type": "Point", "coordinates": [137.130837, 36.619496]}}, {"type": "Feature", "properties": {"stop_id": "122_1", "stop_name": "団地北", "zone_id": "122_1", "location_type": "0"}, "geometry": {"type": "Point", "coordinates": [137.125481, 36.598334]}}, {"type": "Feature", "properties": {"stop_id": "123_1", "stop_name": "中井田", "zone_id": "123_1", "location_type": "0"}, "geometry": {"type": "Point", "coordinates": [137.149462, 36.594716]}}, {"type": "Feature", "properties": {"stop_id": "126_1", "stop_name": "小泉定", "zone_id": "126_1", "location_type": "0"}, "geometry": {"type": "Point", "coordinates": [137.164152, 36.615228]}}, {"type": "Feature", "properties": {"stop_id": "128_1", "stop_name": "福島第二", "zone_id": "128_1", "location_type": "0"}, "geometry": {"type": "Point", "coordinates": [137.141424, 36.58627]}}, {"type": "Feature", "properties": {"stop_id": "129_1", "stop_name": "雇用促進住宅下", "zone_id": "129_1", "location_type": "0"}, "geometry": {"type": "Point", "coordinates": [137.146222, 36.582862]}}, {"type": "Feature", "properties": {"stop_id": "130_1", "stop_name": "村杉", "zone_id": "130_1", "location_type": "0"}, "geometry": {"type": "Point", "coordinates": [137.1552, 36.573285]}}, {"type": "Feature", "properties": {"stop_id": "131_1", "stop_name": "ゆうゆう館", "zone_id": "131_1", "location_type": "0"}, "geometry": {"type": "Point", "coordinates": [137.14042, 36.569328]}}, {"type": "Feature", "properties": {"stop_id": "132_1", "stop_name": "葛坂橋", "zone_id": "132_1", "location_type": "0"}, "geometry": {"type": "Point", "coordinates": [137.127635, 36.567284]}}, {"type": "Feature", "properties": {"stop_id": "133_1", "stop_name": "細滝", "zone_id": "133_1", "location_type": "0"}, "geometry": {"type": "Point", "coordinates": [137.103388, 36.564682]}}, {"type": "Feature", "properties": {"stop_id": "134_1", "stop_name": "八十島", "zone_id": "134_1", "location_type": "0"}, "geometry": {"type": "Point", "coordinates": [137.128472, 36.560939]}}, {"type": "Feature", "properties": {"stop_id": "135_1", "stop_name": "宮腰", "zone_id": "135_1", "location_type": "0"}, "geometry": {"type": "Point", "coordinates": [137.163255, 36.545111]}}, {"type": "Feature", "properties": {"stop_id": "136_1", "stop_name": "布谷口", "zone_id": "136_1", "location_type": "0"}, "geometry": {"type": "Point", "coordinates": [137.118752, 36.524827]}}, {"type": "Feature", "properties": {"stop_id": "137_1", "stop_name": "布谷", "zone_id": "137_1", "location_type": "0"}, "geometry": {"type": "Point", "coordinates": [137.118128, 36.523084]}}, {"type": "Feature", "properties": {"stop_id": "138_1", "stop_name": "旧広畑小学校前", "zone_id": "138_1", "location_type": "0"}, "geometry": {"type": "Point", "coordinates": [137.118061, 36.516559]}}, {"type": "Feature", "properties": {"stop_id": "139_1", "stop_name": "赤石", "zone_id": "139_1", "location_type": "0"}, "geometry": {"type": "Point", "coordinates": [137.122529, 36.510974]}}, {"type": "Feature", "properties": {"stop_id": "140_1", "stop_name": "川倉不動前", "zone_id": "140_1", "location_type": "0"}, "geometry": {"type": "Point", "coordinates": [137.125443, 36.53218]}}, {"type": "Feature", "properties": {"stop_id": "141_1", "stop_name": "野積園前", "zone_id": "141_1", "location_type": "0"}, "geometry": {"type": "Point", "coordinates": [137.125582, 36.550447]}}, {"type": "Feature", "properties": {"stop_id": "142_1", "stop_name": "大下", "zone_id": "142_1", "location_type": "0"}, "geometry": {"type": "Point", "coordinates": [137.113749, 36.547892]}}, {"type": "Feature", "properties": {"stop_id": "143_1", "stop_name": "三ツ松口", "zone_id": "143_1", "location_type": "0"}, "geometry": {"type": "Point", "coordinates": [137.099018, 36.529427]}}, {"type": "Feature", "properties": {"stop_id": "144_1", "stop_name": "三ツ松", "zone_id": "144_1", "location_type": "0"}, "geometry": {"type": "Point", "coordinates": [137.09861, 36.52806]}}, {"type": "Feature", "properties": {"stop_id": "146_1", "stop_name": "島地", "zone_id": "146_1", "location_type": "0"}, "geometry": {"type": "Point", "coordinates": [137.078914, 36.480166]}}, {"type": "Feature", "properties": {"stop_id": "147_1", "stop_name": "上高善寺", "zone_id": "147_1", "location_type": "0"}, "geometry": {"type": "Point", "coordinates": [137.139193, 36.605593]}}, {"type": "Feature", "properties": {"stop_id": "148_1", "stop_name": "八尾スノーセンター前", "zone_id": "148_1", "location_type": "0"}, "geometry": {"type": "Point", "coordinates": [137.128223, 36.564565]}}, {"type": "Feature", "properties": {"stop_id": "149_1", "stop_name": "茗ヶ原公民館前", "zone_id": "149_1", "location_type": "0"}, "geometry": {"type": "Point", "coordinates": [137.140878, 36.554441]}}, {"type": "Feature", "properties": {"stop_id": "150_1", "stop_name": "卯花地区センター前", "zone_id": "150_1", "location_type": "0"}, "geometry": {"type": "Point", "coordinates": [137.149473, 36.564585]}}, {"type": "Feature", "properties": {"stop_id": "18_2", "stop_name": "曳山展示館前", "zone_id": "18_2", "location_type": "0"}, "geometry": {"type": "Point", "coordinates": [137.131235, 36.575473]}}, {"type": "Feature", "properties": {"stop_id": "151_1", "stop_name": "公園前", "zone_id": "151_1", "location_type": "0"}, "geometry": {"type": "Point", "coordinates": [137.133231, 36.576305]}}, {"type": "Feature", "properties": {"stop_id": "152_1", "stop_name": "眼鏡橋", "zone_id": "152_1", "location_type": "0"}, "geometry": {"type": "Point", "coordinates": [137.141279, 36.58312]}}, {"type": "Feature", "properties": {"stop_id": "152_2", "stop_name": "眼鏡橋", "zone_id": "152_2", "location_type": "0"}, "geometry": {"type": "Point", "coordinates": [137.1411, 36.583154]}}, {"type": "Feature", "properties": {"stop_id": "152_3", "stop_name": "眼鏡橋", "zone_id": "152_3", "location_type": "0"}, "geometry": {"type": "Point", "coordinates": [137.141154, 36.583615]}}, {"type": "Feature", "properties": {"stop_id": "17_2", "stop_name": "鏡町", "zone_id": "17_2", "location_type": "0"}, "geometry": {"type": "Point", "coordinates": [137.134346, 36.576977]}}, {"type": "Feature", "properties": {"stop_id": "151_2", "stop_name": "公園前", "zone_id": "151_2", "location_type": "0"}, "geometry": {"type": "Point", "coordinates": [137.133241, 36.576236]}}, {"type": "Feature", "properties": {"stop_id": "153_1", "stop_name": "黒瀬谷交流センター前", "zone_id": "153_1", "location_type": "0"}, "geometry": {"type": "Point", "coordinates": [137.153877, 36.575311]}}, {"type": "Feature", "properties": {"stop_id": "154_1", "stop_name": "八尾駅（東口）", "zone_id": "154_1", "location_type": "0"}, "geometry": {"type": "Point", "coordinates": [137.138203, 36.592194]}}, {"type": "Feature", "properties": {"stop_id": "155_1", "stop_name": "アルビス八尾店前", "zone_id": "155_1", "location_type": "0"}, "geometry": {"type": "Point", "coordinates": [137.150209, 36.599753]}}]}