{"type": "FeatureCollection", "name": "stops", "crs": {"type": "name", "properties": {"name": "urn:ogc:def:crs:OGC:1.3:CRS84"}}, "features": [{"type": "Feature", "properties": {"stop_id": "101_01", "stop_name": "桑名駅前", "zone_id": "101_01", "location_type": "0"}, "geometry": {"type": "Point", "coordinates": [136.684144703041, 35.0657366239573]}}, {"type": "Feature", "properties": {"stop_id": "102_01", "stop_name": "シティホテル前", "zone_id": "102_01", "location_type": "0"}, "geometry": {"type": "Point", "coordinates": [136.686218, 35.064378]}}, {"type": "Feature", "properties": {"stop_id": "102_02", "stop_name": "シティホテル前", "zone_id": "102_02", "location_type": "0"}, "geometry": {"type": "Point", "coordinates": [136.68560218518, 35.064974930183]}}, {"type": "Feature", "properties": {"stop_id": "103_01", "stop_name": "くわなメディアライヴ", "zone_id": "103_01", "location_type": "0"}, "geometry": {"type": "Point", "coordinates": [136.686999279762, 35.0627689907747]}}, {"type": "Feature", "properties": {"stop_id": "103_02", "stop_name": "くわなメディアライヴ", "zone_id": "103_02", "location_type": "0"}, "geometry": {"type": "Point", "coordinates": [136.686886626983, 35.0626460454672]}}, {"type": "Feature", "properties": {"stop_id": "104_01", "stop_name": "総合福祉会館前", "zone_id": "104_01", "location_type": "0"}, "geometry": {"type": "Point", "coordinates": [136.690036177909, 35.0646782412953]}}, {"type": "Feature", "properties": {"stop_id": "104_02", "stop_name": "総合福祉会館前", "zone_id": "104_02", "location_type": "0"}, "geometry": {"type": "Point", "coordinates": [136.69008982209, 35.0643928389368]}}, {"type": "Feature", "properties": {"stop_id": "105_01", "stop_name": "八間通", "zone_id": "105_01", "location_type": "0"}, "geometry": {"type": "Point", "coordinates": [136.690413617653, 35.0662751021874]}}, {"type": "Feature", "properties": {"stop_id": "105_02", "stop_name": "八間通", "zone_id": "105_02", "location_type": "0"}, "geometry": {"type": "Point", "coordinates": [136.690525961971, 35.0663201489059]}}, {"type": "Feature", "properties": {"stop_id": "106_01", "stop_name": "寺町", "zone_id": "106_01", "location_type": "0"}, "geometry": {"type": "Point", "coordinates": [136.691485682209, 35.0666892277992]}}, {"type": "Feature", "properties": {"stop_id": "106_02", "stop_name": "寺町", "zone_id": "106_02", "location_type": "0"}, "geometry": {"type": "Point", "coordinates": [136.691472271164, 35.0665465302603]}}, {"type": "Feature", "properties": {"stop_id": "107_01", "stop_name": "田町", "zone_id": "107_01", "location_type": "0"}, "geometry": {"type": "Point", "coordinates": [136.693854953372, 35.0663001537211]}}, {"type": "Feature", "properties": {"stop_id": "107_02", "stop_name": "田町", "zone_id": "107_02", "location_type": "0"}, "geometry": {"type": "Point", "coordinates": [136.693868364418, 35.066199167315]}}, {"type": "Feature", "properties": {"stop_id": "108_01", "stop_name": "船馬町", "zone_id": "108_01", "location_type": "0"}, "geometry": {"type": "Point", "coordinates": [136.694473804893, 35.0683582188007]}}, {"type": "Feature", "properties": {"stop_id": "108_02", "stop_name": "船馬町", "zone_id": "108_02", "location_type": "0"}, "geometry": {"type": "Point", "coordinates": [136.694650830688, 35.0683779764978]}}, {"type": "Feature", "properties": {"stop_id": "109_01", "stop_name": "六華苑", "zone_id": "109_01", "location_type": "0"}, "geometry": {"type": "Point", "coordinates": [136.693815211149, 35.0707547268171]}}, {"type": "Feature", "properties": {"stop_id": "109_02", "stop_name": "六華苑", "zone_id": "109_02", "location_type": "0"}, "geometry": {"type": "Point", "coordinates": [136.693149, 35.071392]}}, {"type": "Feature", "properties": {"stop_id": "110_01", "stop_name": "六華苑西", "zone_id": "110_01", "location_type": "0"}, "geometry": {"type": "Point", "coordinates": [136.691352148479, 35.0709825232309]}}, {"type": "Feature", "properties": {"stop_id": "110_02", "stop_name": "六華苑西", "zone_id": "110_02", "location_type": "0"}, "geometry": {"type": "Point", "coordinates": [136.691137571758, 35.0705346952134]}}, {"type": "Feature", "properties": {"stop_id": "111_01", "stop_name": "今中町", "zone_id": "111_01", "location_type": "0"}, "geometry": {"type": "Point", "coordinates": [136.690888784061, 35.0683183040813]}}, {"type": "Feature", "properties": {"stop_id": "111_02", "stop_name": "今中町", "zone_id": "111_02", "location_type": "0"}, "geometry": {"type": "Point", "coordinates": [136.690781125454, 35.0683193948856]}}, {"type": "Feature", "properties": {"stop_id": "112_01", "stop_name": "末広町", "zone_id": "112_01", "location_type": "0"}, "geometry": {"type": "Point", "coordinates": [136.689716580356, 35.0669048512742]}}, {"type": "Feature", "properties": {"stop_id": "112_02", "stop_name": "末広町", "zone_id": "112_02", "location_type": "0"}, "geometry": {"type": "Point", "coordinates": [136.689767542327, 35.0670036414709]}}, {"type": "Feature", "properties": {"stop_id": "113_01", "stop_name": "有楽町", "zone_id": "113_01", "location_type": "0"}, "geometry": {"type": "Point", "coordinates": [136.685463160713, 35.0676868515055]}}, {"type": "Feature", "properties": {"stop_id": "113_02", "stop_name": "有楽町", "zone_id": "113_02", "location_type": "0"}, "geometry": {"type": "Point", "coordinates": [136.685860127647, 35.0677351484873]}}, {"type": "Feature", "properties": {"stop_id": "114_01", "stop_name": "市役所前", "zone_id": "114_01", "location_type": "0"}, "geometry": {"type": "Point", "coordinates": [136.685218, 35.062964]}}, {"type": "Feature", "properties": {"stop_id": "115_01", "stop_name": "桑高口", "zone_id": "115_01", "location_type": "0"}, "geometry": {"type": "Point", "coordinates": [136.679806626983, 35.0640026320818]}}, {"type": "Feature", "properties": {"stop_id": "115_02", "stop_name": "桑高口", "zone_id": "115_02", "location_type": "0"}, "geometry": {"type": "Point", "coordinates": [136.679955489584, 35.0640531266592]}}, {"type": "Feature", "properties": {"stop_id": "116_01", "stop_name": "徳成町", "zone_id": "116_01", "location_type": "0"}, "geometry": {"type": "Point", "coordinates": [136.676989, 35.063999]}}, {"type": "Feature", "properties": {"stop_id": "117_01", "stop_name": "城山町", "zone_id": "117_01", "location_type": "0"}, "geometry": {"type": "Point", "coordinates": [136.676743093254, 35.0623729319204]}}, {"type": "Feature", "properties": {"stop_id": "118_01", "stop_name": "立花町", "zone_id": "118_01", "location_type": "0"}, "geometry": {"type": "Point", "coordinates": [136.673925612268, 35.0627041204665]}}, {"type": "Feature", "properties": {"stop_id": "119_01", "stop_name": "神楽町1丁目", "zone_id": "119_01", "location_type": "0"}, "geometry": {"type": "Point", "coordinates": [136.672070224536, 35.0626717068207]}}, {"type": "Feature", "properties": {"stop_id": "120_01", "stop_name": "霞町2丁目", "zone_id": "120_01", "location_type": "0"}, "geometry": {"type": "Point", "coordinates": [136.669739, 35.064026]}}, {"type": "Feature", "properties": {"stop_id": "121_01", "stop_name": "霞町1丁目", "zone_id": "121_01", "location_type": "0"}, "geometry": {"type": "Point", "coordinates": [136.672076259507, 35.0642826465572]}}, {"type": "Feature", "properties": {"stop_id": "122_01", "stop_name": "梅園公園", "zone_id": "122_01", "location_type": "0"}, "geometry": {"type": "Point", "coordinates": [136.672311542327, 35.0656641953724]}}, {"type": "Feature", "properties": {"stop_id": "123_01", "stop_name": "汐見町", "zone_id": "123_01", "location_type": "0"}, "geometry": {"type": "Point", "coordinates": [136.67057382209, 35.0680291953088]}}, {"type": "Feature", "properties": {"stop_id": "124_01", "stop_name": "青葉公園", "zone_id": "124_01", "location_type": "0"}, "geometry": {"type": "Point", "coordinates": [136.672361658895, 35.0680408281501]}}, {"type": "Feature", "properties": {"stop_id": "125_01", "stop_name": "梅園通", "zone_id": "125_01", "location_type": "0"}, "geometry": {"type": "Point", "coordinates": [136.676326419643, 35.0671770786445]}}, {"type": "Feature", "properties": {"stop_id": "125_02", "stop_name": "梅園通", "zone_id": "125_02", "location_type": "0"}, "geometry": {"type": "Point", "coordinates": [136.67617085152, 35.0670958513306]}}, {"type": "Feature", "properties": {"stop_id": "126_01", "stop_name": "大福田寺前", "zone_id": "126_01", "location_type": "0"}, "geometry": {"type": "Point", "coordinates": [136.679216682209, 35.0671311020049]}}, {"type": "Feature", "properties": {"stop_id": "126_02", "stop_name": "大福田寺前", "zone_id": "126_02", "location_type": "0"}, "geometry": {"type": "Point", "coordinates": [136.679177790178, 35.0670608513203]}}, {"type": "Feature", "properties": {"stop_id": "127_01", "stop_name": "山陽町", "zone_id": "127_01", "location_type": "0"}, "geometry": {"type": "Point", "coordinates": [136.680501519014, 35.0679799296584]}}, {"type": "Feature", "properties": {"stop_id": "128_01", "stop_name": "北別所", "zone_id": "128_01", "location_type": "0"}, "geometry": {"type": "Point", "coordinates": [136.676102, 35.069544]}}, {"type": "Feature", "properties": {"stop_id": "130_01", "stop_name": "天神ヶ丘", "zone_id": "130_01", "location_type": "0"}, "geometry": {"type": "Point", "coordinates": [136.675603957383, 35.0728631506433]}}, {"type": "Feature", "properties": {"stop_id": "130_02", "stop_name": "天神ヶ丘", "zone_id": "130_02", "location_type": "0"}, "geometry": {"type": "Point", "coordinates": [136.675714923942, 35.0729139254074]}}, {"type": "Feature", "properties": {"stop_id": "131_01", "stop_name": "大成町", "zone_id": "131_01", "location_type": "0"}, "geometry": {"type": "Point", "coordinates": [136.675524367508, 35.0759386197486]}}, {"type": "Feature", "properties": {"stop_id": "131_02", "stop_name": "大成町", "zone_id": "131_02", "location_type": "0"}, "geometry": {"type": "Point", "coordinates": [136.675433362702, 35.0752635447248]}}, {"type": "Feature", "properties": {"stop_id": "132_01", "stop_name": "播磨郵便局前", "zone_id": "132_01", "location_type": "0"}, "geometry": {"type": "Point", "coordinates": [136.673372682209, 35.0772286592682]}}, {"type": "Feature", "properties": {"stop_id": "133_01", "stop_name": "播磨南", "zone_id": "133_01", "location_type": "0"}, "geometry": {"type": "Point", "coordinates": [136.670363906745, 35.0766204639949]}}, {"type": "Feature", "properties": {"stop_id": "134_01", "stop_name": "イオンモール桑名", "zone_id": "134_01", "location_type": "0"}, "geometry": {"type": "Point", "coordinates": [136.661865, 35.073113]}}, {"type": "Feature", "properties": {"stop_id": "134_02", "stop_name": "イオンモール桑名", "zone_id": "134_02", "location_type": "0"}, "geometry": {"type": "Point", "coordinates": [136.661599253967, 35.0727719953383]}}, {"type": "Feature", "properties": {"stop_id": "135_01", "stop_name": "新西方", "zone_id": "135_01", "location_type": "0"}, "geometry": {"type": "Point", "coordinates": [136.660816, 35.071689]}}, {"type": "Feature", "properties": {"stop_id": "135_02", "stop_name": "新西方", "zone_id": "135_02", "location_type": "0"}, "geometry": {"type": "Point", "coordinates": [136.660852, 35.071788]}}, {"type": "Feature", "properties": {"stop_id": "135_03", "stop_name": "新西方", "zone_id": "135_03", "location_type": "0"}, "geometry": {"type": "Point", "coordinates": [136.660805, 35.071817]}}, {"type": "Feature", "properties": {"stop_id": "136_01", "stop_name": "蓮花寺住宅北", "zone_id": "136_01", "location_type": "0"}, "geometry": {"type": "Point", "coordinates": [136.648456868717, 35.0668329534126]}}, {"type": "Feature", "properties": {"stop_id": "136_02", "stop_name": "蓮花寺住宅北", "zone_id": "136_02", "location_type": "0"}, "geometry": {"type": "Point", "coordinates": [136.648348239252, 35.0668066093167]}}, {"type": "Feature", "properties": {"stop_id": "137_01", "stop_name": "蓮花寺住宅", "zone_id": "137_01", "location_type": "0"}, "geometry": {"type": "Point", "coordinates": [136.648669279762, 35.064938287564]}}, {"type": "Feature", "properties": {"stop_id": "137_02", "stop_name": "蓮花寺住宅", "zone_id": "137_02", "location_type": "0"}, "geometry": {"type": "Point", "coordinates": [136.648570038028, 35.0650173216351]}}, {"type": "Feature", "properties": {"stop_id": "138_01", "stop_name": "福祉センター", "zone_id": "138_01", "location_type": "0"}, "geometry": {"type": "Point", "coordinates": [136.64408185152, 35.0634353908648]}}, {"type": "Feature", "properties": {"stop_id": "139_01", "stop_name": "マザック前", "zone_id": "139_01", "location_type": "0"}, "geometry": {"type": "Point", "coordinates": [136.648087, 35.061375]}}, {"type": "Feature", "properties": {"stop_id": "140_01", "stop_name": "額田", "zone_id": "140_01", "location_type": "0"}, "geometry": {"type": "Point", "coordinates": [136.639824046627, 35.0605480673567]}}, {"type": "Feature", "properties": {"stop_id": "140_02", "stop_name": "額田", "zone_id": "140_02", "location_type": "0"}, "geometry": {"type": "Point", "coordinates": [136.639794542327, 35.060629301186]}}, {"type": "Feature", "properties": {"stop_id": "141_01", "stop_name": "坂井橋", "zone_id": "141_01", "location_type": "0"}, "geometry": {"type": "Point", "coordinates": [136.63465602943, 35.0622520226798]}}, {"type": "Feature", "properties": {"stop_id": "141_02", "stop_name": "坂井橋", "zone_id": "141_02", "location_type": "0"}, "geometry": {"type": "Point", "coordinates": [136.634815620866, 35.0622926387569]}}, {"type": "Feature", "properties": {"stop_id": "142_01", "stop_name": "メガドンキ　ユニー星川店", "zone_id": "142_01", "location_type": "0"}, "geometry": {"type": "Point", "coordinates": [136.629894131282, 35.0652474653787]}}, {"type": "Feature", "properties": {"stop_id": "145_01", "stop_name": "サンシティ", "zone_id": "145_01", "location_type": "0"}, "geometry": {"type": "Point", "coordinates": [136.6279004957, 35.0676891485009]}}, {"type": "Feature", "properties": {"stop_id": "146_01", "stop_name": "津田学園前", "zone_id": "146_01", "location_type": "0"}, "geometry": {"type": "Point", "coordinates": [136.62255164418, 35.0820688157863]}}, {"type": "Feature", "properties": {"stop_id": "147_01", "stop_name": "嘉例川", "zone_id": "147_01", "location_type": "0"}, "geometry": {"type": "Point", "coordinates": [136.619887906745, 35.0859018568958]}}, {"type": "Feature", "properties": {"stop_id": "147_02", "stop_name": "嘉例川", "zone_id": "147_02", "location_type": "0"}, "geometry": {"type": "Point", "coordinates": [136.619913387731, 35.0859715426542]}}, {"type": "Feature", "properties": {"stop_id": "148_01", "stop_name": "広見ヶ丘", "zone_id": "148_01", "location_type": "0"}, "geometry": {"type": "Point", "coordinates": [136.618862224536, 35.0802157075286]}}, {"type": "Feature", "properties": {"stop_id": "149_01", "stop_name": "大仲新田北", "zone_id": "149_01", "location_type": "0"}, "geometry": {"type": "Point", "coordinates": [136.611170728836, 35.081468346554]}}, {"type": "Feature", "properties": {"stop_id": "150_01", "stop_name": "大仲新田南", "zone_id": "150_01", "location_type": "0"}, "geometry": {"type": "Point", "coordinates": [136.610304906745, 35.0766683655362]}}, {"type": "Feature", "properties": {"stop_id": "151_01", "stop_name": "桑名工業高校前", "zone_id": "151_01", "location_type": "0"}, "geometry": {"type": "Point", "coordinates": [136.61640285152, 35.0741750009323]}}, {"type": "Feature", "properties": {"stop_id": "151_02", "stop_name": "桑名工業高校前", "zone_id": "151_02", "location_type": "0"}, "geometry": {"type": "Point", "coordinates": [136.61662011045, 35.073984023226]}}, {"type": "Feature", "properties": {"stop_id": "152_01", "stop_name": "七和住宅口", "zone_id": "152_01", "location_type": "0"}, "geometry": {"type": "Point", "coordinates": [136.620731373016, 35.0724567326616]}}, {"type": "Feature", "properties": {"stop_id": "152_02", "stop_name": "七和住宅口", "zone_id": "152_02", "location_type": "0"}, "geometry": {"type": "Point", "coordinates": [136.620622743551, 35.0724073408784]}}, {"type": "Feature", "properties": {"stop_id": "153_01", "stop_name": "星見ヶ丘6丁目", "zone_id": "153_01", "location_type": "0"}, "geometry": {"type": "Point", "coordinates": [136.635275262565, 35.0672818280277]}}, {"type": "Feature", "properties": {"stop_id": "153_02", "stop_name": "星見ヶ丘6丁目", "zone_id": "153_02", "location_type": "0"}, "geometry": {"type": "Point", "coordinates": [136.63542546627, 35.0672818280277]}}, {"type": "Feature", "properties": {"stop_id": "154_01", "stop_name": "星見ヶ丘南", "zone_id": "154_01", "location_type": "0"}, "geometry": {"type": "Point", "coordinates": [136.63341439154, 35.0681583001713]}}, {"type": "Feature", "properties": {"stop_id": "154_02", "stop_name": "星見ヶ丘南", "zone_id": "154_02", "location_type": "0"}, "geometry": {"type": "Point", "coordinates": [136.632218126319, 35.069264726554]}}, {"type": "Feature", "properties": {"stop_id": "155_01", "stop_name": "スター２１", "zone_id": "155_01", "location_type": "0"}, "geometry": {"type": "Point", "coordinates": [136.633516186508, 35.0720590752303]}}, {"type": "Feature", "properties": {"stop_id": "155_02", "stop_name": "スター２１", "zone_id": "155_02", "location_type": "0"}, "geometry": {"type": "Point", "coordinates": [136.633459860118, 35.0719778527751]}}, {"type": "Feature", "properties": {"stop_id": "156_01", "stop_name": "星見ヶ丘9丁目東", "zone_id": "156_01", "location_type": "0"}, "geometry": {"type": "Point", "coordinates": [136.635950440475, 35.0727413688062]}}, {"type": "Feature", "properties": {"stop_id": "156_02", "stop_name": "星見ヶ丘9丁目東", "zone_id": "156_02", "location_type": "0"}, "geometry": {"type": "Point", "coordinates": [136.636116737434, 35.072570144427]}}, {"type": "Feature", "properties": {"stop_id": "157_01", "stop_name": "法務局前", "zone_id": "157_01", "location_type": "0"}, "geometry": {"type": "Point", "coordinates": [136.636038262565, 35.0752469267263]}}, {"type": "Feature", "properties": {"stop_id": "157_02", "stop_name": "法務局前", "zone_id": "157_02", "location_type": "0"}, "geometry": {"type": "Point", "coordinates": [136.636180419643, 35.0751788781439]}}, {"type": "Feature", "properties": {"stop_id": "158_01", "stop_name": "野田1丁目", "zone_id": "158_01", "location_type": "0"}, "geometry": {"type": "Point", "coordinates": [136.633442868717, 35.0774218791094]}}, {"type": "Feature", "properties": {"stop_id": "158_02", "stop_name": "野田1丁目", "zone_id": "158_02", "location_type": "0"}, "geometry": {"type": "Point", "coordinates": [136.633548, 35.077525]}}, {"type": "Feature", "properties": {"stop_id": "159_01", "stop_name": "野田6丁目", "zone_id": "159_01", "location_type": "0"}, "geometry": {"type": "Point", "coordinates": [136.631464635582, 35.0782146383973]}}, {"type": "Feature", "properties": {"stop_id": "159_02", "stop_name": "野田6丁目", "zone_id": "159_02", "location_type": "0"}, "geometry": {"type": "Point", "coordinates": [136.63147, 35.0784034111722]}}, {"type": "Feature", "properties": {"stop_id": "160_01", "stop_name": "野田5丁目南", "zone_id": "160_01", "location_type": "0"}, "geometry": {"type": "Point", "coordinates": [136.630039177909, 35.0801377605721]}}, {"type": "Feature", "properties": {"stop_id": "160_02", "stop_name": "野田5丁目南", "zone_id": "160_02", "location_type": "0"}, "geometry": {"type": "Point", "coordinates": [136.630090139881, 35.0802650694906]}}, {"type": "Feature", "properties": {"stop_id": "161_01", "stop_name": "野田5丁目北", "zone_id": "161_01", "location_type": "0"}, "geometry": {"type": "Point", "coordinates": [136.629677656414, 35.0824399320707]}}, {"type": "Feature", "properties": {"stop_id": "161_02", "stop_name": "野田5丁目北", "zone_id": "161_02", "location_type": "0"}, "geometry": {"type": "Point", "coordinates": [136.630079987766, 35.0825935764048]}}, {"type": "Feature", "properties": {"stop_id": "162_01", "stop_name": "大山田団地", "zone_id": "162_01", "location_type": "0"}, "geometry": {"type": "Point", "coordinates": [136.631304682209, 35.0842478001261]}}, {"type": "Feature", "properties": {"stop_id": "162_02", "stop_name": "大山田団地", "zone_id": "162_02", "location_type": "0"}, "geometry": {"type": "Point", "coordinates": [136.631352961971, 35.0845397176437]}}, {"type": "Feature", "properties": {"stop_id": "163_01", "stop_name": "総合運動公園前", "zone_id": "163_01", "location_type": "0"}, "geometry": {"type": "Point", "coordinates": [136.631659550926, 35.0879971282026]}}, {"type": "Feature", "properties": {"stop_id": "163_02", "stop_name": "総合運動公園前", "zone_id": "163_02", "location_type": "0"}, "geometry": {"type": "Point", "coordinates": [136.631589813491, 35.0877600925262]}}, {"type": "Feature", "properties": {"stop_id": "164_01", "stop_name": "陽だまりの丘中", "zone_id": "164_01", "location_type": "0"}, "geometry": {"type": "Point", "coordinates": [136.637653063823, 35.0854512607042]}}, {"type": "Feature", "properties": {"stop_id": "164_02", "stop_name": "陽だまりの丘中", "zone_id": "164_02", "location_type": "0"}, "geometry": {"type": "Point", "coordinates": [136.637382160713, 35.0853349340959]}}, {"type": "Feature", "properties": {"stop_id": "165_01", "stop_name": "陽だまりの丘南", "zone_id": "165_01", "location_type": "0"}, "geometry": {"type": "Point", "coordinates": [136.640857373016, 35.0840387795129]}}, {"type": "Feature", "properties": {"stop_id": "165_02", "stop_name": "陽だまりの丘南", "zone_id": "165_02", "location_type": "0"}, "geometry": {"type": "Point", "coordinates": [136.640739355819, 35.0840058563346]}}, {"type": "Feature", "properties": {"stop_id": "166_01", "stop_name": "陵成中学校前", "zone_id": "166_01", "location_type": "0"}, "geometry": {"type": "Point", "coordinates": [136.641851209821, 35.079783584978]}}, {"type": "Feature", "properties": {"stop_id": "166_02", "stop_name": "陵成中学校前", "zone_id": "166_02", "location_type": "0"}, "geometry": {"type": "Point", "coordinates": [136.641782813491, 35.0797780974963]}}, {"type": "Feature", "properties": {"stop_id": "167_01", "stop_name": "松ノ木公園前", "zone_id": "167_01", "location_type": "0"}, "geometry": {"type": "Point", "coordinates": [136.642473682209, 35.076495609838]}}, {"type": "Feature", "properties": {"stop_id": "168_01", "stop_name": "松ノ木南", "zone_id": "168_01", "location_type": "0"}, "geometry": {"type": "Point", "coordinates": [136.643730355819, 35.0741894883066]}}, {"type": "Feature", "properties": {"stop_id": "168_02", "stop_name": "松ノ木南", "zone_id": "168_02", "location_type": "0"}, "geometry": {"type": "Point", "coordinates": [136.643883241733, 35.0741126582623]}}, {"type": "Feature", "properties": {"stop_id": "169_01", "stop_name": "松ノ木東", "zone_id": "169_01", "location_type": "0"}, "geometry": {"type": "Point", "coordinates": [136.645927148479, 35.0739929514867]}}, {"type": "Feature", "properties": {"stop_id": "169_02", "stop_name": "松ノ木東", "zone_id": "169_02", "location_type": "0"}, "geometry": {"type": "Point", "coordinates": [136.645750122684, 35.0739556339557]}}, {"type": "Feature", "properties": {"stop_id": "170_01", "stop_name": "藤が丘南", "zone_id": "170_01", "location_type": "0"}, "geometry": {"type": "Point", "coordinates": [136.648876131282, 35.072889636088]}}, {"type": "Feature", "properties": {"stop_id": "170_02", "stop_name": "藤が丘南", "zone_id": "170_02", "location_type": "0"}, "geometry": {"type": "Point", "coordinates": [136.648795665012, 35.0728062192792]}}, {"type": "Feature", "properties": {"stop_id": "171_01", "stop_name": "藤が丘中", "zone_id": "171_01", "location_type": "0"}, "geometry": {"type": "Point", "coordinates": [136.651257720237, 35.07412039029]}}, {"type": "Feature", "properties": {"stop_id": "171_02", "stop_name": "藤が丘中", "zone_id": "171_02", "location_type": "0"}, "geometry": {"type": "Point", "coordinates": [136.651389148479, 35.0741138048549]}}, {"type": "Feature", "properties": {"stop_id": "172_01", "stop_name": "藤が丘北", "zone_id": "172_01", "location_type": "0"}, "geometry": {"type": "Point", "coordinates": [136.653322588954, 35.0758857068623]}}, {"type": "Feature", "properties": {"stop_id": "172_02", "stop_name": "藤が丘北", "zone_id": "172_02", "location_type": "0"}, "geometry": {"type": "Point", "coordinates": [136.653370868717, 35.0758000980165]}}, {"type": "Feature", "properties": {"stop_id": "173_01", "stop_name": "新西方3丁目", "zone_id": "173_01", "location_type": "0"}, "geometry": {"type": "Point", "coordinates": [136.657908152114, 35.0745669765837]}}, {"type": "Feature", "properties": {"stop_id": "173_02", "stop_name": "新西方3丁目", "zone_id": "173_02", "location_type": "0"}, "geometry": {"type": "Point", "coordinates": [136.656819175254, 35.0758181927643]}}, {"type": "Feature", "properties": {"stop_id": "174_01", "stop_name": "新西方中央", "zone_id": "174_01", "location_type": "0"}, "geometry": {"type": "Point", "coordinates": [136.657594186508, 35.0728666797362]}}, {"type": "Feature", "properties": {"stop_id": "174_02", "stop_name": "新西方中央", "zone_id": "174_02", "location_type": "0"}, "geometry": {"type": "Point", "coordinates": [136.657519084655, 35.0730861973084]}}, {"type": "Feature", "properties": {"stop_id": "175_01", "stop_name": "新西方南", "zone_id": "175_01", "location_type": "0"}, "geometry": {"type": "Point", "coordinates": [136.65743293254, 35.0718055565766]}}, {"type": "Feature", "properties": {"stop_id": "175_02", "stop_name": "新西方南", "zone_id": "175_02", "location_type": "0"}, "geometry": {"type": "Point", "coordinates": [136.657041330024, 35.0707079455864]}}, {"type": "Feature", "properties": {"stop_id": "176_01", "stop_name": "名阪桑名インター口", "zone_id": "176_01", "location_type": "0"}, "geometry": {"type": "Point", "coordinates": [136.649670882278, 35.0676731251014]}}, {"type": "Feature", "properties": {"stop_id": "176_02", "stop_name": "名阪桑名インター口", "zone_id": "176_02", "location_type": "0"}, "geometry": {"type": "Point", "coordinates": [136.648839, 35.067588]}}, {"type": "Feature", "properties": {"stop_id": "177_01", "stop_name": "坂井橋南", "zone_id": "177_01", "location_type": "0"}, "geometry": {"type": "Point", "coordinates": [136.632233513751, 35.0601839924601]}}, {"type": "Feature", "properties": {"stop_id": "177_02", "stop_name": "坂井橋南", "zone_id": "177_02", "location_type": "0"}, "geometry": {"type": "Point", "coordinates": [136.632104542327, 35.0601938880063]}}, {"type": "Feature", "properties": {"stop_id": "178_01", "stop_name": "友村", "zone_id": "178_01", "location_type": "0"}, "geometry": {"type": "Point", "coordinates": [136.627796177909, 35.0571724351957]}}, {"type": "Feature", "properties": {"stop_id": "179_01", "stop_name": "川岸町", "zone_id": "179_01", "location_type": "0"}, "geometry": {"type": "Point", "coordinates": [136.622418317791, 35.058001479597]}}, {"type": "Feature", "properties": {"stop_id": "179_02", "stop_name": "川岸町", "zone_id": "179_02", "location_type": "0"}, "geometry": {"type": "Point", "coordinates": [136.622383449073, 35.0580936938408]}}, {"type": "Feature", "properties": {"stop_id": "180_01", "stop_name": "島田第三", "zone_id": "180_01", "location_type": "0"}, "geometry": {"type": "Point", "coordinates": [136.617041055225, 35.0581824132794]}}, {"type": "Feature", "properties": {"stop_id": "180_02", "stop_name": "島田第三", "zone_id": "180_02", "location_type": "0"}, "geometry": {"type": "Point", "coordinates": [136.616923038028, 35.0582241291673]}}, {"type": "Feature", "properties": {"stop_id": "181_01", "stop_name": "志知北", "zone_id": "181_01", "location_type": "0"}, "geometry": {"type": "Point", "coordinates": [136.610251953373, 35.0576254985529]}}, {"type": "Feature", "properties": {"stop_id": "182_01", "stop_name": "志知", "zone_id": "182_01", "location_type": "0"}, "geometry": {"type": "Point", "coordinates": [136.607669373016, 35.0528943485937]}}, {"type": "Feature", "properties": {"stop_id": "182_02", "stop_name": "志知", "zone_id": "182_02", "location_type": "0"}, "geometry": {"type": "Point", "coordinates": [136.6075754957, 35.0528416513977]}}, {"type": "Feature", "properties": {"stop_id": "183_01", "stop_name": "平群神社前", "zone_id": "183_01", "location_type": "0"}, "geometry": {"type": "Point", "coordinates": [136.615626326389, 35.0523903274073]}}, {"type": "Feature", "properties": {"stop_id": "183_02", "stop_name": "平群神社前", "zone_id": "183_02", "location_type": "0"}, "geometry": {"type": "Point", "coordinates": [136.615478804893, 35.0523244555005]}}, {"type": "Feature", "properties": {"stop_id": "184_01", "stop_name": "島田", "zone_id": "184_01", "location_type": "0"}, "geometry": {"type": "Point", "coordinates": [136.620224, 35.053474]}}, {"type": "Feature", "properties": {"stop_id": "185_01", "stop_name": "羽田", "zone_id": "185_01", "location_type": "0"}, "geometry": {"type": "Point", "coordinates": [136.624124139881, 35.0531263056245]}}, {"type": "Feature", "properties": {"stop_id": "186_01", "stop_name": "赤尾台", "zone_id": "186_01", "location_type": "0"}, "geometry": {"type": "Point", "coordinates": [136.626092347221, 35.0494384826668]}}, {"type": "Feature", "properties": {"stop_id": "186_02", "stop_name": "赤尾台", "zone_id": "186_02", "location_type": "0"}, "geometry": {"type": "Point", "coordinates": [136.626483949737, 35.0492891675384]}}, {"type": "Feature", "properties": {"stop_id": "187_01", "stop_name": "西正和台", "zone_id": "187_01", "location_type": "0"}, "geometry": {"type": "Point", "coordinates": [136.629912456344, 35.0492674827955]}}, {"type": "Feature", "properties": {"stop_id": "187_02", "stop_name": "西正和台", "zone_id": "187_02", "location_type": "0"}, "geometry": {"type": "Point", "coordinates": [136.631097992729, 35.0491576920567]}}, {"type": "Feature", "properties": {"stop_id": "188_01", "stop_name": "正和台集会所前", "zone_id": "188_01", "location_type": "0"}, "geometry": {"type": "Point", "coordinates": [136.633531341104, 35.0504810421961]}}, {"type": "Feature", "properties": {"stop_id": "189_01", "stop_name": "東正和台", "zone_id": "189_01", "location_type": "0"}, "geometry": {"type": "Point", "coordinates": [136.637300991401, 35.0502405031199]}}, {"type": "Feature", "properties": {"stop_id": "189_02", "stop_name": "東正和台", "zone_id": "189_02", "location_type": "0"}, "geometry": {"type": "Point", "coordinates": [136.637429737434, 35.0501636505337]}}, {"type": "Feature", "properties": {"stop_id": "190_01", "stop_name": "篠原", "zone_id": "190_01", "location_type": "0"}, "geometry": {"type": "Point", "coordinates": [136.643554402446, 35.0519564807713]}}, {"type": "Feature", "properties": {"stop_id": "190_02", "stop_name": "篠原", "zone_id": "190_02", "location_type": "0"}, "geometry": {"type": "Point", "coordinates": [136.643640233135, 35.0518708468271]}}, {"type": "Feature", "properties": {"stop_id": "191_01", "stop_name": "西桑部", "zone_id": "191_01", "location_type": "0"}, "geometry": {"type": "Point", "coordinates": [136.64813646627, 35.0512807406342]}}, {"type": "Feature", "properties": {"stop_id": "191_02", "stop_name": "西桑部", "zone_id": "191_02", "location_type": "0"}, "geometry": {"type": "Point", "coordinates": [136.647986262565, 35.0512335317983]}}, {"type": "Feature", "properties": {"stop_id": "192_01", "stop_name": "桑部", "zone_id": "192_01", "location_type": "0"}, "geometry": {"type": "Point", "coordinates": [136.650964542327, 35.051710544724]}}, {"type": "Feature", "properties": {"stop_id": "192_02", "stop_name": "桑部", "zone_id": "192_02", "location_type": "0"}, "geometry": {"type": "Point", "coordinates": [136.651048906741, 35.0516457370688]}}, {"type": "Feature", "properties": {"stop_id": "193_01", "stop_name": "桑部橋", "zone_id": "193_01", "location_type": "0"}, "geometry": {"type": "Point", "coordinates": [136.65489993254, 35.0524452206225]}}, {"type": "Feature", "properties": {"stop_id": "193_02", "stop_name": "桑部橋", "zone_id": "193_02", "location_type": "0"}, "geometry": {"type": "Point", "coordinates": [136.654596842922, 35.0522915195271]}}, {"type": "Feature", "properties": {"stop_id": "194_01", "stop_name": "稗田", "zone_id": "194_01", "location_type": "0"}, "geometry": {"type": "Point", "coordinates": [136.660695240377, 35.0562430623831]}}, {"type": "Feature", "properties": {"stop_id": "195_01", "stop_name": "西別所", "zone_id": "195_01", "location_type": "0"}, "geometry": {"type": "Point", "coordinates": [136.662744542327, 35.0588234133311]}}, {"type": "Feature", "properties": {"stop_id": "196_01", "stop_name": "蓮花寺東", "zone_id": "196_01", "location_type": "0"}, "geometry": {"type": "Point", "coordinates": [136.655214682209, 35.0589792622753]}}, {"type": "Feature", "properties": {"stop_id": "197_01", "stop_name": "蓮花寺駅", "zone_id": "197_01", "location_type": "0"}, "geometry": {"type": "Point", "coordinates": [136.651114705522, 35.0595024665375]}}, {"type": "Feature", "properties": {"stop_id": "198_01", "stop_name": "希望ヶ丘", "zone_id": "198_01", "location_type": "0"}, "geometry": {"type": "Point", "coordinates": [136.658740373016, 35.0652959999999]}}, {"type": "Feature", "properties": {"stop_id": "198_02", "stop_name": "希望ヶ丘", "zone_id": "198_02", "location_type": "0"}, "geometry": {"type": "Point", "coordinates": [136.658638449073, 35.0653135630565]}}, {"type": "Feature", "properties": {"stop_id": "199_01", "stop_name": "希望ヶ丘南", "zone_id": "199_01", "location_type": "0"}, "geometry": {"type": "Point", "coordinates": [136.659821, 35.061707]}}, {"type": "Feature", "properties": {"stop_id": "200_01", "stop_name": "希望ヶ丘西", "zone_id": "200_01", "location_type": "0"}, "geometry": {"type": "Point", "coordinates": [136.657225906745, 35.063648]}}, {"type": "Feature", "properties": {"stop_id": "201_01", "stop_name": "参宮通", "zone_id": "201_01", "location_type": "0"}, "geometry": {"type": "Point", "coordinates": [136.687243889549, 35.0696536687017]}}, {"type": "Feature", "properties": {"stop_id": "201_02", "stop_name": "参宮通", "zone_id": "201_02", "location_type": "0"}, "geometry": {"type": "Point", "coordinates": [136.68751211045, 35.0691092411409]}}, {"type": "Feature", "properties": {"stop_id": "202_01", "stop_name": "修徳小学校北", "zone_id": "202_01", "location_type": "0"}, "geometry": {"type": "Point", "coordinates": [136.684508906745, 35.0708718524479]}}, {"type": "Feature", "properties": {"stop_id": "203_01", "stop_name": "東方暁町", "zone_id": "203_01", "location_type": "0"}, "geometry": {"type": "Point", "coordinates": [136.681371364418, 35.0706410476175]}}, {"type": "Feature", "properties": {"stop_id": "204_01", "stop_name": "尾弓田", "zone_id": "204_01", "location_type": "0"}, "geometry": {"type": "Point", "coordinates": [136.678587906745, 35.0763571950848]}}, {"type": "Feature", "properties": {"stop_id": "205_01", "stop_name": "新福島", "zone_id": "205_01", "location_type": "0"}, "geometry": {"type": "Point", "coordinates": [136.683324652778, 35.0780143404865]}}, {"type": "Feature", "properties": {"stop_id": "206_01", "stop_name": "福島", "zone_id": "206_01", "location_type": "0"}, "geometry": {"type": "Point", "coordinates": [136.68486028836, 35.0757706097989]}}, {"type": "Feature", "properties": {"stop_id": "206_02", "stop_name": "福島", "zone_id": "206_02", "location_type": "0"}, "geometry": {"type": "Point", "coordinates": [136.684710084655, 35.0757706097989]}}, {"type": "Feature", "properties": {"stop_id": "207_01", "stop_name": "上之輪", "zone_id": "207_01", "location_type": "0"}, "geometry": {"type": "Point", "coordinates": [136.6813, 35.080298]}}, {"type": "Feature", "properties": {"stop_id": "208_01", "stop_name": "明竜町", "zone_id": "208_01", "location_type": "0"}, "geometry": {"type": "Point", "coordinates": [136.67870067361, 35.081011396622]}}, {"type": "Feature", "properties": {"stop_id": "209_01", "stop_name": "東汰上", "zone_id": "209_01", "location_type": "0"}, "geometry": {"type": "Point", "coordinates": [136.675644423598, 35.0860533155166]}}, {"type": "Feature", "properties": {"stop_id": "210_01", "stop_name": "南高砂町", "zone_id": "210_01", "location_type": "0"}, "geometry": {"type": "Point", "coordinates": [136.669214635581, 35.0949954433358]}}, {"type": "Feature", "properties": {"stop_id": "211_01", "stop_name": "高砂緑地前", "zone_id": "211_01", "location_type": "0"}, "geometry": {"type": "Point", "coordinates": [136.668121, 35.096706]}}, {"type": "Feature", "properties": {"stop_id": "212_01", "stop_name": "吉野町", "zone_id": "212_01", "location_type": "0"}, "geometry": {"type": "Point", "coordinates": [136.666501813491, 35.0991582221156]}}, {"type": "Feature", "properties": {"stop_id": "213_01", "stop_name": "北部老人福祉センター", "zone_id": "213_01", "location_type": "0"}, "geometry": {"type": "Point", "coordinates": [136.665793798776, 35.1026890971881]}}, {"type": "Feature", "properties": {"stop_id": "214_01", "stop_name": "くわのみ", "zone_id": "214_01", "location_type": "0"}, "geometry": {"type": "Point", "coordinates": [136.664009737434, 35.1088249421127]}}, {"type": "Feature", "properties": {"stop_id": "215_01", "stop_name": "桑栄団地", "zone_id": "215_01", "location_type": "0"}, "geometry": {"type": "Point", "coordinates": [136.659348, 35.108025]}}, {"type": "Feature", "properties": {"stop_id": "216_01", "stop_name": "今島町", "zone_id": "216_01", "location_type": "0"}, "geometry": {"type": "Point", "coordinates": [136.656229482808, 35.109723991875]}}, {"type": "Feature", "properties": {"stop_id": "216_02", "stop_name": "今島町", "zone_id": "216_02", "location_type": "0"}, "geometry": {"type": "Point", "coordinates": [136.65615827735, 35.1100502739499]}}, {"type": "Feature", "properties": {"stop_id": "217_01", "stop_name": "上深谷町", "zone_id": "217_01", "location_type": "0"}, "geometry": {"type": "Point", "coordinates": [136.652377084655, 35.1092227188094]}}, {"type": "Feature", "properties": {"stop_id": "218_01", "stop_name": "上深谷町三砂", "zone_id": "218_01", "location_type": "0"}, "geometry": {"type": "Point", "coordinates": [136.655167, 35.105221]}}, {"type": "Feature", "properties": {"stop_id": "219_01", "stop_name": "深谷町北", "zone_id": "219_01", "location_type": "0"}, "geometry": {"type": "Point", "coordinates": [136.659773411045, 35.0993554861649]}}, {"type": "Feature", "properties": {"stop_id": "220_01", "stop_name": "深谷町中", "zone_id": "220_01", "location_type": "0"}, "geometry": {"type": "Point", "coordinates": [136.663629635581, 35.0979876384824]}}, {"type": "Feature", "properties": {"stop_id": "221_01", "stop_name": "深谷町南", "zone_id": "221_01", "location_type": "0"}, "geometry": {"type": "Point", "coordinates": [136.666563906745, 35.0943176107971]}}, {"type": "Feature", "properties": {"stop_id": "223_01", "stop_name": "蛎塚東", "zone_id": "223_01", "location_type": "0"}, "geometry": {"type": "Point", "coordinates": [136.667189, 35.087315]}}, {"type": "Feature", "properties": {"stop_id": "224_01", "stop_name": "西汰上", "zone_id": "224_01", "location_type": "0"}, "geometry": {"type": "Point", "coordinates": [136.668581, 35.08502]}}, {"type": "Feature", "properties": {"stop_id": "225_01", "stop_name": "大和小学校前", "zone_id": "225_01", "location_type": "0"}, "geometry": {"type": "Point", "coordinates": [136.670609, 35.080952]}}, {"type": "Feature", "properties": {"stop_id": "226_01", "stop_name": "播磨駅前北", "zone_id": "226_01", "location_type": "0"}, "geometry": {"type": "Point", "coordinates": [136.673772, 35.07857]}}, {"type": "Feature", "properties": {"stop_id": "228_01", "stop_name": "北築地町", "zone_id": "228_01", "location_type": "0"}, "geometry": {"type": "Point", "coordinates": [136.666567, 35.099737]}}, {"type": "Feature", "properties": {"stop_id": "229_01", "stop_name": "南築地町", "zone_id": "229_01", "location_type": "0"}, "geometry": {"type": "Point", "coordinates": [136.667724, 35.097906]}}, {"type": "Feature", "properties": {"stop_id": "230_01", "stop_name": "桜木町", "zone_id": "230_01", "location_type": "0"}, "geometry": {"type": "Point", "coordinates": [136.669225, 35.095547]}}, {"type": "Feature", "properties": {"stop_id": "233_01", "stop_name": "博物館", "zone_id": "233_01", "location_type": "0"}, "geometry": {"type": "Point", "coordinates": [136.69366846627, 35.063202]}}, {"type": "Feature", "properties": {"stop_id": "233_02", "stop_name": "博物館", "zone_id": "233_02", "location_type": "0"}, "geometry": {"type": "Point", "coordinates": [136.693512898147, 35.0632151726306]}}, {"type": "Feature", "properties": {"stop_id": "234_01", "stop_name": "外堀", "zone_id": "234_01", "location_type": "0"}, "geometry": {"type": "Point", "coordinates": [136.694553982803, 35.0606636472681]}}, {"type": "Feature", "properties": {"stop_id": "234_02", "stop_name": "外堀", "zone_id": "234_02", "location_type": "0"}, "geometry": {"type": "Point", "coordinates": [136.694790017196, 35.0605275257279]}}, {"type": "Feature", "properties": {"stop_id": "235_01", "stop_name": "柳原", "zone_id": "235_01", "location_type": "0"}, "geometry": {"type": "Point", "coordinates": [136.696837101852, 35.0588973022107]}}, {"type": "Feature", "properties": {"stop_id": "235_02", "stop_name": "柳原", "zone_id": "235_02", "location_type": "0"}, "geometry": {"type": "Point", "coordinates": [136.696692262565, 35.0588446088885]}}, {"type": "Feature", "properties": {"stop_id": "236_01", "stop_name": "消防署前", "zone_id": "236_01", "location_type": "0"}, "geometry": {"type": "Point", "coordinates": [136.69425723677, 35.0557326087211]}}, {"type": "Feature", "properties": {"stop_id": "236_02", "stop_name": "消防署前", "zone_id": "236_02", "location_type": "0"}, "geometry": {"type": "Point", "coordinates": [136.694622017196, 35.055754565113]}}, {"type": "Feature", "properties": {"stop_id": "237_01", "stop_name": "円通寺前", "zone_id": "237_01", "location_type": "0"}, "geometry": {"type": "Point", "coordinates": [136.689822279762, 35.0536330860932]}}, {"type": "Feature", "properties": {"stop_id": "237_02", "stop_name": "円通寺前", "zone_id": "237_02", "location_type": "0"}, "geometry": {"type": "Point", "coordinates": [136.689698898147, 35.053729696657]}}, {"type": "Feature", "properties": {"stop_id": "238_01", "stop_name": "江場中野町", "zone_id": "238_01", "location_type": "0"}, "geometry": {"type": "Point", "coordinates": [136.68838082209, 35.0496273427108]}}, {"type": "Feature", "properties": {"stop_id": "238_02", "stop_name": "江場中野町", "zone_id": "238_02", "location_type": "0"}, "geometry": {"type": "Point", "coordinates": [136.688316449073, 35.049794223616]}}, {"type": "Feature", "properties": {"stop_id": "239_01", "stop_name": "警察前", "zone_id": "239_01", "location_type": "0"}, "geometry": {"type": "Point", "coordinates": [136.687151186508, 35.0467126906106]}}, {"type": "Feature", "properties": {"stop_id": "239_02", "stop_name": "警察前", "zone_id": "239_02", "location_type": "0"}, "geometry": {"type": "Point", "coordinates": [136.687059991401, 35.0468137011194]}}, {"type": "Feature", "properties": {"stop_id": "240_01", "stop_name": "ヨナハ総合病院前", "zone_id": "240_01", "location_type": "0"}, "geometry": {"type": "Point", "coordinates": [136.685453008598, 35.0447499057165]}}, {"type": "Feature", "properties": {"stop_id": "240_02", "stop_name": "ヨナハ総合病院前", "zone_id": "240_02", "location_type": "0"}, "geometry": {"type": "Point", "coordinates": [136.685323119163, 35.044874280407]}}, {"type": "Feature", "properties": {"stop_id": "241_01", "stop_name": "安永７丁目", "zone_id": "241_01", "location_type": "0"}, "geometry": {"type": "Point", "coordinates": [136.682775, 35.045805]}}, {"type": "Feature", "properties": {"stop_id": "241_02", "stop_name": "安永７丁目", "zone_id": "241_02", "location_type": "0"}, "geometry": {"type": "Point", "coordinates": [136.682689, 35.045951]}}, {"type": "Feature", "properties": {"stop_id": "242_01", "stop_name": "城南口", "zone_id": "242_01", "location_type": "0"}, "geometry": {"type": "Point", "coordinates": [136.679855483467, 35.0470128146362]}}, {"type": "Feature", "properties": {"stop_id": "242_02", "stop_name": "城南口", "zone_id": "242_02", "location_type": "0"}, "geometry": {"type": "Point", "coordinates": [136.679479974205, 35.0472499686747]}}, {"type": "Feature", "properties": {"stop_id": "243_01", "stop_name": "東金井", "zone_id": "243_01", "location_type": "0"}, "geometry": {"type": "Point", "coordinates": [136.669584813491, 35.0488575874732]}}, {"type": "Feature", "properties": {"stop_id": "244_01", "stop_name": "西金井", "zone_id": "244_01", "location_type": "0"}, "geometry": {"type": "Point", "coordinates": [136.664195728836, 35.0516494765228]}}, {"type": "Feature", "properties": {"stop_id": "244_02", "stop_name": "西金井", "zone_id": "244_02", "location_type": "0"}, "geometry": {"type": "Point", "coordinates": [136.664168906745, 35.0517373064461]}}, {"type": "Feature", "properties": {"stop_id": "245_01", "stop_name": "金井", "zone_id": "245_01", "location_type": "0"}, "geometry": {"type": "Point", "coordinates": [136.666202084655, 35.0510800423572]}}, {"type": "Feature", "properties": {"stop_id": "245_02", "stop_name": "金井", "zone_id": "245_02", "location_type": "0"}, "geometry": {"type": "Point", "coordinates": [136.666282550926, 35.0511283491635]}}, {"type": "Feature", "properties": {"stop_id": "246_01", "stop_name": "桑部東", "zone_id": "246_01", "location_type": "0"}, "geometry": {"type": "Point", "coordinates": [136.658251279762, 35.0497783915992]}}, {"type": "Feature", "properties": {"stop_id": "247_01", "stop_name": "春日台", "zone_id": "247_01", "location_type": "0"}, "geometry": {"type": "Point", "coordinates": [136.672575167524, 35.0460221933919]}}, {"type": "Feature", "properties": {"stop_id": "248_01", "stop_name": "安永消防倉庫", "zone_id": "248_01", "location_type": "0"}, "geometry": {"type": "Point", "coordinates": [136.677455574239, 35.0460982620552]}}, {"type": "Feature", "properties": {"stop_id": "249_01", "stop_name": "安永内科ペインクリニック前", "zone_id": "249_01", "location_type": "0"}, "geometry": {"type": "Point", "coordinates": [136.679565, 35.052135]}}, {"type": "Feature", "properties": {"stop_id": "250_01", "stop_name": "了順寺前", "zone_id": "250_01", "location_type": "0"}, "geometry": {"type": "Point", "coordinates": [136.680516364418, 35.054329]}}, {"type": "Feature", "properties": {"stop_id": "251_01", "stop_name": "三ツ矢橋", "zone_id": "251_01", "location_type": "0"}, "geometry": {"type": "Point", "coordinates": [136.681879387731, 35.0577758264938]}}, {"type": "Feature", "properties": {"stop_id": "252_01", "stop_name": "市役所南", "zone_id": "252_01", "location_type": "0"}, "geometry": {"type": "Point", "coordinates": [136.683251449073, 35.0620428641203]}}, {"type": "Feature", "properties": {"stop_id": "252_02", "stop_name": "市役所南", "zone_id": "252_02", "location_type": "0"}, "geometry": {"type": "Point", "coordinates": [136.683321186508, 35.0619330905569]}}, {"type": "Feature", "properties": {"stop_id": "254_01", "stop_name": "前山", "zone_id": "254_01", "location_type": "0"}, "geometry": {"type": "Point", "coordinates": [136.58037982209, 35.1379601605586]}}, {"type": "Feature", "properties": {"stop_id": "255_01", "stop_name": "美鹿", "zone_id": "255_01", "location_type": "0"}, "geometry": {"type": "Point", "coordinates": [136.579776580356, 35.1402207071206]}}, {"type": "Feature", "properties": {"stop_id": "256_01", "stop_name": "滝ヶ橋", "zone_id": "256_01", "location_type": "0"}, "geometry": {"type": "Point", "coordinates": [136.588424625746, 35.1377389242933]}}, {"type": "Feature", "properties": {"stop_id": "257_01", "stop_name": "古野西", "zone_id": "257_01", "location_type": "0"}, "geometry": {"type": "Point", "coordinates": [136.591606736183, 35.1351706291021]}}, {"type": "Feature", "properties": {"stop_id": "258_01", "stop_name": "古野集会所", "zone_id": "258_01", "location_type": "0"}, "geometry": {"type": "Point", "coordinates": [136.594607930059, 35.1335343548654]}}, {"type": "Feature", "properties": {"stop_id": "259_01", "stop_name": "下ヶ平", "zone_id": "259_01", "location_type": "0"}, "geometry": {"type": "Point", "coordinates": [136.603036944774, 35.128834]}}, {"type": "Feature", "properties": {"stop_id": "260_01", "stop_name": "岩壺口", "zone_id": "260_01", "location_type": "0"}, "geometry": {"type": "Point", "coordinates": [136.618649, 35.124109]}}, {"type": "Feature", "properties": {"stop_id": "261_01", "stop_name": "北猪飼", "zone_id": "261_01", "location_type": "0"}, "geometry": {"type": "Point", "coordinates": [136.620938415399, 35.1239174027709]}}, {"type": "Feature", "properties": {"stop_id": "262_01", "stop_name": "多度保育所前", "zone_id": "262_01", "location_type": "0"}, "geometry": {"type": "Point", "coordinates": [136.622389504299, 35.1292033908837]}}, {"type": "Feature", "properties": {"stop_id": "262_02", "stop_name": "多度保育所前", "zone_id": "262_02", "location_type": "0"}, "geometry": {"type": "Point", "coordinates": [136.622435101852, 35.1291178380142]}}, {"type": "Feature", "properties": {"stop_id": "263_01", "stop_name": "大門橋", "zone_id": "263_01", "location_type": "0"}, "geometry": {"type": "Point", "coordinates": [136.624001696924, 35.1306752255103]}}, {"type": "Feature", "properties": {"stop_id": "263_02", "stop_name": "大門橋", "zone_id": "263_02", "location_type": "0"}, "geometry": {"type": "Point", "coordinates": [136.62411367915, 35.1306834515944]}}, {"type": "Feature", "properties": {"stop_id": "264_01", "stop_name": "多度大社前", "zone_id": "264_01", "location_type": "0"}, "geometry": {"type": "Point", "coordinates": [136.623956, 35.133641]}}, {"type": "Feature", "properties": {"stop_id": "264_02", "stop_name": "多度大社前", "zone_id": "264_02", "location_type": "0"}, "geometry": {"type": "Point", "coordinates": [136.62382, 35.133112]}}, {"type": "Feature", "properties": {"stop_id": "265_01", "stop_name": "金谷", "zone_id": "265_01", "location_type": "0"}, "geometry": {"type": "Point", "coordinates": [136.627984387731, 35.1343664518172]}}, {"type": "Feature", "properties": {"stop_id": "266_01", "stop_name": "多度郵便局前", "zone_id": "266_01", "location_type": "0"}, "geometry": {"type": "Point", "coordinates": [136.637083658895, 35.1357583553747]}}, {"type": "Feature", "properties": {"stop_id": "267_01", "stop_name": "多度橋", "zone_id": "267_01", "location_type": "0"}, "geometry": {"type": "Point", "coordinates": [136.638873352761, 35.1363174201953]}}, {"type": "Feature", "properties": {"stop_id": "268_01", "stop_name": "柚井宇賀神社前", "zone_id": "268_01", "location_type": "0"}, "geometry": {"type": "Point", "coordinates": [136.639050720237, 35.1391778090161]}}, {"type": "Feature", "properties": {"stop_id": "269_01", "stop_name": "柚井北", "zone_id": "269_01", "location_type": "0"}, "geometry": {"type": "Point", "coordinates": [136.639119364418, 35.145245767995]}}, {"type": "Feature", "properties": {"stop_id": "270_01", "stop_name": "大桑クリニック", "zone_id": "270_01", "location_type": "0"}, "geometry": {"type": "Point", "coordinates": [136.646163845403, 35.1406753565008]}}, {"type": "Feature", "properties": {"stop_id": "271_01", "stop_name": "戸津近鉄住宅前", "zone_id": "271_01", "location_type": "0"}, "geometry": {"type": "Point", "coordinates": [136.646131658895, 35.1368136458014]}}, {"type": "Feature", "properties": {"stop_id": "272_01", "stop_name": "多度駅前", "zone_id": "272_01", "location_type": "0"}, "geometry": {"type": "Point", "coordinates": [136.640403550926, 35.1341545485357]}}, {"type": "Feature", "properties": {"stop_id": "273_01", "stop_name": "多度地区市民センター", "zone_id": "273_01", "location_type": "0"}, "geometry": {"type": "Point", "coordinates": [136.631548930059, 35.1320450005841]}}, {"type": "Feature", "properties": {"stop_id": "274_01", "stop_name": "香取北", "zone_id": "274_01", "location_type": "0"}, "geometry": {"type": "Point", "coordinates": [136.64920124785, 35.1370915803492]}}, {"type": "Feature", "properties": {"stop_id": "275_01", "stop_name": "上之郷", "zone_id": "275_01", "location_type": "0"}, "geometry": {"type": "Point", "coordinates": [136.664603, 35.134569]}}, {"type": "Feature", "properties": {"stop_id": "276_01", "stop_name": "上之郷七取排水機前", "zone_id": "276_01", "location_type": "0"}, "geometry": {"type": "Point", "coordinates": [136.662957542327, 35.1392476132169]}}, {"type": "Feature", "properties": {"stop_id": "277_01", "stop_name": "油島大橋西詰", "zone_id": "277_01", "location_type": "0"}, "geometry": {"type": "Point", "coordinates": [136.660732131282, 35.1442954202336]}}, {"type": "Feature", "properties": {"stop_id": "278_01", "stop_name": "東福永", "zone_id": "278_01", "location_type": "0"}, "geometry": {"type": "Point", "coordinates": [136.658509075641, 35.1482452603856]}}, {"type": "Feature", "properties": {"stop_id": "279_01", "stop_name": "古敷", "zone_id": "279_01", "location_type": "0"}, "geometry": {"type": "Point", "coordinates": [136.654702294477, 35.1543777105243]}}, {"type": "Feature", "properties": {"stop_id": "280_01", "stop_name": "平賀北", "zone_id": "280_01", "location_type": "0"}, "geometry": {"type": "Point", "coordinates": [136.646591, 35.16206]}}, {"type": "Feature", "properties": {"stop_id": "281_01", "stop_name": "平賀南", "zone_id": "281_01", "location_type": "0"}, "geometry": {"type": "Point", "coordinates": [136.647919, 35.156612]}}, {"type": "Feature", "properties": {"stop_id": "282_01", "stop_name": "西福永北", "zone_id": "282_01", "location_type": "0"}, "geometry": {"type": "Point", "coordinates": [136.647405364418, 35.149997703432]}}, {"type": "Feature", "properties": {"stop_id": "283_01", "stop_name": "西福永南", "zone_id": "283_01", "location_type": "0"}, "geometry": {"type": "Point", "coordinates": [136.647263093254, 35.1455934830516]}}, {"type": "Feature", "properties": {"stop_id": "284_01", "stop_name": "大久保", "zone_id": "284_01", "location_type": "0"}, "geometry": {"type": "Point", "coordinates": [136.629659235477, 35.1212307216493]}}, {"type": "Feature", "properties": {"stop_id": "285_01", "stop_name": "猪飼", "zone_id": "285_01", "location_type": "0"}, "geometry": {"type": "Point", "coordinates": [136.622489107969, 35.1208953213995]}}, {"type": "Feature", "properties": {"stop_id": "286_01", "stop_name": "南部コミュニティプラザ前", "zone_id": "286_01", "location_type": "0"}, "geometry": {"type": "Point", "coordinates": [136.624140883432, 35.1156999627317]}}, {"type": "Feature", "properties": {"stop_id": "287_01", "stop_name": "ぶでん橋", "zone_id": "287_01", "location_type": "0"}, "geometry": {"type": "Point", "coordinates": [136.628870635581, 35.1154060298318]}}, {"type": "Feature", "properties": {"stop_id": "288_01", "stop_name": "御衣野古浜神社前", "zone_id": "288_01", "location_type": "0"}, "geometry": {"type": "Point", "coordinates": [136.635418224536, 35.1110065438599]}}, {"type": "Feature", "properties": {"stop_id": "289_01", "stop_name": "アイリスパーク前", "zone_id": "289_01", "location_type": "0"}, "geometry": {"type": "Point", "coordinates": [136.637418411045, 35.1047311539514]}}, {"type": "Feature", "properties": {"stop_id": "290_01", "stop_name": "御衣野集会所前", "zone_id": "290_01", "location_type": "0"}, "geometry": {"type": "Point", "coordinates": [136.635865, 35.116786]}}, {"type": "Feature", "properties": {"stop_id": "291_01", "stop_name": "御衣野東", "zone_id": "291_01", "location_type": "0"}, "geometry": {"type": "Point", "coordinates": [136.640309, 35.117506]}}, {"type": "Feature", "properties": {"stop_id": "292_01", "stop_name": "下野代駅北", "zone_id": "292_01", "location_type": "0"}, "geometry": {"type": "Point", "coordinates": [136.645179, 35.117801]}}, {"type": "Feature", "properties": {"stop_id": "293_01", "stop_name": "下野代", "zone_id": "293_01", "location_type": "0"}, "geometry": {"type": "Point", "coordinates": [136.647954519014, 35.1148434851224]}}, {"type": "Feature", "properties": {"stop_id": "294_01", "stop_name": "肱江", "zone_id": "294_01", "location_type": "0"}, "geometry": {"type": "Point", "coordinates": [136.644854930059, 35.123283]}}, {"type": "Feature", "properties": {"stop_id": "295_01", "stop_name": "東小山", "zone_id": "295_01", "location_type": "0"}, "geometry": {"type": "Point", "coordinates": [136.641096, 35.125299]}}, {"type": "Feature", "properties": {"stop_id": "296_01", "stop_name": "西小山", "zone_id": "296_01", "location_type": "0"}, "geometry": {"type": "Point", "coordinates": [136.639011177909, 35.1239751318365]}}, {"type": "Feature", "properties": {"stop_id": "297_01", "stop_name": "大鳥居西", "zone_id": "297_01", "location_type": "0"}, "geometry": {"type": "Point", "coordinates": [136.656392, 35.118801]}}, {"type": "Feature", "properties": {"stop_id": "298_01", "stop_name": "大鳥居東", "zone_id": "298_01", "location_type": "0"}, "geometry": {"type": "Point", "coordinates": [136.661765953373, 35.1168027020738]}}, {"type": "Feature", "properties": {"stop_id": "299_01", "stop_name": "南之郷東", "zone_id": "299_01", "location_type": "0"}, "geometry": {"type": "Point", "coordinates": [136.666612836805, 35.123990061977]}}, {"type": "Feature", "properties": {"stop_id": "300_01", "stop_name": "南之郷専光坊前", "zone_id": "300_01", "location_type": "0"}, "geometry": {"type": "Point", "coordinates": [136.666935271164, 35.1293698063423]}}, {"type": "Feature", "properties": {"stop_id": "301_01", "stop_name": "南之郷北", "zone_id": "301_01", "location_type": "0"}, "geometry": {"type": "Point", "coordinates": [136.662159177909, 35.1319079679473]}}, {"type": "Feature", "properties": {"stop_id": "302_01", "stop_name": "中須", "zone_id": "302_01", "location_type": "0"}, "geometry": {"type": "Point", "coordinates": [136.655110271163, 35.12915]}}, {"type": "Feature", "properties": {"stop_id": "303_01", "stop_name": "香取南", "zone_id": "303_01", "location_type": "0"}, "geometry": {"type": "Point", "coordinates": [136.650305953372, 35.1318374833192]}}, {"type": "Feature", "properties": {"stop_id": "304_01", "stop_name": "伊曽島駐在所前", "zone_id": "304_01", "location_type": "0"}, "geometry": {"type": "Point", "coordinates": [136.715240478515, 35.0559107251314]}}, {"type": "Feature", "properties": {"stop_id": "304_02", "stop_name": "伊曽島駐在所前", "zone_id": "304_02", "location_type": "0"}, "geometry": {"type": "Point", "coordinates": [136.715608669975, 35.055734065415]}}, {"type": "Feature", "properties": {"stop_id": "305_01", "stop_name": "伊曽島まちづくり拠点施設前", "zone_id": "305_01", "location_type": "0"}, "geometry": {"type": "Point", "coordinates": [136.719208402446, 35.0487969791305]}}, {"type": "Feature", "properties": {"stop_id": "305_02", "stop_name": "伊曽島まちづくり拠点施設前", "zone_id": "305_02", "location_type": "0"}, "geometry": {"type": "Point", "coordinates": [136.719290209821, 35.0487849020868]}}, {"type": "Feature", "properties": {"stop_id": "306_01", "stop_name": "白坊主山公園", "zone_id": "306_01", "location_type": "0"}, "geometry": {"type": "Point", "coordinates": [136.720400682208, 35.0382041750788]}}, {"type": "Feature", "properties": {"stop_id": "307_01", "stop_name": "野亨寺前", "zone_id": "307_01", "location_type": "0"}, "geometry": {"type": "Point", "coordinates": [136.72356906994, 35.0397822157273]}}, {"type": "Feature", "properties": {"stop_id": "308_01", "stop_name": "松中", "zone_id": "308_01", "location_type": "0"}, "geometry": {"type": "Point", "coordinates": [136.728495, 35.043789]}}, {"type": "Feature", "properties": {"stop_id": "309_01", "stop_name": "横満蔵", "zone_id": "309_01", "location_type": "0"}, "geometry": {"type": "Point", "coordinates": [136.722289228172, 35.0507883725269]}}, {"type": "Feature", "properties": {"stop_id": "309_02", "stop_name": "横満蔵", "zone_id": "309_02", "location_type": "0"}, "geometry": {"type": "Point", "coordinates": [136.722777390212, 35.0501867286696]}}, {"type": "Feature", "properties": {"stop_id": "310_01", "stop_name": "長島スポーツランド前", "zone_id": "310_01", "location_type": "0"}, "geometry": {"type": "Point", "coordinates": [136.721163393848, 35.0536575205554]}}, {"type": "Feature", "properties": {"stop_id": "310_02", "stop_name": "長島スポーツランド前", "zone_id": "310_02", "location_type": "0"}, "geometry": {"type": "Point", "coordinates": [136.721375, 35.053686]}}, {"type": "Feature", "properties": {"stop_id": "311_01", "stop_name": "伊曽島（名四）", "zone_id": "311_01", "location_type": "0"}, "geometry": {"type": "Point", "coordinates": [136.717729, 35.057565]}}, {"type": "Feature", "properties": {"stop_id": "311_02", "stop_name": "伊曽島（名四）", "zone_id": "311_02", "location_type": "0"}, "geometry": {"type": "Point", "coordinates": [136.717647626983, 35.0579955613321]}}, {"type": "Feature", "properties": {"stop_id": "312_01", "stop_name": "東福豊", "zone_id": "312_01", "location_type": "0"}, "geometry": {"type": "Point", "coordinates": [136.722153763806, 35.0622490977321]}}, {"type": "Feature", "properties": {"stop_id": "313_01", "stop_name": "浄仙寺前", "zone_id": "313_01", "location_type": "0"}, "geometry": {"type": "Point", "coordinates": [136.719625860118, 35.0668408978571]}}, {"type": "Feature", "properties": {"stop_id": "314_01", "stop_name": "ユニータウン", "zone_id": "314_01", "location_type": "0"}, "geometry": {"type": "Point", "coordinates": [136.71600031779, 35.0728135120499]}}, {"type": "Feature", "properties": {"stop_id": "315_01", "stop_name": "ながしま遊館", "zone_id": "315_01", "location_type": "0"}, "geometry": {"type": "Point", "coordinates": [136.709158457672, 35.0851194871227]}}, {"type": "Feature", "properties": {"stop_id": "316_01", "stop_name": "姫御前団地", "zone_id": "316_01", "location_type": "0"}, "geometry": {"type": "Point", "coordinates": [136.713369612268, 35.088332610475]}}, {"type": "Feature", "properties": {"stop_id": "317_01", "stop_name": "東殿名", "zone_id": "317_01", "location_type": "0"}, "geometry": {"type": "Point", "coordinates": [136.711363906745, 35.0952227511966]}}, {"type": "Feature", "properties": {"stop_id": "318_01", "stop_name": "第2分団消防車庫前", "zone_id": "318_01", "location_type": "0"}, "geometry": {"type": "Point", "coordinates": [136.708117535057, 35.095512493342]}}, {"type": "Feature", "properties": {"stop_id": "319_01", "stop_name": "農協前", "zone_id": "319_01", "location_type": "0"}, "geometry": {"type": "Point", "coordinates": [136.701228038028, 35.0962079221583]}}, {"type": "Feature", "properties": {"stop_id": "319_02", "stop_name": "農協前", "zone_id": "319_02", "location_type": "0"}, "geometry": {"type": "Point", "coordinates": [136.701313868717, 35.095966521233]}}, {"type": "Feature", "properties": {"stop_id": "320_01", "stop_name": "長島駅前", "zone_id": "320_01", "location_type": "0"}, "geometry": {"type": "Point", "coordinates": [136.696701402446, 35.0974835835491]}}, {"type": "Feature", "properties": {"stop_id": "321_01", "stop_name": "出口長島自動車前", "zone_id": "321_01", "location_type": "0"}, "geometry": {"type": "Point", "coordinates": [136.696548402446, 35.1007324445712]}}, {"type": "Feature", "properties": {"stop_id": "322_01", "stop_name": "大倉スーパー前", "zone_id": "322_01", "location_type": "0"}, "geometry": {"type": "Point", "coordinates": [136.699503359455, 35.1053785778914]}}, {"type": "Feature", "properties": {"stop_id": "323_01", "stop_name": "大倉集会所", "zone_id": "323_01", "location_type": "0"}, "geometry": {"type": "Point", "coordinates": [136.702639775463, 35.1067783949877]}}, {"type": "Feature", "properties": {"stop_id": "324_01", "stop_name": "中部小学校前", "zone_id": "324_01", "location_type": "0"}, "geometry": {"type": "Point", "coordinates": [136.698180999999, 35.0913802478774]}}, {"type": "Feature", "properties": {"stop_id": "325_01", "stop_name": "消防分署北", "zone_id": "325_01", "location_type": "0"}, "geometry": {"type": "Point", "coordinates": [136.699188, 35.089668]}}, {"type": "Feature", "properties": {"stop_id": "326_01", "stop_name": "福祉健康センター", "zone_id": "326_01", "location_type": "0"}, "geometry": {"type": "Point", "coordinates": [136.699874154596, 35.0877186556243]}}, {"type": "Feature", "properties": {"stop_id": "327_01", "stop_name": "又木茶屋前", "zone_id": "327_01", "location_type": "0"}, "geometry": {"type": "Point", "coordinates": [136.70188185152, 35.0913082127477]}}, {"type": "Feature", "properties": {"stop_id": "328_01", "stop_name": "防災コミュニティセンター", "zone_id": "328_01", "location_type": "0"}, "geometry": {"type": "Point", "coordinates": [136.693276046627, 35.1036982508614]}}, {"type": "Feature", "properties": {"stop_id": "329_01", "stop_name": "平方神社", "zone_id": "329_01", "location_type": "0"}, "geometry": {"type": "Point", "coordinates": [136.688150635581, 35.1031660563697]}}, {"type": "Feature", "properties": {"stop_id": "330_01", "stop_name": "千倉東名阪下", "zone_id": "330_01", "location_type": "0"}, "geometry": {"type": "Point", "coordinates": [136.68235378158, 35.1006825828217]}}, {"type": "Feature", "properties": {"stop_id": "331_01", "stop_name": "下坂手集会所", "zone_id": "331_01", "location_type": "0"}, "geometry": {"type": "Point", "coordinates": [136.67616928282, 35.1118481354288]}}, {"type": "Feature", "properties": {"stop_id": "332_01", "stop_name": "上坂手集会所", "zone_id": "332_01", "location_type": "0"}, "geometry": {"type": "Point", "coordinates": [136.677143177909, 35.1187651636609]}}, {"type": "Feature", "properties": {"stop_id": "333_01", "stop_name": "杉江集会所", "zone_id": "333_01", "location_type": "0"}, "geometry": {"type": "Point", "coordinates": [136.679381906745, 35.1223241630858]}}, {"type": "Feature", "properties": {"stop_id": "334_01", "stop_name": "松之木集会所", "zone_id": "334_01", "location_type": "0"}, "geometry": {"type": "Point", "coordinates": [136.680992, 35.126888]}}, {"type": "Feature", "properties": {"stop_id": "335_01", "stop_name": "新所集会所", "zone_id": "335_01", "location_type": "0"}, "geometry": {"type": "Point", "coordinates": [136.68496406994, 35.1248896782246]}}, {"type": "Feature", "properties": {"stop_id": "336_01", "stop_name": "輪中の郷", "zone_id": "336_01", "location_type": "0"}, "geometry": {"type": "Point", "coordinates": [136.688870472387, 35.1217046332051]}}, {"type": "Feature", "properties": {"stop_id": "337_01", "stop_name": "西川防火水槽前", "zone_id": "337_01", "location_type": "0"}, "geometry": {"type": "Point", "coordinates": [136.6903084957, 35.1169981639464]}}, {"type": "Feature", "properties": {"stop_id": "338_01", "stop_name": "北部小学校前", "zone_id": "338_01", "location_type": "0"}, "geometry": {"type": "Point", "coordinates": [136.6866, 35.1107796701041]}}, {"type": "Feature", "properties": {"stop_id": "339_01", "stop_name": "間々", "zone_id": "339_01", "location_type": "0"}, "geometry": {"type": "Point", "coordinates": [136.691696, 35.108952]}}, {"type": "Feature", "properties": {"stop_id": "340_01", "stop_name": "小島", "zone_id": "340_01", "location_type": "0"}, "geometry": {"type": "Point", "coordinates": [136.699332, 35.113247]}}, {"type": "Feature", "properties": {"stop_id": "342_01", "stop_name": "押付", "zone_id": "342_01", "location_type": "0"}, "geometry": {"type": "Point", "coordinates": [136.705020487102, 35.1051963268839]}}, {"type": "Feature", "properties": {"stop_id": "343_01", "stop_name": "尾張大橋南詰", "zone_id": "343_01", "location_type": "0"}, "geometry": {"type": "Point", "coordinates": [136.708372, 35.102181]}}, {"type": "Feature", "properties": {"stop_id": "344_01", "stop_name": "なばなの里前", "zone_id": "344_01", "location_type": "0"}, "geometry": {"type": "Point", "coordinates": [136.702299, 35.082582]}}, {"type": "Feature", "properties": {"stop_id": "344_02", "stop_name": "なばなの里前", "zone_id": "344_02", "location_type": "0"}, "geometry": {"type": "Point", "coordinates": [136.702646635581, 35.0827944575475]}}, {"type": "Feature", "properties": {"stop_id": "345_01", "stop_name": "教育集会所", "zone_id": "345_01", "location_type": "0"}, "geometry": {"type": "Point", "coordinates": [136.700503084655, 35.0845022462116]}}, {"type": "Feature", "properties": {"stop_id": "346_01", "stop_name": "葭ケ須口", "zone_id": "346_01", "location_type": "0"}, "geometry": {"type": "Point", "coordinates": [136.707731658895, 35.0732211961501]}}, {"type": "Feature", "properties": {"stop_id": "347_01", "stop_name": "赤地", "zone_id": "347_01", "location_type": "0"}, "geometry": {"type": "Point", "coordinates": [136.709728224536, 35.069954]}}, {"type": "Feature", "properties": {"stop_id": "348_01", "stop_name": "西福豊", "zone_id": "348_01", "location_type": "0"}, "geometry": {"type": "Point", "coordinates": [136.712715201223, 35.063457]}}, {"type": "Feature", "properties": {"stop_id": "349_01", "stop_name": "宮川", "zone_id": "349_01", "location_type": "0"}, "geometry": {"type": "Point", "coordinates": [136.63142106994, 35.134954451944]}}, {"type": "Feature", "properties": {"stop_id": "350_01", "stop_name": "桑名市総合医療センター", "zone_id": "350_01", "location_type": "0"}, "geometry": {"type": "Point", "coordinates": [136.687199, 35.065745]}}, {"type": "Feature", "properties": {"stop_id": "350_02", "stop_name": "桑名市総合医療センター", "zone_id": "350_02", "location_type": "0"}, "geometry": {"type": "Point", "coordinates": [136.68753268104, 35.0656018121916]}}, {"type": "Feature", "properties": {"stop_id": "351_01", "stop_name": "高塚町", "zone_id": "351_01", "location_type": "0"}, "geometry": {"type": "Point", "coordinates": [136.6727, 35.071992]}}, {"type": "Feature", "properties": {"stop_id": "352_01", "stop_name": "かおるヶ丘", "zone_id": "352_01", "location_type": "0"}, "geometry": {"type": "Point", "coordinates": [136.701513, 35.09977]}}, {"type": "Feature", "properties": {"stop_id": "353_01", "stop_name": "小貝須農業協同作業所前", "zone_id": "353_01", "location_type": "0"}, "geometry": {"type": "Point", "coordinates": [136.698833, 35.04987]}}, {"type": "Feature", "properties": {"stop_id": "354_01", "stop_name": "小貝須", "zone_id": "354_01", "location_type": "0"}, "geometry": {"type": "Point", "coordinates": [136.697969, 35.047404]}}, {"type": "Feature", "properties": {"stop_id": "355_01", "stop_name": "小貝須浜集会所", "zone_id": "355_01", "location_type": "0"}, "geometry": {"type": "Point", "coordinates": [136.700167, 35.044819]}}, {"type": "Feature", "properties": {"stop_id": "356_01", "stop_name": "出郷橋東", "zone_id": "356_01", "location_type": "0"}, "geometry": {"type": "Point", "coordinates": [136.697476, 35.043752]}}, {"type": "Feature", "properties": {"stop_id": "357_01", "stop_name": "大貝須", "zone_id": "357_01", "location_type": "0"}, "geometry": {"type": "Point", "coordinates": [136.698053, 35.039542]}}, {"type": "Feature", "properties": {"stop_id": "357_02", "stop_name": "大貝須", "zone_id": "357_02", "location_type": "0"}, "geometry": {"type": "Point", "coordinates": [136.698007, 35.039485]}}, {"type": "Feature", "properties": {"stop_id": "358_01", "stop_name": "立田町", "zone_id": "358_01", "location_type": "0"}, "geometry": {"type": "Point", "coordinates": [136.704068, 35.039685]}}, {"type": "Feature", "properties": {"stop_id": "358_02", "stop_name": "立田町", "zone_id": "358_02", "location_type": "0"}, "geometry": {"type": "Point", "coordinates": [136.704085, 35.039613]}}, {"type": "Feature", "properties": {"stop_id": "359_01", "stop_name": "太平町", "zone_id": "359_01", "location_type": "0"}, "geometry": {"type": "Point", "coordinates": [136.705672, 35.033801]}}, {"type": "Feature", "properties": {"stop_id": "360_01", "stop_name": "江場", "zone_id": "360_01", "location_type": "0"}, "geometry": {"type": "Point", "coordinates": [136.692166, 35.050255]}}, {"type": "Feature", "properties": {"stop_id": "360_02", "stop_name": "江場", "zone_id": "360_02", "location_type": "0"}, "geometry": {"type": "Point", "coordinates": [136.691954, 35.050201]}}, {"type": "Feature", "properties": {"stop_id": "361_01", "stop_name": "陽和中学校前", "zone_id": "361_01", "location_type": "0"}, "geometry": {"type": "Point", "coordinates": [136.695453, 35.052856]}}, {"type": "Feature", "properties": {"stop_id": "361_02", "stop_name": "陽和中学校前", "zone_id": "361_02", "location_type": "0"}, "geometry": {"type": "Point", "coordinates": [136.69554, 35.052836]}}, {"type": "Feature", "properties": {"stop_id": "362_01", "stop_name": "桑名駅西口", "zone_id": "362_01", "location_type": "0"}, "geometry": {"type": "Point", "coordinates": [136.682893, 35.06674]}}, {"type": "Feature", "properties": {"stop_id": "363_01", "stop_name": "神馬の湯", "zone_id": "363_01", "location_type": "0"}, "geometry": {"type": "Point", "coordinates": [136.637215, 35.13108]}}]}