{"type": "FeatureCollection", "name": "stops", "crs": {"type": "name", "properties": {"name": "urn:ogc:def:crs:OGC:1.3:CRS84"}}, "features": [{"type": "Feature", "properties": {"stop_id": "1_01", "stop_name": "大杉公会堂前", "zone_id": "1_01", "location_type": "0"}, "geometry": {"type": "Point", "coordinates": [134.115176796913, 35.257631023706]}}, {"type": "Feature", "properties": {"stop_id": "10_01", "stop_name": "阿波出張所前", "zone_id": "10_01", "location_type": "0"}, "geometry": {"type": "Point", "coordinates": [134.111287593842, 35.2369704517732]}}, {"type": "Feature", "properties": {"stop_id": "11_01", "stop_name": "あば温泉前", "zone_id": "11_01", "location_type": "0"}, "geometry": {"type": "Point", "coordinates": [134.110659956932, 35.2352353551131]}}, {"type": "Feature", "properties": {"stop_id": "12_01", "stop_name": "神田", "zone_id": "12_01", "location_type": "0"}, "geometry": {"type": "Point", "coordinates": [134.111362695694, 35.2321155940091]}}, {"type": "Feature", "properties": {"stop_id": "13_01", "stop_name": "大ヶ山口", "zone_id": "13_01", "location_type": "0"}, "geometry": {"type": "Point", "coordinates": [134.112532138824, 35.2307879049127]}}, {"type": "Feature", "properties": {"stop_id": "14_01", "stop_name": "橋本前", "zone_id": "14_01", "location_type": "0"}, "geometry": {"type": "Point", "coordinates": [134.113191962242, 35.2289036905203]}}, {"type": "Feature", "properties": {"stop_id": "15_01", "stop_name": "樋村橋", "zone_id": "15_01", "location_type": "0"}, "geometry": {"type": "Point", "coordinates": [134.114661812782, 35.2270588688957]}}, {"type": "Feature", "properties": {"stop_id": "16_01", "stop_name": "下沢口", "zone_id": "16_01", "location_type": "0"}, "geometry": {"type": "Point", "coordinates": [134.11284327507, 35.2245610648038]}}, {"type": "Feature", "properties": {"stop_id": "17_01", "stop_name": "一ノ渡", "zone_id": "17_01", "location_type": "0"}, "geometry": {"type": "Point", "coordinates": [134.111770391464, 35.2214890972882]}}, {"type": "Feature", "properties": {"stop_id": "18_01", "stop_name": "阿蔵", "zone_id": "18_01", "location_type": "0"}, "geometry": {"type": "Point", "coordinates": [134.111861586571, 35.2171723710861]}}, {"type": "Feature", "properties": {"stop_id": "19_01", "stop_name": "河井中", "zone_id": "19_01", "location_type": "0"}, "geometry": {"type": "Point", "coordinates": [134.110563397408, 35.2121497799268]}}, {"type": "Feature", "properties": {"stop_id": "2_01", "stop_name": "段", "zone_id": "2_01", "location_type": "0"}, "geometry": {"type": "Point", "coordinates": [134.11522, 35.25452]}}, {"type": "Feature", "properties": {"stop_id": "20_01", "stop_name": "河井橋", "zone_id": "20_01", "location_type": "0"}, "geometry": {"type": "Point", "coordinates": [134.112306833267, 35.2081306052481]}}, {"type": "Feature", "properties": {"stop_id": "21_01", "stop_name": "美作河井駅", "zone_id": "21_01", "location_type": "0"}, "geometry": {"type": "Point", "coordinates": [134.107076525688, 35.205579619847]}}, {"type": "Feature", "properties": {"stop_id": "22_01", "stop_name": "山下", "zone_id": "22_01", "location_type": "0"}, "geometry": {"type": "Point", "coordinates": [134.107607603073, 35.2064474910034]}}, {"type": "Feature", "properties": {"stop_id": "23_01", "stop_name": "大ヶ原", "zone_id": "23_01", "location_type": "0"}, "geometry": {"type": "Point", "coordinates": [134.089974761009, 35.2032740211178]}}, {"type": "Feature", "properties": {"stop_id": "24_01", "stop_name": "知和橋", "zone_id": "24_01", "location_type": "0"}, "geometry": {"type": "Point", "coordinates": [134.085967540741, 35.1956773542948]}}, {"type": "Feature", "properties": {"stop_id": "25_01", "stop_name": "知和駅前", "zone_id": "25_01", "location_type": "0"}, "geometry": {"type": "Point", "coordinates": [134.077234268188, 35.1935029866072]}}, {"type": "Feature", "properties": {"stop_id": "26_01", "stop_name": "青栁口", "zone_id": "26_01", "location_type": "0"}, "geometry": {"type": "Point", "coordinates": [134.06737, 35.191449]}}, {"type": "Feature", "properties": {"stop_id": "27_01", "stop_name": "加茂小学校", "zone_id": "27_01", "location_type": "0"}, "geometry": {"type": "Point", "coordinates": [134.055803418159, 35.1769610130909]}}, {"type": "Feature", "properties": {"stop_id": "28_01", "stop_name": "加茂支所前", "zone_id": "28_01", "location_type": "0"}, "geometry": {"type": "Point", "coordinates": [134.053893685341, 35.177868650616]}}, {"type": "Feature", "properties": {"stop_id": "29_01", "stop_name": "めぐみ荘", "zone_id": "29_01", "location_type": "0"}, "geometry": {"type": "Point", "coordinates": [134.049827456474, 35.1782106578409]}}, {"type": "Feature", "properties": {"stop_id": "3_01", "stop_name": "小原", "zone_id": "3_01", "location_type": "0"}, "geometry": {"type": "Point", "coordinates": [134.115997552872, 35.2512616740045]}}, {"type": "Feature", "properties": {"stop_id": "30_01", "stop_name": "岸本橋", "zone_id": "30_01", "location_type": "0"}, "geometry": {"type": "Point", "coordinates": [134.051994681358, 35.1768382395713]}}, {"type": "Feature", "properties": {"stop_id": "31_01", "stop_name": "東西橋", "zone_id": "31_01", "location_type": "0"}, "geometry": {"type": "Point", "coordinates": [134.056517, 35.172477]}}, {"type": "Feature", "properties": {"stop_id": "32_01", "stop_name": "加茂中学校", "zone_id": "32_01", "location_type": "0"}, "geometry": {"type": "Point", "coordinates": [134.057782888412, 35.1750141615022]}}, {"type": "Feature", "properties": {"stop_id": "4_01", "stop_name": "福本橋", "zone_id": "4_01", "location_type": "0"}, "geometry": {"type": "Point", "coordinates": [134.116040468216, 35.2491676541568]}}, {"type": "Feature", "properties": {"stop_id": "5_01", "stop_name": "落合口", "zone_id": "5_01", "location_type": "0"}, "geometry": {"type": "Point", "coordinates": [134.116019010544, 35.2472312958768]}}, {"type": "Feature", "properties": {"stop_id": "6_01", "stop_name": "大高下", "zone_id": "6_01", "location_type": "0"}, "geometry": {"type": "Point", "coordinates": [134.114742279053, 35.2456848094032]}}, {"type": "Feature", "properties": {"stop_id": "7_01", "stop_name": "ふれあい会館前", "zone_id": "7_01", "location_type": "0"}, "geometry": {"type": "Point", "coordinates": [134.113883972168, 35.2441733354029]}}, {"type": "Feature", "properties": {"stop_id": "8_01", "stop_name": "尾所川口", "zone_id": "8_01", "location_type": "0"}, "geometry": {"type": "Point", "coordinates": [134.113690853119, 35.2417549199451]}}, {"type": "Feature", "properties": {"stop_id": "9_01", "stop_name": "大畑", "zone_id": "9_01", "location_type": "0"}, "geometry": {"type": "Point", "coordinates": [134.111818671227, 35.2379869562461]}}]}