{"type": "FeatureCollection", "name": "stops", "crs": {"type": "name", "properties": {"name": "urn:ogc:def:crs:OGC:1.3:CRS84"}}, "features": [{"type": "Feature", "properties": {"stop_id": "102_01", "stop_name": "一志町", "zone_id": "102_01", "location_type": "0"}, "geometry": {"type": "Point", "coordinates": [136.703800857067, 34.4901866020531]}}, {"type": "Feature", "properties": {"stop_id": "102_02", "stop_name": "一志町", "zone_id": "102_02", "location_type": "0"}, "geometry": {"type": "Point", "coordinates": [136.703725755214, 34.490093750969]}}, {"type": "Feature", "properties": {"stop_id": "104_01", "stop_name": "一之木二丁目", "zone_id": "104_01", "location_type": "0"}, "geometry": {"type": "Point", "coordinates": [136.705766916275, 34.4953670313307]}}, {"type": "Feature", "properties": {"stop_id": "104_02", "stop_name": "一之木二丁目", "zone_id": "104_02", "location_type": "0"}, "geometry": {"type": "Point", "coordinates": [136.705817207694, 34.495359294225]}}, {"type": "Feature", "properties": {"stop_id": "105_01", "stop_name": "宮後三丁目", "zone_id": "105_01", "location_type": "0"}, "geometry": {"type": "Point", "coordinates": [136.708449125289, 34.4967538959316]}}, {"type": "Feature", "properties": {"stop_id": "105_02", "stop_name": "宮後三丁目", "zone_id": "105_02", "location_type": "0"}, "geometry": {"type": "Point", "coordinates": [136.708513498306, 34.4966831578293]}}, {"type": "Feature", "properties": {"stop_id": "106_01", "stop_name": "伊勢赤十字病院", "zone_id": "106_01", "location_type": "0"}, "geometry": {"type": "Point", "coordinates": [136.711557635582, 34.5019578938433]}}, {"type": "Feature", "properties": {"stop_id": "107_01", "stop_name": "一之木", "zone_id": "107_01", "location_type": "0"}, "geometry": {"type": "Point", "coordinates": [136.708479970693, 34.4991799554586]}}, {"type": "Feature", "properties": {"stop_id": "107_02", "stop_name": "一之木", "zone_id": "107_02", "location_type": "0"}, "geometry": {"type": "Point", "coordinates": [136.7085001, 34.49924351]}}, {"type": "Feature", "properties": {"stop_id": "108_01", "stop_name": "一之木北", "zone_id": "108_01", "location_type": "0"}, "geometry": {"type": "Point", "coordinates": [136.707187145948, 34.5007549221421]}}, {"type": "Feature", "properties": {"stop_id": "108_02", "stop_name": "一之木北", "zone_id": "108_02", "location_type": "0"}, "geometry": {"type": "Point", "coordinates": [136.707266271114, 34.5007195547957]}}, {"type": "Feature", "properties": {"stop_id": "109_01", "stop_name": "三軒屋", "zone_id": "109_01", "location_type": "0"}, "geometry": {"type": "Point", "coordinates": [136.708129942417, 34.5048684842383]}}, {"type": "Feature", "properties": {"stop_id": "109_02", "stop_name": "三軒屋", "zone_id": "109_02", "location_type": "0"}, "geometry": {"type": "Point", "coordinates": [136.708261370658, 34.5049773438847]}}, {"type": "Feature", "properties": {"stop_id": "110_01", "stop_name": "御薗総合支所前", "zone_id": "110_01", "location_type": "0"}, "geometry": {"type": "Point", "coordinates": [136.710450053215, 34.5095968404824]}}, {"type": "Feature", "properties": {"stop_id": "110_02", "stop_name": "御薗総合支所前", "zone_id": "110_02", "location_type": "0"}, "geometry": {"type": "Point", "coordinates": [136.710302531719, 34.5091199832474]}}, {"type": "Feature", "properties": {"stop_id": "111_01", "stop_name": "ハートプラザみその", "zone_id": "111_01", "location_type": "0"}, "geometry": {"type": "Point", "coordinates": [136.70756231779, 34.5094790511373]}}, {"type": "Feature", "properties": {"stop_id": "118_01", "stop_name": "王中島", "zone_id": "118_01", "location_type": "0"}, "geometry": {"type": "Point", "coordinates": [136.715393, 34.511368]}}, {"type": "Feature", "properties": {"stop_id": "119_01", "stop_name": "新開", "zone_id": "119_01", "location_type": "0"}, "geometry": {"type": "Point", "coordinates": [136.723102033138, 34.51187278777]}}, {"type": "Feature", "properties": {"stop_id": "119_02", "stop_name": "新開", "zone_id": "119_02", "location_type": "0"}, "geometry": {"type": "Point", "coordinates": [136.723053753376, 34.5119534587109]}}, {"type": "Feature", "properties": {"stop_id": "120_01", "stop_name": "ララパーク", "zone_id": "120_01", "location_type": "0"}, "geometry": {"type": "Point", "coordinates": [136.721779704093, 34.5074694725399]}}, {"type": "Feature", "properties": {"stop_id": "120_02", "stop_name": "ララパーク", "zone_id": "120_02", "location_type": "0"}, "geometry": {"type": "Point", "coordinates": [136.722509264945, 34.507851]}}, {"type": "Feature", "properties": {"stop_id": "121_01", "stop_name": "ゆたか幼稚園前", "zone_id": "121_01", "location_type": "0"}, "geometry": {"type": "Point", "coordinates": [136.717877089977, 34.5071655584008]}}, {"type": "Feature", "properties": {"stop_id": "121_02", "stop_name": "ゆたか幼稚園前", "zone_id": "121_02", "location_type": "0"}, "geometry": {"type": "Point", "coordinates": [136.718067526817, 34.5069312674716]}}, {"type": "Feature", "properties": {"stop_id": "122_01", "stop_name": "伊勢みそのショッピングセンター", "zone_id": "122_01", "location_type": "0"}, "geometry": {"type": "Point", "coordinates": [136.713516, 34.507088]}}, {"type": "Feature", "properties": {"stop_id": "123_01", "stop_name": "上長屋公民館", "zone_id": "123_01", "location_type": "0"}, "geometry": {"type": "Point", "coordinates": [136.705261, 34.50898]}}, {"type": "Feature", "properties": {"stop_id": "125_01", "stop_name": "高向大社前", "zone_id": "125_01", "location_type": "0"}, "geometry": {"type": "Point", "coordinates": [136.697083, 34.507637]}}, {"type": "Feature", "properties": {"stop_id": "126_01", "stop_name": "高向北", "zone_id": "126_01", "location_type": "0"}, "geometry": {"type": "Point", "coordinates": [136.694949567317, 34.5065135206903]}}, {"type": "Feature", "properties": {"stop_id": "126_02", "stop_name": "高向北", "zone_id": "126_02", "location_type": "0"}, "geometry": {"type": "Point", "coordinates": [136.694867, 34.50648]}}, {"type": "Feature", "properties": {"stop_id": "127_01", "stop_name": "高向", "zone_id": "127_01", "location_type": "0"}, "geometry": {"type": "Point", "coordinates": [136.699497, 34.502514]}}, {"type": "Feature", "properties": {"stop_id": "129_01", "stop_name": "大世古", "zone_id": "129_01", "location_type": "0"}, "geometry": {"type": "Point", "coordinates": [136.701721, 34.497238]}}, {"type": "Feature", "properties": {"stop_id": "130_01", "stop_name": "尼辻", "zone_id": "130_01", "location_type": "0"}, "geometry": {"type": "Point", "coordinates": [136.701797, 34.49575]}}, {"type": "Feature", "properties": {"stop_id": "130_02", "stop_name": "尼辻", "zone_id": "130_02", "location_type": "0"}, "geometry": {"type": "Point", "coordinates": [136.70172214508, 34.4957011078177]}}, {"type": "Feature", "properties": {"stop_id": "135_01", "stop_name": "伊勢市立図書館前", "zone_id": "135_01", "location_type": "0"}, "geometry": {"type": "Point", "coordinates": [136.698884367942, 34.4903457750995]}}, {"type": "Feature", "properties": {"stop_id": "135_02", "stop_name": "伊勢市立図書館前", "zone_id": "135_02", "location_type": "0"}, "geometry": {"type": "Point", "coordinates": [136.698913872241, 34.4901976557467]}}, {"type": "Feature", "properties": {"stop_id": "138_01", "stop_name": "宇治山田駅前", "zone_id": "138_01", "location_type": "0"}, "geometry": {"type": "Point", "coordinates": [136.713492148479, 34.4879689408732]}}, {"type": "Feature", "properties": {"stop_id": "139_01", "stop_name": "庁舎前", "zone_id": "139_01", "location_type": "0"}, "geometry": {"type": "Point", "coordinates": [136.709514, 34.4815786460957]}}, {"type": "Feature", "properties": {"stop_id": "139_02", "stop_name": "庁舎前", "zone_id": "139_02", "location_type": "0"}, "geometry": {"type": "Point", "coordinates": [136.709338, 34.48147252]}}, {"type": "Feature", "properties": {"stop_id": "139_03", "stop_name": "庁舎前", "zone_id": "139_03", "location_type": "0"}, "geometry": {"type": "Point", "coordinates": [136.709506, 34.481132]}}, {"type": "Feature", "properties": {"stop_id": "140_01", "stop_name": "ぎゅーとらラブリー藤里店", "zone_id": "140_01", "location_type": "0"}, "geometry": {"type": "Point", "coordinates": [136.706345, 34.479691]}}, {"type": "Feature", "properties": {"stop_id": "141_01", "stop_name": "ベリー藤里店", "zone_id": "141_01", "location_type": "0"}, "geometry": {"type": "Point", "coordinates": [136.704956, 34.47929]}}, {"type": "Feature", "properties": {"stop_id": "142_01", "stop_name": "宮山小学校前", "zone_id": "142_01", "location_type": "0"}, "geometry": {"type": "Point", "coordinates": [136.699619293212, 34.4737204992242]}}, {"type": "Feature", "properties": {"stop_id": "142_02", "stop_name": "宮山小学校前", "zone_id": "142_02", "location_type": "0"}, "geometry": {"type": "Point", "coordinates": [136.6995683, 34.47386091]}}, {"type": "Feature", "properties": {"stop_id": "143_01", "stop_name": "藤里団地口", "zone_id": "143_01", "location_type": "0"}, "geometry": {"type": "Point", "coordinates": [136.700562, 34.468079]}}, {"type": "Feature", "properties": {"stop_id": "144_01", "stop_name": "藤里団地南", "zone_id": "144_01", "location_type": "0"}, "geometry": {"type": "Point", "coordinates": [136.699092, 34.464962]}}, {"type": "Feature", "properties": {"stop_id": "145_01", "stop_name": "ふじが丘", "zone_id": "145_01", "location_type": "0"}, "geometry": {"type": "Point", "coordinates": [136.695810556411, 34.4662651888059]}}, {"type": "Feature", "properties": {"stop_id": "145_02", "stop_name": "ふじが丘", "zone_id": "145_02", "location_type": "0"}, "geometry": {"type": "Point", "coordinates": [136.6958749, 34.46632047]}}, {"type": "Feature", "properties": {"stop_id": "146_01", "stop_name": "ふじが丘口", "zone_id": "146_01", "location_type": "0"}, "geometry": {"type": "Point", "coordinates": [136.695998311042, 34.470862506247]}}, {"type": "Feature", "properties": {"stop_id": "146_02", "stop_name": "ふじが丘口", "zone_id": "146_02", "location_type": "0"}, "geometry": {"type": "Point", "coordinates": [136.6960707, 34.4708426]}}, {"type": "Feature", "properties": {"stop_id": "147_01", "stop_name": "旭町住宅前", "zone_id": "147_01", "location_type": "0"}, "geometry": {"type": "Point", "coordinates": [136.690403223037, 34.4694793572859]}}, {"type": "Feature", "properties": {"stop_id": "147_02", "stop_name": "旭町住宅前", "zone_id": "147_02", "location_type": "0"}, "geometry": {"type": "Point", "coordinates": [136.690886, 34.47009409]}}, {"type": "Feature", "properties": {"stop_id": "148_01", "stop_name": "前山公民館", "zone_id": "148_01", "location_type": "0"}, "geometry": {"type": "Point", "coordinates": [136.688629, 34.467072]}}, {"type": "Feature", "properties": {"stop_id": "149_01", "stop_name": "前山北", "zone_id": "149_01", "location_type": "0"}, "geometry": {"type": "Point", "coordinates": [136.688151642688, 34.4708170650282]}}, {"type": "Feature", "properties": {"stop_id": "150_01", "stop_name": "辻久留団地口", "zone_id": "150_01", "location_type": "0"}, "geometry": {"type": "Point", "coordinates": [136.683868, 34.473415]}}, {"type": "Feature", "properties": {"stop_id": "151_01", "stop_name": "辻久留団地第三公園前", "zone_id": "151_01", "location_type": "0"}, "geometry": {"type": "Point", "coordinates": [136.687225, 34.472378]}}, {"type": "Feature", "properties": {"stop_id": "152_01", "stop_name": "辻久留団地中", "zone_id": "152_01", "location_type": "0"}, "geometry": {"type": "Point", "coordinates": [136.686737, 34.473007]}}, {"type": "Feature", "properties": {"stop_id": "153_01", "stop_name": "三郷山", "zone_id": "153_01", "location_type": "0"}, "geometry": {"type": "Point", "coordinates": [136.680801, 34.474689]}}, {"type": "Feature", "properties": {"stop_id": "154_01", "stop_name": "月夜見宮前", "zone_id": "154_01", "location_type": "0"}, "geometry": {"type": "Point", "coordinates": [136.706056594848, 34.492093342527]}}, {"type": "Feature", "properties": {"stop_id": "154_02", "stop_name": "月夜見宮前", "zone_id": "154_02", "location_type": "0"}, "geometry": {"type": "Point", "coordinates": [136.706448197364, 34.4919695438892]}}, {"type": "Feature", "properties": {"stop_id": "155_01", "stop_name": "伊勢市駅前", "zone_id": "155_01", "location_type": "0"}, "geometry": {"type": "Point", "coordinates": [136.70926451683, 34.4911018429214]}}, {"type": "Feature", "properties": {"stop_id": "156_01", "stop_name": "小俣図書館", "zone_id": "156_01", "location_type": "0"}, "geometry": {"type": "Point", "coordinates": [136.670944, 34.50592]}}, {"type": "Feature", "properties": {"stop_id": "157_01", "stop_name": "西本町", "zone_id": "157_01", "location_type": "0"}, "geometry": {"type": "Point", "coordinates": [136.670395, 34.503799]}}, {"type": "Feature", "properties": {"stop_id": "158_01", "stop_name": "JR宮川駅前", "zone_id": "158_01", "location_type": "0"}, "geometry": {"type": "Point", "coordinates": [136.671627759933, 34.5033273037352]}}, {"type": "Feature", "properties": {"stop_id": "158_02", "stop_name": "JR宮川駅前", "zone_id": "158_02", "location_type": "0"}, "geometry": {"type": "Point", "coordinates": [136.671735, 34.5032842]}}, {"type": "Feature", "properties": {"stop_id": "159_01", "stop_name": "小俣", "zone_id": "159_01", "location_type": "0"}, "geometry": {"type": "Point", "coordinates": [136.674165129661, 34.5048170935944]}}, {"type": "Feature", "properties": {"stop_id": "159_02", "stop_name": "小俣", "zone_id": "159_02", "location_type": "0"}, "geometry": {"type": "Point", "coordinates": [136.6737682, 34.50453859]}}, {"type": "Feature", "properties": {"stop_id": "160_01", "stop_name": "小俣郵便局前", "zone_id": "160_01", "location_type": "0"}, "geometry": {"type": "Point", "coordinates": [136.675507, 34.505493]}}, {"type": "Feature", "properties": {"stop_id": "161_01", "stop_name": "小俣総合支所前（ぎゅーとら　小俣店）", "zone_id": "161_01", "location_type": "0"}, "geometry": {"type": "Point", "coordinates": [136.67460501194, 34.5073363030262]}}, {"type": "Feature", "properties": {"stop_id": "161_02", "stop_name": "小俣総合支所前（ぎゅーとら　小俣店）", "zone_id": "161_02", "location_type": "0"}, "geometry": {"type": "Point", "coordinates": [136.6748706, 34.50714843]}}, {"type": "Feature", "properties": {"stop_id": "162_01", "stop_name": "新出", "zone_id": "162_01", "location_type": "0"}, "geometry": {"type": "Point", "coordinates": [136.67239755392, 34.5098421750072]}}, {"type": "Feature", "properties": {"stop_id": "162_02", "stop_name": "新出", "zone_id": "162_02", "location_type": "0"}, "geometry": {"type": "Point", "coordinates": [136.6726309, 34.50970072]}}, {"type": "Feature", "properties": {"stop_id": "163_01", "stop_name": "ベリー小俣店", "zone_id": "163_01", "location_type": "0"}, "geometry": {"type": "Point", "coordinates": [136.671293411045, 34.5117784745843]}}, {"type": "Feature", "properties": {"stop_id": "164_01", "stop_name": "庚申前", "zone_id": "164_01", "location_type": "0"}, "geometry": {"type": "Point", "coordinates": [136.669498085975, 34.5133696077824]}}, {"type": "Feature", "properties": {"stop_id": "164_02", "stop_name": "庚申前", "zone_id": "164_02", "location_type": "0"}, "geometry": {"type": "Point", "coordinates": [136.6695799, 34.51339558]}}, {"type": "Feature", "properties": {"stop_id": "165_01", "stop_name": "明野（へんばや商店　本店前）", "zone_id": "165_01", "location_type": "0"}, "geometry": {"type": "Point", "coordinates": [136.667084, 34.517345]}}, {"type": "Feature", "properties": {"stop_id": "166_01", "stop_name": "近鉄明野駅前", "zone_id": "166_01", "location_type": "0"}, "geometry": {"type": "Point", "coordinates": [136.667084097862, 34.5217334027378]}}, {"type": "Feature", "properties": {"stop_id": "166_02", "stop_name": "近鉄明野駅前", "zone_id": "166_02", "location_type": "0"}, "geometry": {"type": "Point", "coordinates": [136.668277, 34.521497]}}, {"type": "Feature", "properties": {"stop_id": "167_01", "stop_name": "明野保健福祉会館", "zone_id": "167_01", "location_type": "0"}, "geometry": {"type": "Point", "coordinates": [136.667007, 34.523266]}}, {"type": "Feature", "properties": {"stop_id": "168_01", "stop_name": "明野高校", "zone_id": "168_01", "location_type": "0"}, "geometry": {"type": "Point", "coordinates": [136.667252, 34.52607]}}, {"type": "Feature", "properties": {"stop_id": "169_01", "stop_name": "北部公民館", "zone_id": "169_01", "location_type": "0"}, "geometry": {"type": "Point", "coordinates": [136.664841, 34.528774]}}, {"type": "Feature", "properties": {"stop_id": "170_01", "stop_name": "野村町", "zone_id": "170_01", "location_type": "0"}, "geometry": {"type": "Point", "coordinates": [136.661102, 34.526638]}}, {"type": "Feature", "properties": {"stop_id": "171_01", "stop_name": "JA明野前", "zone_id": "171_01", "location_type": "0"}, "geometry": {"type": "Point", "coordinates": [136.661544154596, 34.530372048366]}}, {"type": "Feature", "properties": {"stop_id": "172_01", "stop_name": "明野第四", "zone_id": "172_01", "location_type": "0"}, "geometry": {"type": "Point", "coordinates": [136.663742, 34.531757]}}, {"type": "Feature", "properties": {"stop_id": "173_01", "stop_name": "航空学校南", "zone_id": "173_01", "location_type": "0"}, "geometry": {"type": "Point", "coordinates": [136.667297, 34.530052]}}, {"type": "Feature", "properties": {"stop_id": "174_01", "stop_name": "航空学校", "zone_id": "174_01", "location_type": "0"}, "geometry": {"type": "Point", "coordinates": [136.6673577, 34.53271921]}}, {"type": "Feature", "properties": {"stop_id": "174_02", "stop_name": "航空学校", "zone_id": "174_02", "location_type": "0"}, "geometry": {"type": "Point", "coordinates": [136.6677654, 34.53187734]}}, {"type": "Feature", "properties": {"stop_id": "175_01", "stop_name": "航空学校北", "zone_id": "175_01", "location_type": "0"}, "geometry": {"type": "Point", "coordinates": [136.665741, 34.536278]}}, {"type": "Feature", "properties": {"stop_id": "178_01", "stop_name": "いせトピア", "zone_id": "178_01", "location_type": "0"}, "geometry": {"type": "Point", "coordinates": [136.732937244791, 34.4934147769354]}}, {"type": "Feature", "properties": {"stop_id": "179_01", "stop_name": "山商口", "zone_id": "179_01", "location_type": "0"}, "geometry": {"type": "Point", "coordinates": [136.740611171793, 34.4943415555998]}}, {"type": "Feature", "properties": {"stop_id": "179_02", "stop_name": "山商口", "zone_id": "179_02", "location_type": "0"}, "geometry": {"type": "Point", "coordinates": [136.7403872, 34.49422937]}}, {"type": "Feature", "properties": {"stop_id": "180_01", "stop_name": "鹿海口", "zone_id": "180_01", "location_type": "0"}, "geometry": {"type": "Point", "coordinates": [136.743713, 34.491886]}}, {"type": "Feature", "properties": {"stop_id": "181_01", "stop_name": "西鹿海", "zone_id": "181_01", "location_type": "0"}, "geometry": {"type": "Point", "coordinates": [136.745941, 34.490147]}}, {"type": "Feature", "properties": {"stop_id": "182_01", "stop_name": "東鹿海", "zone_id": "182_01", "location_type": "0"}, "geometry": {"type": "Point", "coordinates": [136.748184, 34.486736]}}, {"type": "Feature", "properties": {"stop_id": "183_01", "stop_name": "朝熊インター南", "zone_id": "183_01", "location_type": "0"}, "geometry": {"type": "Point", "coordinates": [136.755065435354, 34.4849779386405]}}, {"type": "Feature", "properties": {"stop_id": "184_01", "stop_name": "大久保市民館前", "zone_id": "184_01", "location_type": "0"}, "geometry": {"type": "Point", "coordinates": [136.755844, 34.483948]}}, {"type": "Feature", "properties": {"stop_id": "185_01", "stop_name": "大久保南", "zone_id": "185_01", "location_type": "0"}, "geometry": {"type": "Point", "coordinates": [136.758011, 34.482178]}}, {"type": "Feature", "properties": {"stop_id": "186_01", "stop_name": "朝熊北", "zone_id": "186_01", "location_type": "0"}, "geometry": {"type": "Point", "coordinates": [136.75885, 34.479279]}}, {"type": "Feature", "properties": {"stop_id": "187_01", "stop_name": "朝熊町", "zone_id": "187_01", "location_type": "0"}, "geometry": {"type": "Point", "coordinates": [136.758804, 34.478172]}}, {"type": "Feature", "properties": {"stop_id": "188_01", "stop_name": "一宇田東", "zone_id": "188_01", "location_type": "0"}, "geometry": {"type": "Point", "coordinates": [136.752815, 34.476732]}}, {"type": "Feature", "properties": {"stop_id": "189_01", "stop_name": "一宇田", "zone_id": "189_01", "location_type": "0"}, "geometry": {"type": "Point", "coordinates": [136.750946, 34.476379]}}, {"type": "Feature", "properties": {"stop_id": "190_01", "stop_name": "楠部団地前", "zone_id": "190_01", "location_type": "0"}, "geometry": {"type": "Point", "coordinates": [136.745028018885, 34.4761425854506]}}, {"type": "Feature", "properties": {"stop_id": "191_01", "stop_name": "四郷小学校前", "zone_id": "191_01", "location_type": "0"}, "geometry": {"type": "Point", "coordinates": [136.737975955074, 34.4756163393181]}}, {"type": "Feature", "properties": {"stop_id": "191_02", "stop_name": "四郷小学校前", "zone_id": "191_02", "location_type": "0"}, "geometry": {"type": "Point", "coordinates": [136.7385467, 34.47575608]}}, {"type": "Feature", "properties": {"stop_id": "192_01", "stop_name": "楠部公民館", "zone_id": "192_01", "location_type": "0"}, "geometry": {"type": "Point", "coordinates": [136.73465, 34.476524]}}, {"type": "Feature", "properties": {"stop_id": "193_01", "stop_name": "楠部西", "zone_id": "193_01", "location_type": "0"}, "geometry": {"type": "Point", "coordinates": [136.732132, 34.47662]}}, {"type": "Feature", "properties": {"stop_id": "194_01", "stop_name": "楠部", "zone_id": "194_01", "location_type": "0"}, "geometry": {"type": "Point", "coordinates": [136.72937, 34.476574]}}, {"type": "Feature", "properties": {"stop_id": "195_01", "stop_name": "五十鈴川駅前", "zone_id": "195_01", "location_type": "0"}, "geometry": {"type": "Point", "coordinates": [136.727554597553, 34.4771366993094]}}, {"type": "Feature", "properties": {"stop_id": "196_01", "stop_name": "イオン伊勢店", "zone_id": "196_01", "location_type": "0"}, "geometry": {"type": "Point", "coordinates": [136.730191720237, 34.4782932110541]}}, {"type": "Feature", "properties": {"stop_id": "197_01", "stop_name": "伊勢病院前", "zone_id": "197_01", "location_type": "0"}, "geometry": {"type": "Point", "coordinates": [136.7281, 34.4824]}}, {"type": "Feature", "properties": {"stop_id": "198_01", "stop_name": "松尾観音", "zone_id": "198_01", "location_type": "0"}, "geometry": {"type": "Point", "coordinates": [136.732348239252, 34.487070943095]}}, {"type": "Feature", "properties": {"stop_id": "198_02", "stop_name": "松尾観音", "zone_id": "198_02", "location_type": "0"}, "geometry": {"type": "Point", "coordinates": [136.732414, 34.48702009]}}, {"type": "Feature", "properties": {"stop_id": "199_01", "stop_name": "河口外科前", "zone_id": "199_01", "location_type": "0"}, "geometry": {"type": "Point", "coordinates": [136.731558631946, 34.4912140570959]}}, {"type": "Feature", "properties": {"stop_id": "199_02", "stop_name": "河口外科前", "zone_id": "199_02", "location_type": "0"}, "geometry": {"type": "Point", "coordinates": [136.7310544, 34.49109689]}}, {"type": "Feature", "properties": {"stop_id": "200_01", "stop_name": "松下広場", "zone_id": "200_01", "location_type": "0"}, "geometry": {"type": "Point", "coordinates": [136.798985961971, 34.4921731527293]}}, {"type": "Feature", "properties": {"stop_id": "201_01", "stop_name": "松下口", "zone_id": "201_01", "location_type": "0"}, "geometry": {"type": "Point", "coordinates": [136.79967882209, 34.4962847351215]}}, {"type": "Feature", "properties": {"stop_id": "202_01", "stop_name": "民話の駅蘇民前", "zone_id": "202_01", "location_type": "0"}, "geometry": {"type": "Point", "coordinates": [136.796877, 34.500031]}}, {"type": "Feature", "properties": {"stop_id": "202_02", "stop_name": "民話の駅蘇民前", "zone_id": "202_02", "location_type": "0"}, "geometry": {"type": "Point", "coordinates": [136.796921, 34.500096]}}, {"type": "Feature", "properties": {"stop_id": "203_01", "stop_name": "北浦新田", "zone_id": "203_01", "location_type": "0"}, "geometry": {"type": "Point", "coordinates": [136.795420936176, 34.5044683383834]}}, {"type": "Feature", "properties": {"stop_id": "203_02", "stop_name": "北浦新田", "zone_id": "203_02", "location_type": "0"}, "geometry": {"type": "Point", "coordinates": [136.795495, 34.504573]}}, {"type": "Feature", "properties": {"stop_id": "204_01", "stop_name": "江コミュニティセンター", "zone_id": "204_01", "location_type": "0"}, "geometry": {"type": "Point", "coordinates": [136.793297046627, 34.5047989449259]}}, {"type": "Feature", "properties": {"stop_id": "205_01", "stop_name": "二見総合支所前", "zone_id": "205_01", "location_type": "0"}, "geometry": {"type": "Point", "coordinates": [136.77912181101, 34.5055242271379]}}, {"type": "Feature", "properties": {"stop_id": "205_02", "stop_name": "二見総合支所前", "zone_id": "205_02", "location_type": "0"}, "geometry": {"type": "Point", "coordinates": [136.779600585319, 34.5059077188932]}}, {"type": "Feature", "properties": {"stop_id": "206_01", "stop_name": "JR二見浦駅前", "zone_id": "206_01", "location_type": "0"}, "geometry": {"type": "Point", "coordinates": [136.776890271163, 34.5040351037198]}}, {"type": "Feature", "properties": {"stop_id": "207_01", "stop_name": "三津", "zone_id": "207_01", "location_type": "0"}, "geometry": {"type": "Point", "coordinates": [136.772740066035, 34.5035795089023]}}, {"type": "Feature", "properties": {"stop_id": "207_02", "stop_name": "三津", "zone_id": "207_02", "location_type": "0"}, "geometry": {"type": "Point", "coordinates": [136.77251851539, 34.5036539988461]}}, {"type": "Feature", "properties": {"stop_id": "208_01", "stop_name": "二見浦小学校前", "zone_id": "208_01", "location_type": "0"}, "geometry": {"type": "Point", "coordinates": [136.774744440475, 34.5054271586613]}}, {"type": "Feature", "properties": {"stop_id": "209_01", "stop_name": "二見浦小学校東", "zone_id": "209_01", "location_type": "0"}, "geometry": {"type": "Point", "coordinates": [136.775574, 34.5067042618065]}}, {"type": "Feature", "properties": {"stop_id": "210_01", "stop_name": "御塩殿神社前", "zone_id": "210_01", "location_type": "0"}, "geometry": {"type": "Point", "coordinates": [136.770264, 34.509472]}}, {"type": "Feature", "properties": {"stop_id": "211_01", "stop_name": "荘西", "zone_id": "211_01", "location_type": "0"}, "geometry": {"type": "Point", "coordinates": [136.766124976686, 34.5091000836504]}}, {"type": "Feature", "properties": {"stop_id": "212_01", "stop_name": "荘南", "zone_id": "212_01", "location_type": "0"}, "geometry": {"type": "Point", "coordinates": [136.766245365142, 34.505832522558]}}, {"type": "Feature", "properties": {"stop_id": "212_02", "stop_name": "荘南", "zone_id": "212_02", "location_type": "0"}, "geometry": {"type": "Point", "coordinates": [136.766153097087, 34.5058316385768]}}, {"type": "Feature", "properties": {"stop_id": "213_01", "stop_name": "プライスカット伊勢二見店", "zone_id": "213_01", "location_type": "0"}, "geometry": {"type": "Point", "coordinates": [136.763383984434, 34.5042083607313]}}, {"type": "Feature", "properties": {"stop_id": "214_01", "stop_name": "荘", "zone_id": "214_01", "location_type": "0"}, "geometry": {"type": "Point", "coordinates": [136.762346588954, 34.5033905792225]}}, {"type": "Feature", "properties": {"stop_id": "214_02", "stop_name": "荘", "zone_id": "214_02", "location_type": "0"}, "geometry": {"type": "Point", "coordinates": [136.76161032258, 34.5033518974098]}}, {"type": "Feature", "properties": {"stop_id": "215_01", "stop_name": "溝口", "zone_id": "215_01", "location_type": "0"}, "geometry": {"type": "Point", "coordinates": [136.761380672853, 34.5016443739012]}}, {"type": "Feature", "properties": {"stop_id": "216_01", "stop_name": "光の街中央", "zone_id": "216_01", "location_type": "0"}, "geometry": {"type": "Point", "coordinates": [136.763287224536, 34.4950847909717]}}, {"type": "Feature", "properties": {"stop_id": "217_01", "stop_name": "汐合東", "zone_id": "217_01", "location_type": "0"}, "geometry": {"type": "Point", "coordinates": [136.758002839286, 34.5027425791881]}}, {"type": "Feature", "properties": {"stop_id": "217_02", "stop_name": "汐合東", "zone_id": "217_02", "location_type": "0"}, "geometry": {"type": "Point", "coordinates": [136.757678291995, 34.5027447895941]}}, {"type": "Feature", "properties": {"stop_id": "218_01", "stop_name": "汐合", "zone_id": "218_01", "location_type": "0"}, "geometry": {"type": "Point", "coordinates": [136.756101122684, 34.5022303718132]}}, {"type": "Feature", "properties": {"stop_id": "218_02", "stop_name": "汐合", "zone_id": "218_02", "location_type": "0"}, "geometry": {"type": "Point", "coordinates": [136.756326428241, 34.5023707333365]}}, {"type": "Feature", "properties": {"stop_id": "219_01", "stop_name": "通り口", "zone_id": "219_01", "location_type": "0"}, "geometry": {"type": "Point", "coordinates": [136.741239894512, 34.4993103696731]}}, {"type": "Feature", "properties": {"stop_id": "219_02", "stop_name": "通り口", "zone_id": "219_02", "location_type": "0"}, "geometry": {"type": "Point", "coordinates": [136.740926076057, 34.4994673148108]}}, {"type": "Feature", "properties": {"stop_id": "220_01", "stop_name": "伊勢学園前", "zone_id": "220_01", "location_type": "0"}, "geometry": {"type": "Point", "coordinates": [136.734216066305, 34.4917417540018]}}, {"type": "Feature", "properties": {"stop_id": "220_02", "stop_name": "伊勢学園前", "zone_id": "220_02", "location_type": "0"}, "geometry": {"type": "Point", "coordinates": [136.7331834, 34.49115039]}}, {"type": "Feature", "properties": {"stop_id": "221_01", "stop_name": "大堀川橋", "zone_id": "221_01", "location_type": "0"}, "geometry": {"type": "Point", "coordinates": [136.657457649707, 34.5579596306708]}}, {"type": "Feature", "properties": {"stop_id": "221_02", "stop_name": "大堀川橋", "zone_id": "221_02", "location_type": "0"}, "geometry": {"type": "Point", "coordinates": [136.656795144081, 34.5583622091464]}}, {"type": "Feature", "properties": {"stop_id": "222_01", "stop_name": "東大淀", "zone_id": "222_01", "location_type": "0"}, "geometry": {"type": "Point", "coordinates": [136.660645, 34.555031]}}, {"type": "Feature", "properties": {"stop_id": "223_01", "stop_name": "東大淀口", "zone_id": "223_01", "location_type": "0"}, "geometry": {"type": "Point", "coordinates": [136.667289, 34.555122]}}, {"type": "Feature", "properties": {"stop_id": "224_01", "stop_name": "北浜支所前", "zone_id": "224_01", "location_type": "0"}, "geometry": {"type": "Point", "coordinates": [136.677582, 34.551964]}}, {"type": "Feature", "properties": {"stop_id": "225_01", "stop_name": "村松", "zone_id": "225_01", "location_type": "0"}, "geometry": {"type": "Point", "coordinates": [136.683243, 34.549591]}}, {"type": "Feature", "properties": {"stop_id": "226_01", "stop_name": "村松口", "zone_id": "226_01", "location_type": "0"}, "geometry": {"type": "Point", "coordinates": [136.68277, 34.546925]}}, {"type": "Feature", "properties": {"stop_id": "227_01", "stop_name": "植山口", "zone_id": "227_01", "location_type": "0"}, "geometry": {"type": "Point", "coordinates": [136.679504, 34.536587]}}, {"type": "Feature", "properties": {"stop_id": "229_01", "stop_name": "中小俣", "zone_id": "229_01", "location_type": "0"}, "geometry": {"type": "Point", "coordinates": [136.678212583065, 34.5082463825558]}}, {"type": "Feature", "properties": {"stop_id": "229_02", "stop_name": "中小俣", "zone_id": "229_02", "location_type": "0"}, "geometry": {"type": "Point", "coordinates": [136.6782877, 34.50838121]}}, {"type": "Feature", "properties": {"stop_id": "230_01", "stop_name": "下小俣公民館", "zone_id": "230_01", "location_type": "0"}, "geometry": {"type": "Point", "coordinates": [136.684219, 34.511005]}}, {"type": "Feature", "properties": {"stop_id": "231_01", "stop_name": "宮町駅東口", "zone_id": "231_01", "location_type": "0"}, "geometry": {"type": "Point", "coordinates": [136.699127, 34.498875]}}, {"type": "Feature", "properties": {"stop_id": "232_01", "stop_name": "床ノ木", "zone_id": "232_01", "location_type": "0"}, "geometry": {"type": "Point", "coordinates": [136.703796, 34.394207]}}, {"type": "Feature", "properties": {"stop_id": "233_01", "stop_name": "床ノ木口", "zone_id": "233_01", "location_type": "0"}, "geometry": {"type": "Point", "coordinates": [136.700516, 34.396526]}}, {"type": "Feature", "properties": {"stop_id": "234_01", "stop_name": "上村東", "zone_id": "234_01", "location_type": "0"}, "geometry": {"type": "Point", "coordinates": [136.69915, 34.40064]}}, {"type": "Feature", "properties": {"stop_id": "235_01", "stop_name": "上村", "zone_id": "235_01", "location_type": "0"}, "geometry": {"type": "Point", "coordinates": [136.69956, 34.40249]}}, {"type": "Feature", "properties": {"stop_id": "236_01", "stop_name": "上村西", "zone_id": "236_01", "location_type": "0"}, "geometry": {"type": "Point", "coordinates": [136.698654, 34.404144]}}, {"type": "Feature", "properties": {"stop_id": "238_01", "stop_name": "菖蒲", "zone_id": "238_01", "location_type": "0"}, "geometry": {"type": "Point", "coordinates": [136.697174, 34.409962]}}, {"type": "Feature", "properties": {"stop_id": "239_01", "stop_name": "矢持", "zone_id": "239_01", "location_type": "0"}, "geometry": {"type": "Point", "coordinates": [136.69148, 34.41002]}}, {"type": "Feature", "properties": {"stop_id": "240_01", "stop_name": "下村", "zone_id": "240_01", "location_type": "0"}, "geometry": {"type": "Point", "coordinates": [136.68876, 34.41078]}}, {"type": "Feature", "properties": {"stop_id": "241_01", "stop_name": "横輪東", "zone_id": "241_01", "location_type": "0"}, "geometry": {"type": "Point", "coordinates": [136.674377, 34.405396]}}, {"type": "Feature", "properties": {"stop_id": "242_01", "stop_name": "風輪", "zone_id": "242_01", "location_type": "0"}, "geometry": {"type": "Point", "coordinates": [136.67215, 34.405327]}}, {"type": "Feature", "properties": {"stop_id": "243_01", "stop_name": "横輪広", "zone_id": "243_01", "location_type": "0"}, "geometry": {"type": "Point", "coordinates": [136.66809, 34.40603]}}, {"type": "Feature", "properties": {"stop_id": "244_01", "stop_name": "横輪口", "zone_id": "244_01", "location_type": "0"}, "geometry": {"type": "Point", "coordinates": [136.662124693393, 34.4071763158597]}}, {"type": "Feature", "properties": {"stop_id": "244_02", "stop_name": "横輪口", "zone_id": "244_02", "location_type": "0"}, "geometry": {"type": "Point", "coordinates": [136.662329882383, 34.4071259715267]}}, {"type": "Feature", "properties": {"stop_id": "246_01", "stop_name": "上野台集会所", "zone_id": "246_01", "location_type": "0"}, "geometry": {"type": "Point", "coordinates": [136.651611, 34.432541]}}, {"type": "Feature", "properties": {"stop_id": "247_01", "stop_name": "上野台", "zone_id": "247_01", "location_type": "0"}, "geometry": {"type": "Point", "coordinates": [136.652878, 34.43372]}}, {"type": "Feature", "properties": {"stop_id": "248_01", "stop_name": "沼木支所", "zone_id": "248_01", "location_type": "0"}, "geometry": {"type": "Point", "coordinates": [136.660706, 34.435162]}}, {"type": "Feature", "properties": {"stop_id": "249_01", "stop_name": "広岡", "zone_id": "249_01", "location_type": "0"}, "geometry": {"type": "Point", "coordinates": [136.65973, 34.43637]}}, {"type": "Feature", "properties": {"stop_id": "250_01", "stop_name": "出屋敷", "zone_id": "250_01", "location_type": "0"}, "geometry": {"type": "Point", "coordinates": [136.660308, 34.439118]}}, {"type": "Feature", "properties": {"stop_id": "251_01", "stop_name": "沼木中学前", "zone_id": "251_01", "location_type": "0"}, "geometry": {"type": "Point", "coordinates": [136.660555, 34.44093]}}, {"type": "Feature", "properties": {"stop_id": "256_01", "stop_name": "津村", "zone_id": "256_01", "location_type": "0"}, "geometry": {"type": "Point", "coordinates": [136.656936402446, 34.450231270786]}}, {"type": "Feature", "properties": {"stop_id": "257_01", "stop_name": "津村口", "zone_id": "257_01", "location_type": "0"}, "geometry": {"type": "Point", "coordinates": [136.656990408563, 34.453524273266]}}, {"type": "Feature", "properties": {"stop_id": "257_02", "stop_name": "津村口", "zone_id": "257_02", "location_type": "0"}, "geometry": {"type": "Point", "coordinates": [136.657239183449, 34.4528911687965]}}, {"type": "Feature", "properties": {"stop_id": "268_01", "stop_name": "南伊勢高校度会校舎前", "zone_id": "268_01", "location_type": "0"}, "geometry": {"type": "Point", "coordinates": [136.631335616111, 34.4390122061532]}}, {"type": "Feature", "properties": {"stop_id": "268_02", "stop_name": "南伊勢高校度会校舎前", "zone_id": "268_02", "location_type": "0"}, "geometry": {"type": "Point", "coordinates": [136.63155823946, 34.4389701763461]}}, {"type": "Feature", "properties": {"stop_id": "269_01", "stop_name": "グッディ", "zone_id": "269_01", "location_type": "0"}, "geometry": {"type": "Point", "coordinates": [136.640656, 34.446545]}}, {"type": "Feature", "properties": {"stop_id": "270_01", "stop_name": "開花橋", "zone_id": "270_01", "location_type": "0"}, "geometry": {"type": "Point", "coordinates": [136.660309, 34.431072]}}, {"type": "Feature", "properties": {"stop_id": "271_01", "stop_name": "上野南", "zone_id": "271_01", "location_type": "0"}, "geometry": {"type": "Point", "coordinates": [136.661362, 34.433056]}}, {"type": "Feature", "properties": {"stop_id": "272_01", "stop_name": "大淀", "zone_id": "272_01", "location_type": "0"}, "geometry": {"type": "Point", "coordinates": [136.653243101852, 34.5611052531443]}}, {"type": "Feature", "properties": {"stop_id": "272_02", "stop_name": "大淀", "zone_id": "272_02", "location_type": "0"}, "geometry": {"type": "Point", "coordinates": [136.653388, 34.56086]}}, {"type": "Feature", "properties": {"stop_id": "273_01", "stop_name": "山大淀", "zone_id": "273_01", "location_type": "0"}, "geometry": {"type": "Point", "coordinates": [136.648910154596, 34.5643336116204]}}, {"type": "Feature", "properties": {"stop_id": "274_01", "stop_name": "伊勢市役所正面", "zone_id": "274_01", "location_type": "0"}, "geometry": {"type": "Point", "coordinates": [136.708701, 34.487318]}}, {"type": "Feature", "properties": {"stop_id": "274_02", "stop_name": "伊勢市役所正面", "zone_id": "274_02", "location_type": "0"}, "geometry": {"type": "Point", "coordinates": [136.70853, 34.487234]}}, {"type": "Feature", "properties": {"stop_id": "286_01", "stop_name": "中之町", "zone_id": "286_01", "location_type": "0"}, "geometry": {"type": "Point", "coordinates": [136.720986, 34.477652]}}, {"type": "Feature", "properties": {"stop_id": "288_01", "stop_name": "浜郷小学校前", "zone_id": "288_01", "location_type": "0"}, "geometry": {"type": "Point", "coordinates": [136.73503, 34.498425]}}, {"type": "Feature", "properties": {"stop_id": "288_02", "stop_name": "浜郷小学校前", "zone_id": "288_02", "location_type": "0"}, "geometry": {"type": "Point", "coordinates": [136.735234, 34.498628]}}, {"type": "Feature", "properties": {"stop_id": "289_01", "stop_name": "桧尻（ぎゅーとら　ハイジー店）", "zone_id": "289_01", "location_type": "0"}, "geometry": {"type": "Point", "coordinates": [136.717268, 34.50354]}}, {"type": "Feature", "properties": {"stop_id": "289_02", "stop_name": "桧尻（ぎゅーとら　ハイジー店）", "zone_id": "289_02", "location_type": "0"}, "geometry": {"type": "Point", "coordinates": [136.71759, 34.50399]}}, {"type": "Feature", "properties": {"stop_id": "290_01", "stop_name": "ミタス伊勢北", "zone_id": "290_01", "location_type": "0"}, "geometry": {"type": "Point", "coordinates": [136.713132, 34.501762]}}, {"type": "Feature", "properties": {"stop_id": "290_02", "stop_name": "ミタス伊勢北", "zone_id": "290_02", "location_type": "0"}, "geometry": {"type": "Point", "coordinates": [136.712934, 34.501661]}}, {"type": "Feature", "properties": {"stop_id": "291_01", "stop_name": "伊勢田中病院", "zone_id": "291_01", "location_type": "0"}, "geometry": {"type": "Point", "coordinates": [136.702017, 34.500584]}}, {"type": "Feature", "properties": {"stop_id": "291_02", "stop_name": "伊勢田中病院", "zone_id": "291_02", "location_type": "0"}, "geometry": {"type": "Point", "coordinates": [136.701835, 34.50077]}}, {"type": "Feature", "properties": {"stop_id": "292_01", "stop_name": "慶友病院", "zone_id": "292_01", "location_type": "0"}, "geometry": {"type": "Point", "coordinates": [136.698911, 34.493541]}}, {"type": "Feature", "properties": {"stop_id": "292_02", "stop_name": "慶友病院", "zone_id": "292_02", "location_type": "0"}, "geometry": {"type": "Point", "coordinates": [136.698761, 34.493488]}}, {"type": "Feature", "properties": {"stop_id": "293_01", "stop_name": "古市", "zone_id": "293_01", "location_type": "0"}, "geometry": {"type": "Point", "coordinates": [136.723191, 34.480347]}}, {"type": "Feature", "properties": {"stop_id": "293_02", "stop_name": "古市", "zone_id": "293_02", "location_type": "0"}, "geometry": {"type": "Point", "coordinates": [136.722091, 34.480135]}}, {"type": "Feature", "properties": {"stop_id": "294_01", "stop_name": "船江", "zone_id": "294_01", "location_type": "0"}, "geometry": {"type": "Point", "coordinates": [136.715491, 34.499187]}}, {"type": "Feature", "properties": {"stop_id": "294_02", "stop_name": "船江", "zone_id": "294_02", "location_type": "0"}, "geometry": {"type": "Point", "coordinates": [136.715751, 34.499587]}}, {"type": "Feature", "properties": {"stop_id": "295_01", "stop_name": "船江新道", "zone_id": "295_01", "location_type": "0"}, "geometry": {"type": "Point", "coordinates": [136.716754, 34.502478]}}, {"type": "Feature", "properties": {"stop_id": "295_02", "stop_name": "船江新道", "zone_id": "295_02", "location_type": "0"}, "geometry": {"type": "Point", "coordinates": [136.716887, 34.502469]}}, {"type": "Feature", "properties": {"stop_id": "296_01", "stop_name": "伊勢病院西口", "zone_id": "296_01", "location_type": "0"}, "geometry": {"type": "Point", "coordinates": [136.726397, 34.482001]}}, {"type": "Feature", "properties": {"stop_id": "296_02", "stop_name": "伊勢病院西口", "zone_id": "296_02", "location_type": "0"}, "geometry": {"type": "Point", "coordinates": [136.727004, 34.481219]}}, {"type": "Feature", "properties": {"stop_id": "297_01", "stop_name": "勢田町", "zone_id": "297_01", "location_type": "0"}, "geometry": {"type": "Point", "coordinates": [136.709491, 34.477743]}}, {"type": "Feature", "properties": {"stop_id": "297_02", "stop_name": "勢田町", "zone_id": "297_02", "location_type": "0"}, "geometry": {"type": "Point", "coordinates": [136.709626, 34.477746]}}, {"type": "Feature", "properties": {"stop_id": "298_01", "stop_name": "明倫小学校前", "zone_id": "298_01", "location_type": "0"}, "geometry": {"type": "Point", "coordinates": [136.709524, 34.483771]}}, {"type": "Feature", "properties": {"stop_id": "298_02", "stop_name": "明倫小学校前", "zone_id": "298_02", "location_type": "0"}, "geometry": {"type": "Point", "coordinates": [136.709672, 34.483809]}}, {"type": "Feature", "properties": {"stop_id": "299_01", "stop_name": "宮町", "zone_id": "299_01", "location_type": "0"}, "geometry": {"type": "Point", "coordinates": [136.698896, 34.494672]}}, {"type": "Feature", "properties": {"stop_id": "299_02", "stop_name": "宮町", "zone_id": "299_02", "location_type": "0"}, "geometry": {"type": "Point", "coordinates": [136.698963, 34.494457]}}, {"type": "Feature", "properties": {"stop_id": "300_01", "stop_name": "ミタス伊勢", "zone_id": "300_01", "location_type": "0"}, "geometry": {"type": "Point", "coordinates": [136.710404, 34.499746]}}, {"type": "Feature", "properties": {"stop_id": "300_02", "stop_name": "ミタス伊勢", "zone_id": "300_02", "location_type": "0"}, "geometry": {"type": "Point", "coordinates": [136.710479, 34.499747]}}, {"type": "Feature", "properties": {"stop_id": "301_01", "stop_name": "三重ハートセンター", "zone_id": "301_01", "location_type": "0"}, "geometry": {"type": "Point", "coordinates": [136.649505, 34.557646]}}, {"type": "Feature", "properties": {"stop_id": "302_01", "stop_name": "トライアル伊勢店", "zone_id": "302_01", "location_type": "0"}, "geometry": {"type": "Point", "coordinates": [136.666127, 34.500887]}}, {"type": "Feature", "properties": {"stop_id": "306_01", "stop_name": "鷹泊", "zone_id": "306_01", "location_type": "0"}, "geometry": {"type": "Point", "coordinates": [136.709024, 34.474151]}}, {"type": "Feature", "properties": {"stop_id": "307_01", "stop_name": "千寿台", "zone_id": "307_01", "location_type": "0"}, "geometry": {"type": "Point", "coordinates": [136.712914, 34.470854]}}, {"type": "Feature", "properties": {"stop_id": "308_01", "stop_name": "伊勢やすらぎ公園", "zone_id": "308_01", "location_type": "0"}, "geometry": {"type": "Point", "coordinates": [136.698795, 34.476036]}}, {"type": "Feature", "properties": {"stop_id": "309_01", "stop_name": "ふじが丘中", "zone_id": "309_01", "location_type": "0"}, "geometry": {"type": "Point", "coordinates": [136.695624, 34.464255]}}, {"type": "Feature", "properties": {"stop_id": "309_02", "stop_name": "ふじが丘中", "zone_id": "309_02", "location_type": "0"}, "geometry": {"type": "Point", "coordinates": [136.69567, 34.464068]}}, {"type": "Feature", "properties": {"stop_id": "310_01", "stop_name": "山田原", "zone_id": "310_01", "location_type": "0"}, "geometry": {"type": "Point", "coordinates": [136.764974, 34.503568]}}, {"type": "Feature", "properties": {"stop_id": "310_02", "stop_name": "山田原", "zone_id": "310_02", "location_type": "0"}, "geometry": {"type": "Point", "coordinates": [136.765261, 34.503472]}}, {"type": "Feature", "properties": {"stop_id": "311_01", "stop_name": "黒瀬町", "zone_id": "311_01", "location_type": "0"}, "geometry": {"type": "Point", "coordinates": [136.731268, 34.497481]}}, {"type": "Feature", "properties": {"stop_id": "311_02", "stop_name": "黒瀬町", "zone_id": "311_02", "location_type": "0"}, "geometry": {"type": "Point", "coordinates": [136.731577, 34.497593]}}, {"type": "Feature", "properties": {"stop_id": "312_01", "stop_name": "大倉うぐいす台", "zone_id": "312_01", "location_type": "0"}, "geometry": {"type": "Point", "coordinates": [136.67782, 34.476019]}}, {"type": "Feature", "properties": {"stop_id": "313_01", "stop_name": "赤井橋", "zone_id": "313_01", "location_type": "0"}, "geometry": {"type": "Point", "coordinates": [136.656517, 34.435599]}}, {"type": "Feature", "properties": {"stop_id": "314_01", "stop_name": "上野小学校", "zone_id": "314_01", "location_type": "0"}, "geometry": {"type": "Point", "coordinates": [136.653214, 34.434264]}}, {"type": "Feature", "properties": {"stop_id": "315_01", "stop_name": "昭和苑口", "zone_id": "315_01", "location_type": "0"}, "geometry": {"type": "Point", "coordinates": [136.65989, 34.443421]}}, {"type": "Feature", "properties": {"stop_id": "316_01", "stop_name": "栄団地（県道）", "zone_id": "316_01", "location_type": "0"}, "geometry": {"type": "Point", "coordinates": [136.652749, 34.447057]}}, {"type": "Feature", "properties": {"stop_id": "316_02", "stop_name": "栄団地（県道）", "zone_id": "316_02", "location_type": "0"}, "geometry": {"type": "Point", "coordinates": [136.652664, 34.447087]}}, {"type": "Feature", "properties": {"stop_id": "317_02", "stop_name": "円座", "zone_id": "317_02", "location_type": "0"}, "geometry": {"type": "Point", "coordinates": [136.650797, 34.442247]}}, {"type": "Feature", "properties": {"stop_id": "318_01", "stop_name": "大野木東", "zone_id": "318_01", "location_type": "0"}, "geometry": {"type": "Point", "coordinates": [136.639613, 34.444558]}}, {"type": "Feature", "properties": {"stop_id": "318_02", "stop_name": "大野木東", "zone_id": "318_02", "location_type": "0"}, "geometry": {"type": "Point", "coordinates": [136.63973, 34.44455]}}, {"type": "Feature", "properties": {"stop_id": "319_01", "stop_name": "棚橋コミュニティセンター前", "zone_id": "319_01", "location_type": "0"}, "geometry": {"type": "Point", "coordinates": [136.62398, 34.435987]}}, {"type": "Feature", "properties": {"stop_id": "319_02", "stop_name": "棚橋コミュニティセンター前", "zone_id": "319_02", "location_type": "0"}, "geometry": {"type": "Point", "coordinates": [136.624056, 34.435928]}}, {"type": "Feature", "properties": {"stop_id": "320_01", "stop_name": "度会町役場前", "zone_id": "320_01", "location_type": "0"}, "geometry": {"type": "Point", "coordinates": [136.622199, 34.438607]}}, {"type": "Feature", "properties": {"stop_id": "322_01", "stop_name": "川口", "zone_id": "322_01", "location_type": "0"}, "geometry": {"type": "Point", "coordinates": [136.624995, 34.424761]}}, {"type": "Feature", "properties": {"stop_id": "323_01", "stop_name": "神薗", "zone_id": "323_01", "location_type": "0"}, "geometry": {"type": "Point", "coordinates": [136.643309, 34.436051]}}, {"type": "Feature", "properties": {"stop_id": "324_01", "stop_name": "度会特別支援学校前", "zone_id": "324_01", "location_type": "0"}, "geometry": {"type": "Point", "coordinates": [136.628049, 34.437001]}}, {"type": "Feature", "properties": {"stop_id": "325_01", "stop_name": "沼木神社北", "zone_id": "325_01", "location_type": "0"}, "geometry": {"type": "Point", "coordinates": [136.660475, 34.427238]}}]}