{"type": "FeatureCollection", "name": "stops", "crs": {"type": "name", "properties": {"name": "urn:ogc:def:crs:OGC:1.3:CRS84"}}, "features": [{"type": "Feature", "properties": {"stop_id": "1_1", "stop_name": "JA呉羽支店", "zone_id": "1_1", "location_type": "0"}, "geometry": {"type": "Point", "coordinates": [137.168533, 36.711071]}}, {"type": "Feature", "properties": {"stop_id": "2_1", "stop_name": "寒江口", "zone_id": "2_1", "location_type": "0"}, "geometry": {"type": "Point", "coordinates": [137.150096, 36.719717]}}, {"type": "Feature", "properties": {"stop_id": "3_1", "stop_name": "カーマ・アルビス呉羽東店", "zone_id": "3_1", "location_type": "0"}, "geometry": {"type": "Point", "coordinates": [137.170658, 36.710462]}}, {"type": "Feature", "properties": {"stop_id": "3_2", "stop_name": "カーマ・アルビス呉羽東店", "zone_id": "3_2", "location_type": "0"}, "geometry": {"type": "Point", "coordinates": [137.170092, 36.710502]}}, {"type": "Feature", "properties": {"stop_id": "4_1", "stop_name": "追分茶屋公民館", "zone_id": "4_1", "location_type": "0"}, "geometry": {"type": "Point", "coordinates": [137.168754, 36.708267]}}, {"type": "Feature", "properties": {"stop_id": "5_1", "stop_name": "芸術創造センター", "zone_id": "5_1", "location_type": "0"}, "geometry": {"type": "Point", "coordinates": [137.164796, 36.716239]}}, {"type": "Feature", "properties": {"stop_id": "6_1", "stop_name": "しぶたに医院", "zone_id": "6_1", "location_type": "0"}, "geometry": {"type": "Point", "coordinates": [137.16086, 36.715237]}}, {"type": "Feature", "properties": {"stop_id": "7_1", "stop_name": "中道歯科医院", "zone_id": "7_1", "location_type": "0"}, "geometry": {"type": "Point", "coordinates": [137.155541, 36.712872]}}, {"type": "Feature", "properties": {"stop_id": "8_1", "stop_name": "吉作北", "zone_id": "8_1", "location_type": "0"}, "geometry": {"type": "Point", "coordinates": [137.162171, 36.711277]}}, {"type": "Feature", "properties": {"stop_id": "9_1", "stop_name": "呉羽本町南", "zone_id": "9_1", "location_type": "0"}, "geometry": {"type": "Point", "coordinates": [137.163207, 36.713129]}}, {"type": "Feature", "properties": {"stop_id": "10_1", "stop_name": "呉羽地区センター", "zone_id": "10_1", "location_type": "0"}, "geometry": {"type": "Point", "coordinates": [137.164192, 36.713219]}}, {"type": "Feature", "properties": {"stop_id": "11_1", "stop_name": "呉羽本町北", "zone_id": "11_1", "location_type": "0"}, "geometry": {"type": "Point", "coordinates": [137.164939, 36.714335]}}, {"type": "Feature", "properties": {"stop_id": "12_1", "stop_name": "松野リウマチ整形外科", "zone_id": "12_1", "location_type": "0"}, "geometry": {"type": "Point", "coordinates": [137.171544, 36.711727]}}, {"type": "Feature", "properties": {"stop_id": "13_1", "stop_name": "マルトミ鉱泉", "zone_id": "13_1", "location_type": "0"}, "geometry": {"type": "Point", "coordinates": [137.172184, 36.712228]}}, {"type": "Feature", "properties": {"stop_id": "14_1", "stop_name": "わかぐり内科医院", "zone_id": "14_1", "location_type": "0"}, "geometry": {"type": "Point", "coordinates": [137.169314, 36.710491]}}, {"type": "Feature", "properties": {"stop_id": "15_1", "stop_name": "追分茶屋", "zone_id": "15_1", "location_type": "0"}, "geometry": {"type": "Point", "coordinates": [137.168973, 36.707522]}}, {"type": "Feature", "properties": {"stop_id": "16_1", "stop_name": "ケアサポート・まき", "zone_id": "16_1", "location_type": "0"}, "geometry": {"type": "Point", "coordinates": [137.163138, 36.706597]}}, {"type": "Feature", "properties": {"stop_id": "17_1", "stop_name": "茶屋口", "zone_id": "17_1", "location_type": "0"}, "geometry": {"type": "Point", "coordinates": [137.172631, 36.707459]}}, {"type": "Feature", "properties": {"stop_id": "18_1", "stop_name": "安元整形外科医院", "zone_id": "18_1", "location_type": "0"}, "geometry": {"type": "Point", "coordinates": [137.17857, 36.708227]}}, {"type": "Feature", "properties": {"stop_id": "19_1", "stop_name": "岩城内科医院", "zone_id": "19_1", "location_type": "0"}, "geometry": {"type": "Point", "coordinates": [137.179745, 36.710565]}}, {"type": "Feature", "properties": {"stop_id": "20_1", "stop_name": "緑化植物公園", "zone_id": "20_1", "location_type": "0"}, "geometry": {"type": "Point", "coordinates": [137.181455, 36.714036]}}, {"type": "Feature", "properties": {"stop_id": "21_1", "stop_name": "谷野呉山病院", "zone_id": "21_1", "location_type": "0"}, "geometry": {"type": "Point", "coordinates": [137.18338, 36.714191]}}, {"type": "Feature", "properties": {"stop_id": "22_1", "stop_name": "北代４区公民館", "zone_id": "22_1", "location_type": "0"}, "geometry": {"type": "Point", "coordinates": [137.18742, 36.713598]}}, {"type": "Feature", "properties": {"stop_id": "23_1", "stop_name": "呉羽苑口", "zone_id": "23_1", "location_type": "0"}, "geometry": {"type": "Point", "coordinates": [137.17346, 36.715266]}}, {"type": "Feature", "properties": {"stop_id": "24_1", "stop_name": "富田町", "zone_id": "24_1", "location_type": "0"}, "geometry": {"type": "Point", "coordinates": [137.177021, 36.715206]}}, {"type": "Feature", "properties": {"stop_id": "25_1", "stop_name": "北代藤ヶ丘", "zone_id": "25_1", "location_type": "0"}, "geometry": {"type": "Point", "coordinates": [137.17912, 36.717011]}}, {"type": "Feature", "properties": {"stop_id": "26_1", "stop_name": "あさひホーム横", "zone_id": "26_1", "location_type": "0"}, "geometry": {"type": "Point", "coordinates": [137.176442, 36.720154]}}, {"type": "Feature", "properties": {"stop_id": "27_1", "stop_name": "北代会館", "zone_id": "27_1", "location_type": "0"}, "geometry": {"type": "Point", "coordinates": [137.181344, 36.719856]}}, {"type": "Feature", "properties": {"stop_id": "28_1", "stop_name": "加茂神社", "zone_id": "28_1", "location_type": "0"}, "geometry": {"type": "Point", "coordinates": [137.185461, 36.719435]}}, {"type": "Feature", "properties": {"stop_id": "29_1", "stop_name": "八ヶ山公民館", "zone_id": "29_1", "location_type": "0"}, "geometry": {"type": "Point", "coordinates": [137.194931, 36.721599]}}, {"type": "Feature", "properties": {"stop_id": "30_1", "stop_name": "長岡新公民館", "zone_id": "30_1", "location_type": "0"}, "geometry": {"type": "Point", "coordinates": [137.192737, 36.714609]}}, {"type": "Feature", "properties": {"stop_id": "31_1", "stop_name": "高木公民館", "zone_id": "31_1", "location_type": "0"}, "geometry": {"type": "Point", "coordinates": [137.163699, 36.724063]}}, {"type": "Feature", "properties": {"stop_id": "32_1", "stop_name": "大塚", "zone_id": "32_1", "location_type": "0"}, "geometry": {"type": "Point", "coordinates": [137.162819, 36.729865]}}, {"type": "Feature", "properties": {"stop_id": "33_1", "stop_name": "呉羽野田公民館", "zone_id": "33_1", "location_type": "0"}, "geometry": {"type": "Point", "coordinates": [137.169719, 36.73438]}}, {"type": "Feature", "properties": {"stop_id": "34_1", "stop_name": "大塚北(利波)", "zone_id": "34_1", "location_type": "0"}, "geometry": {"type": "Point", "coordinates": [137.166185, 36.740095]}}, {"type": "Feature", "properties": {"stop_id": "35_1", "stop_name": "中沖北", "zone_id": "35_1", "location_type": "0"}, "geometry": {"type": "Point", "coordinates": [137.15899, 36.739182]}}, {"type": "Feature", "properties": {"stop_id": "36_1", "stop_name": "中沖南", "zone_id": "36_1", "location_type": "0"}, "geometry": {"type": "Point", "coordinates": [137.155761, 36.733883]}}, {"type": "Feature", "properties": {"stop_id": "37_1", "stop_name": "本郷中部", "zone_id": "37_1", "location_type": "0"}, "geometry": {"type": "Point", "coordinates": [137.152684, 36.728922]}}, {"type": "Feature", "properties": {"stop_id": "38_1", "stop_name": "富山短期大学前", "zone_id": "38_1", "location_type": "0"}, "geometry": {"type": "Point", "coordinates": [137.140581, 36.721614]}}, {"type": "Feature", "properties": {"stop_id": "39_1", "stop_name": "あらき接骨院", "zone_id": "39_1", "location_type": "0"}, "geometry": {"type": "Point", "coordinates": [137.14061, 36.720422]}}, {"type": "Feature", "properties": {"stop_id": "40_1", "stop_name": "願海寺", "zone_id": "40_1", "location_type": "0"}, "geometry": {"type": "Point", "coordinates": [137.143478, 36.719863]}}, {"type": "Feature", "properties": {"stop_id": "40_2", "stop_name": "願海寺", "zone_id": "40_2", "location_type": "0"}, "geometry": {"type": "Point", "coordinates": [137.143541, 36.719882]}}, {"type": "Feature", "properties": {"stop_id": "41_1", "stop_name": "大阪屋ショップ呉羽店", "zone_id": "41_1", "location_type": "0"}, "geometry": {"type": "Point", "coordinates": [137.146908, 36.721329]}}, {"type": "Feature", "properties": {"stop_id": "41_2", "stop_name": "大阪屋ショップ呉羽店", "zone_id": "41_2", "location_type": "0"}, "geometry": {"type": "Point", "coordinates": [137.146884, 36.721245]}}, {"type": "Feature", "properties": {"stop_id": "42_1", "stop_name": "すぎき整形外科", "zone_id": "42_1", "location_type": "0"}, "geometry": {"type": "Point", "coordinates": [137.149366, 36.721877]}}, {"type": "Feature", "properties": {"stop_id": "42_2", "stop_name": "すぎき整形外科", "zone_id": "42_2", "location_type": "0"}, "geometry": {"type": "Point", "coordinates": [137.149383, 36.721891]}}, {"type": "Feature", "properties": {"stop_id": "43_1", "stop_name": "アルビス呉羽本郷店", "zone_id": "43_1", "location_type": "0"}, "geometry": {"type": "Point", "coordinates": [137.149991, 36.723788]}}, {"type": "Feature", "properties": {"stop_id": "43_2", "stop_name": "アルビス呉羽本郷店", "zone_id": "43_2", "location_type": "0"}, "geometry": {"type": "Point", "coordinates": [137.149976, 36.723762]}}, {"type": "Feature", "properties": {"stop_id": "44_1", "stop_name": "野口", "zone_id": "44_1", "location_type": "0"}, "geometry": {"type": "Point", "coordinates": [137.153569, 36.718478]}}, {"type": "Feature", "properties": {"stop_id": "45_1", "stop_name": "梨雲苑", "zone_id": "45_1", "location_type": "0"}, "geometry": {"type": "Point", "coordinates": [137.153099, 36.711611]}}, {"type": "Feature", "properties": {"stop_id": "46_1", "stop_name": "西二俣公民館", "zone_id": "46_1", "location_type": "0"}, "geometry": {"type": "Point", "coordinates": [137.131835, 36.717168]}}, {"type": "Feature", "properties": {"stop_id": "47_1", "stop_name": "老田地区センター", "zone_id": "47_1", "location_type": "0"}, "geometry": {"type": "Point", "coordinates": [137.134514, 36.707695]}}, {"type": "Feature", "properties": {"stop_id": "48_1", "stop_name": "東老田", "zone_id": "48_1", "location_type": "0"}, "geometry": {"type": "Point", "coordinates": [137.138511, 36.707851]}}, {"type": "Feature", "properties": {"stop_id": "48_2", "stop_name": "東老田", "zone_id": "48_2", "location_type": "0"}, "geometry": {"type": "Point", "coordinates": [137.139933, 36.706528]}}, {"type": "Feature", "properties": {"stop_id": "49_1", "stop_name": "東老田南", "zone_id": "49_1", "location_type": "0"}, "geometry": {"type": "Point", "coordinates": [137.138603, 36.701303]}}, {"type": "Feature", "properties": {"stop_id": "50_1", "stop_name": "特老ホームくれは苑", "zone_id": "50_1", "location_type": "0"}, "geometry": {"type": "Point", "coordinates": [137.131147, 36.699908]}}, {"type": "Feature", "properties": {"stop_id": "51_1", "stop_name": "佐伯クリニック", "zone_id": "51_1", "location_type": "0"}, "geometry": {"type": "Point", "coordinates": [137.133158, 36.695161]}}, {"type": "Feature", "properties": {"stop_id": "52_1", "stop_name": "栃谷", "zone_id": "52_1", "location_type": "0"}, "geometry": {"type": "Point", "coordinates": [137.135145, 36.694421]}}, {"type": "Feature", "properties": {"stop_id": "53_1", "stop_name": "古沢保育所", "zone_id": "53_1", "location_type": "0"}, "geometry": {"type": "Point", "coordinates": [137.140091, 36.69097]}}, {"type": "Feature", "properties": {"stop_id": "54_1", "stop_name": "杉谷公民館", "zone_id": "54_1", "location_type": "0"}, "geometry": {"type": "Point", "coordinates": [137.138715, 36.686062]}}, {"type": "Feature", "properties": {"stop_id": "55_1", "stop_name": "北押川", "zone_id": "55_1", "location_type": "0"}, "geometry": {"type": "Point", "coordinates": [137.126873, 36.68211]}}, {"type": "Feature", "properties": {"stop_id": "56_1", "stop_name": "西押川", "zone_id": "56_1", "location_type": "0"}, "geometry": {"type": "Point", "coordinates": [137.121811, 36.682754]}}, {"type": "Feature", "properties": {"stop_id": "57_1", "stop_name": "平岡", "zone_id": "57_1", "location_type": "0"}, "geometry": {"type": "Point", "coordinates": [137.127289, 36.673104]}}, {"type": "Feature", "properties": {"stop_id": "58_1", "stop_name": "境野新公民館", "zone_id": "58_1", "location_type": "0"}, "geometry": {"type": "Point", "coordinates": [137.133076, 36.674689]}}, {"type": "Feature", "properties": {"stop_id": "59_1", "stop_name": "富山大学付属病院", "zone_id": "59_1", "location_type": "0"}, "geometry": {"type": "Point", "coordinates": [137.140483, 36.680605]}}, {"type": "Feature", "properties": {"stop_id": "60_1", "stop_name": "杉谷郵便局", "zone_id": "60_1", "location_type": "0"}, "geometry": {"type": "Point", "coordinates": [137.137749, 36.68355]}}, {"type": "Feature", "properties": {"stop_id": "61_1", "stop_name": "ガラス工房・ファミリーパーク", "zone_id": "61_1", "location_type": "0"}, "geometry": {"type": "Point", "coordinates": [137.146354, 36.69574]}}, {"type": "Feature", "properties": {"stop_id": "62_1", "stop_name": "西金屋", "zone_id": "62_1", "location_type": "0"}, "geometry": {"type": "Point", "coordinates": [137.147382, 36.697921]}}, {"type": "Feature", "properties": {"stop_id": "63_1", "stop_name": "花の木", "zone_id": "63_1", "location_type": "0"}, "geometry": {"type": "Point", "coordinates": [137.148916, 36.701194]}}, {"type": "Feature", "properties": {"stop_id": "64_1", "stop_name": "住吉", "zone_id": "64_1", "location_type": "0"}, "geometry": {"type": "Point", "coordinates": [137.154599, 36.703379]}}, {"type": "Feature", "properties": {"stop_id": "65_1", "stop_name": "吉作", "zone_id": "65_1", "location_type": "0"}, "geometry": {"type": "Point", "coordinates": [137.159845, 36.706177]}}, {"type": "Feature", "properties": {"stop_id": "66_1", "stop_name": "中老田公民館", "zone_id": "66_1", "location_type": "0"}, "geometry": {"type": "Point", "coordinates": [137.130803, 36.705271]}}, {"type": "Feature", "properties": {"stop_id": "67_1", "stop_name": "古沢地区センター", "zone_id": "67_1", "location_type": "0"}, "geometry": {"type": "Point", "coordinates": [137.140516, 36.691191]}}, {"type": "Feature", "properties": {"stop_id": "68_1", "stop_name": "山本公民館", "zone_id": "68_1", "location_type": "0"}, "geometry": {"type": "Point", "coordinates": [137.117027, 36.68165]}}, {"type": "Feature", "properties": {"stop_id": "69_1", "stop_name": "山本", "zone_id": "69_1", "location_type": "0"}, "geometry": {"type": "Point", "coordinates": [137.110404, 36.676912]}}, {"type": "Feature", "properties": {"stop_id": "70_1", "stop_name": "三熊", "zone_id": "70_1", "location_type": "0"}, "geometry": {"type": "Point", "coordinates": [137.107825, 36.669944]}}, {"type": "Feature", "properties": {"stop_id": "71_1", "stop_name": "古洞の森", "zone_id": "71_1", "location_type": "0"}, "geometry": {"type": "Point", "coordinates": [137.104072, 36.663465]}}, {"type": "Feature", "properties": {"stop_id": "72_1", "stop_name": "開ヶ丘", "zone_id": "72_1", "location_type": "0"}, "geometry": {"type": "Point", "coordinates": [137.114081, 36.67268]}}, {"type": "Feature", "properties": {"stop_id": "73_1", "stop_name": "長岡小学校", "zone_id": "73_1", "location_type": "0"}, "geometry": {"type": "Point", "coordinates": [137.189585, 36.719678]}}, {"type": "Feature", "properties": {"stop_id": "74_1", "stop_name": "郵便局・アルビス呉羽東店", "zone_id": "74_1", "location_type": "0"}, "geometry": {"type": "Point", "coordinates": [137.171843, 36.709982]}}, {"type": "Feature", "properties": {"stop_id": "75_1", "stop_name": "呉羽駅", "zone_id": "75_1", "location_type": "0"}, "geometry": {"type": "Point", "coordinates": [137.165783, 36.718211]}}, {"type": "Feature", "properties": {"stop_id": "75_2", "stop_name": "呉羽駅", "zone_id": "75_2", "location_type": "0"}, "geometry": {"type": "Point", "coordinates": [137.165973, 36.718128]}}, {"type": "Feature", "properties": {"stop_id": "76_1", "stop_name": "呉羽小学校", "zone_id": "76_1", "location_type": "0"}, "geometry": {"type": "Point", "coordinates": [137.169716, 36.714685]}}, {"type": "Feature", "properties": {"stop_id": "76_2", "stop_name": "呉羽小学校", "zone_id": "76_2", "location_type": "0"}, "geometry": {"type": "Point", "coordinates": [137.169122, 36.71468]}}, {"type": "Feature", "properties": {"stop_id": "77_1", "stop_name": "JA南部支店", "zone_id": "77_1", "location_type": "0"}, "geometry": {"type": "Point", "coordinates": [137.132793, 36.708014]}}, {"type": "Feature", "properties": {"stop_id": "78_1", "stop_name": "老田小学校", "zone_id": "78_1", "location_type": "0"}, "geometry": {"type": "Point", "coordinates": [137.131609, 36.708126]}}]}