{"type": "FeatureCollection", "name": "stops", "crs": {"type": "name", "properties": {"name": "urn:ogc:def:crs:OGC:1.3:CRS84"}}, "features": [{"type": "Feature", "properties": {"stop_id": "1_01", "stop_name": "石津南", "zone_id": "1_01", "location_type": "0"}, "geometry": {"type": "Point", "coordinates": [136.627452, 35.179162]}}, {"type": "Feature", "properties": {"stop_id": "10_01", "stop_name": "馬目西方", "zone_id": "10_01", "location_type": "0"}, "geometry": {"type": "Point", "coordinates": [136.635118, 35.225062]}}, {"type": "Feature", "properties": {"stop_id": "10_02", "stop_name": "馬目西方", "zone_id": "10_02", "location_type": "0"}, "geometry": {"type": "Point", "coordinates": [136.635229, 35.225035]}}, {"type": "Feature", "properties": {"stop_id": "11_01", "stop_name": "平原", "zone_id": "11_01", "location_type": "0"}, "geometry": {"type": "Point", "coordinates": [136.635168, 35.227775]}}, {"type": "Feature", "properties": {"stop_id": "11_02", "stop_name": "平原", "zone_id": "11_02", "location_type": "0"}, "geometry": {"type": "Point", "coordinates": [136.635337, 35.227931]}}, {"type": "Feature", "properties": {"stop_id": "12_01", "stop_name": "高田西", "zone_id": "12_01", "location_type": "0"}, "geometry": {"type": "Point", "coordinates": [136.636798, 35.238341]}}, {"type": "Feature", "properties": {"stop_id": "13_01", "stop_name": "今尾", "zone_id": "13_01", "location_type": "0"}, "geometry": {"type": "Point", "coordinates": [136.631124, 35.25076]}}, {"type": "Feature", "properties": {"stop_id": "13_02", "stop_name": "今尾", "zone_id": "13_02", "location_type": "0"}, "geometry": {"type": "Point", "coordinates": [136.631163, 35.250437]}}, {"type": "Feature", "properties": {"stop_id": "14_01", "stop_name": "平田支所", "zone_id": "14_01", "location_type": "0"}, "geometry": {"type": "Point", "coordinates": [136.636153, 35.256606]}}, {"type": "Feature", "properties": {"stop_id": "15_01", "stop_name": "お千代保稲荷", "zone_id": "15_01", "location_type": "0"}, "geometry": {"type": "Point", "coordinates": [136.643212, 35.259462]}}, {"type": "Feature", "properties": {"stop_id": "15_02", "stop_name": "お千代保稲荷", "zone_id": "15_02", "location_type": "0"}, "geometry": {"type": "Point", "coordinates": [136.64345, 35.259387]}}, {"type": "Feature", "properties": {"stop_id": "16_01", "stop_name": "蛇池", "zone_id": "16_01", "location_type": "0"}, "geometry": {"type": "Point", "coordinates": [136.648865, 35.259528]}}, {"type": "Feature", "properties": {"stop_id": "17_01", "stop_name": "野市場", "zone_id": "17_01", "location_type": "0"}, "geometry": {"type": "Point", "coordinates": [136.65437, 35.260351]}}, {"type": "Feature", "properties": {"stop_id": "18_01", "stop_name": "者結", "zone_id": "18_01", "location_type": "0"}, "geometry": {"type": "Point", "coordinates": [136.657734, 35.265094]}}, {"type": "Feature", "properties": {"stop_id": "19_01", "stop_name": "幡長", "zone_id": "19_01", "location_type": "0"}, "geometry": {"type": "Point", "coordinates": [136.662548, 35.269304]}}, {"type": "Feature", "properties": {"stop_id": "2_01", "stop_name": "石津駅", "zone_id": "2_01", "location_type": "0"}, "geometry": {"type": "Point", "coordinates": [136.628079, 35.180784]}}, {"type": "Feature", "properties": {"stop_id": "20_01", "stop_name": "野寺", "zone_id": "20_01", "location_type": "0"}, "geometry": {"type": "Point", "coordinates": [136.66476, 35.275486]}}, {"type": "Feature", "properties": {"stop_id": "21_01", "stop_name": "勝賀西", "zone_id": "21_01", "location_type": "0"}, "geometry": {"type": "Point", "coordinates": [136.663923, 35.28281]}}, {"type": "Feature", "properties": {"stop_id": "22_01", "stop_name": "県立看護大学", "zone_id": "22_01", "location_type": "0"}, "geometry": {"type": "Point", "coordinates": [136.683846, 35.308402]}}, {"type": "Feature", "properties": {"stop_id": "22_02", "stop_name": "県立看護大学", "zone_id": "22_02", "location_type": "0"}, "geometry": {"type": "Point", "coordinates": [136.683931, 35.308198]}}, {"type": "Feature", "properties": {"stop_id": "23_01", "stop_name": "岐阜羽島駅", "zone_id": "23_01", "location_type": "0"}, "geometry": {"type": "Point", "coordinates": [136.686342, 35.315869]}}, {"type": "Feature", "properties": {"stop_id": "24_01", "stop_name": "松山グリーンハイツ", "zone_id": "24_01", "location_type": "0"}, "geometry": {"type": "Point", "coordinates": [136.634776, 35.156442]}}, {"type": "Feature", "properties": {"stop_id": "25_01", "stop_name": "田鶴", "zone_id": "25_01", "location_type": "0"}, "geometry": {"type": "Point", "coordinates": [136.640739, 35.165616]}}, {"type": "Feature", "properties": {"stop_id": "26_01", "stop_name": "松山駅東", "zone_id": "26_01", "location_type": "0"}, "geometry": {"type": "Point", "coordinates": [136.63314, 35.161233]}}, {"type": "Feature", "properties": {"stop_id": "27_01", "stop_name": "松山台", "zone_id": "27_01", "location_type": "0"}, "geometry": {"type": "Point", "coordinates": [136.631356, 35.164517]}}, {"type": "Feature", "properties": {"stop_id": "28_01", "stop_name": "石津小学校口", "zone_id": "28_01", "location_type": "0"}, "geometry": {"type": "Point", "coordinates": [136.62844, 35.171842]}}, {"type": "Feature", "properties": {"stop_id": "29_01", "stop_name": "海津橋西", "zone_id": "29_01", "location_type": "0"}, "geometry": {"type": "Point", "coordinates": [136.628051, 35.185734]}}, {"type": "Feature", "properties": {"stop_id": "3_01", "stop_name": "海津温泉", "zone_id": "3_01", "location_type": "0"}, "geometry": {"type": "Point", "coordinates": [136.659512, 35.176621]}}, {"type": "Feature", "properties": {"stop_id": "30_01", "stop_name": "安田", "zone_id": "30_01", "location_type": "0"}, "geometry": {"type": "Point", "coordinates": [136.635385, 35.186503]}}, {"type": "Feature", "properties": {"stop_id": "31_01", "stop_name": "沼", "zone_id": "31_01", "location_type": "0"}, "geometry": {"type": "Point", "coordinates": [136.64264, 35.183035]}}, {"type": "Feature", "properties": {"stop_id": "32_01", "stop_name": "沼新田", "zone_id": "32_01", "location_type": "0"}, "geometry": {"type": "Point", "coordinates": [136.649079, 35.180399]}}, {"type": "Feature", "properties": {"stop_id": "34_01", "stop_name": "木曽三川公園", "zone_id": "34_01", "location_type": "0"}, "geometry": {"type": "Point", "coordinates": [136.667266, 35.148964]}}, {"type": "Feature", "properties": {"stop_id": "35_01", "stop_name": "石亀橋", "zone_id": "35_01", "location_type": "0"}, "geometry": {"type": "Point", "coordinates": [136.658309, 35.187649]}}, {"type": "Feature", "properties": {"stop_id": "36_01", "stop_name": "深浜", "zone_id": "36_01", "location_type": "0"}, "geometry": {"type": "Point", "coordinates": [136.652606, 35.193411]}}, {"type": "Feature", "properties": {"stop_id": "37_01", "stop_name": "五町", "zone_id": "37_01", "location_type": "0"}, "geometry": {"type": "Point", "coordinates": [136.646863, 35.201948]}}, {"type": "Feature", "properties": {"stop_id": "38_01", "stop_name": "内記五町", "zone_id": "38_01", "location_type": "0"}, "geometry": {"type": "Point", "coordinates": [136.641664, 35.209825]}}, {"type": "Feature", "properties": {"stop_id": "38_02", "stop_name": "内記五町", "zone_id": "38_02", "location_type": "0"}, "geometry": {"type": "Point", "coordinates": [136.642089, 35.209705]}}, {"type": "Feature", "properties": {"stop_id": "39_01", "stop_name": "海津明誠高校口", "zone_id": "39_01", "location_type": "0"}, "geometry": {"type": "Point", "coordinates": [136.629077, 35.224576]}}, {"type": "Feature", "properties": {"stop_id": "39_02", "stop_name": "海津明誠高校口", "zone_id": "39_02", "location_type": "0"}, "geometry": {"type": "Point", "coordinates": [136.630376, 35.224615]}}, {"type": "Feature", "properties": {"stop_id": "4_01", "stop_name": "医師会病院", "zone_id": "4_01", "location_type": "0"}, "geometry": {"type": "Point", "coordinates": [136.661221, 35.172653]}}, {"type": "Feature", "properties": {"stop_id": "40_01", "stop_name": "駒野駅", "zone_id": "40_01", "location_type": "0"}, "geometry": {"type": "Point", "coordinates": [136.60352, 35.223858]}}, {"type": "Feature", "properties": {"stop_id": "43_01", "stop_name": "水晶の湯", "zone_id": "43_01", "location_type": "0"}, "geometry": {"type": "Point", "coordinates": [136.598099, 35.216116]}}, {"type": "Feature", "properties": {"stop_id": "44_01", "stop_name": "大須", "zone_id": "44_01", "location_type": "0"}, "geometry": {"type": "Point", "coordinates": [136.677716, 35.270642]}}, {"type": "Feature", "properties": {"stop_id": "46_01", "stop_name": "西小薮", "zone_id": "46_01", "location_type": "0"}, "geometry": {"type": "Point", "coordinates": [136.66047, 35.259546]}}, {"type": "Feature", "properties": {"stop_id": "47_01", "stop_name": "今尾南", "zone_id": "47_01", "location_type": "0"}, "geometry": {"type": "Point", "coordinates": [136.626844, 35.246455]}}, {"type": "Feature", "properties": {"stop_id": "48_01", "stop_name": "大薮東", "zone_id": "48_01", "location_type": "0"}, "geometry": {"type": "Point", "coordinates": [136.664047, 35.290592]}}, {"type": "Feature", "properties": {"stop_id": "48_02", "stop_name": "大薮東", "zone_id": "48_02", "location_type": "0"}, "geometry": {"type": "Point", "coordinates": [136.663989, 35.29044]}}, {"type": "Feature", "properties": {"stop_id": "49_01", "stop_name": "南濃南部グラウンド", "zone_id": "49_01", "location_type": "0"}, "geometry": {"type": "Point", "coordinates": [136.641292, 35.156617]}}, {"type": "Feature", "properties": {"stop_id": "8_01", "stop_name": "歴史民俗資料館", "zone_id": "8_01", "location_type": "0"}, "geometry": {"type": "Point", "coordinates": [136.640278, 35.215796]}}, {"type": "Feature", "properties": {"stop_id": "9_01", "stop_name": "海津市役所", "zone_id": "9_01", "location_type": "0"}, "geometry": {"type": "Point", "coordinates": [136.636039, 35.220253]}}, {"type": "Feature", "properties": {"stop_id": "9_02", "stop_name": "海津市役所", "zone_id": "9_02", "location_type": "0"}, "geometry": {"type": "Point", "coordinates": [136.6362, 35.220034]}}]}