{"type": "FeatureCollection", "name": "stops", "crs": {"type": "name", "properties": {"name": "urn:ogc:def:crs:OGC:1.3:CRS84"}}, "features": [{"type": "Feature", "properties": {"stop_id": "101_01", "stop_name": "亀山駅前", "zone_id": "101_01", "location_type": "0"}, "geometry": {"type": "Point", "coordinates": [136.450011, 34.850455]}}, {"type": "Feature", "properties": {"stop_id": "102_01", "stop_name": "文化会館北口", "zone_id": "102_01", "location_type": "0"}, "geometry": {"type": "Point", "coordinates": [136.454822177909, 34.85247081528]}}, {"type": "Feature", "properties": {"stop_id": "102_02", "stop_name": "文化会館北口", "zone_id": "102_02", "location_type": "0"}, "geometry": {"type": "Point", "coordinates": [136.454865093254, 34.8523651628431]}}, {"type": "Feature", "properties": {"stop_id": "103_01", "stop_name": "エコー前", "zone_id": "103_01", "location_type": "0"}, "geometry": {"type": "Point", "coordinates": [136.45768, 34.85199]}}, {"type": "Feature", "properties": {"stop_id": "104_01", "stop_name": "鹿島", "zone_id": "104_01", "location_type": "0"}, "geometry": {"type": "Point", "coordinates": [136.461782457672, 34.8506109771962]}}, {"type": "Feature", "properties": {"stop_id": "104_02", "stop_name": "鹿島", "zone_id": "104_02", "location_type": "0"}, "geometry": {"type": "Point", "coordinates": [136.461758, 34.850727]}}, {"type": "Feature", "properties": {"stop_id": "105_01", "stop_name": "亀山高校西", "zone_id": "105_01", "location_type": "0"}, "geometry": {"type": "Point", "coordinates": [136.459424813491, 34.8532425764659]}}, {"type": "Feature", "properties": {"stop_id": "105_02", "stop_name": "亀山高校西", "zone_id": "105_02", "location_type": "0"}, "geometry": {"type": "Point", "coordinates": [136.459505279762, 34.8533218149613]}}, {"type": "Feature", "properties": {"stop_id": "106_01", "stop_name": "東町", "zone_id": "106_01", "location_type": "0"}, "geometry": {"type": "Point", "coordinates": [136.457918568699, 34.8534573808461]}}, {"type": "Feature", "properties": {"stop_id": "106_02", "stop_name": "東町", "zone_id": "106_02", "location_type": "0"}, "geometry": {"type": "Point", "coordinates": [136.458089559524, 34.85352451329]}}, {"type": "Feature", "properties": {"stop_id": "107_01", "stop_name": "ふれあい広場前", "zone_id": "107_01", "location_type": "0"}, "geometry": {"type": "Point", "coordinates": [136.455726355819, 34.8538924868422]}}, {"type": "Feature", "properties": {"stop_id": "107_02", "stop_name": "ふれあい広場前", "zone_id": "107_02", "location_type": "0"}, "geometry": {"type": "Point", "coordinates": [136.455855101852, 34.8539398094679]}}, {"type": "Feature", "properties": {"stop_id": "108_01", "stop_name": "市役所前", "zone_id": "108_01", "location_type": "0"}, "geometry": {"type": "Point", "coordinates": [136.45167, 34.85599]}}, {"type": "Feature", "properties": {"stop_id": "108_02", "stop_name": "市役所前", "zone_id": "108_02", "location_type": "0"}, "geometry": {"type": "Point", "coordinates": [136.452136661376, 34.8559968039872]}}, {"type": "Feature", "properties": {"stop_id": "109_01", "stop_name": "亀山中学校", "zone_id": "109_01", "location_type": "0"}, "geometry": {"type": "Point", "coordinates": [136.449431947256, 34.8553143817404]}}, {"type": "Feature", "properties": {"stop_id": "109_02", "stop_name": "亀山中学校", "zone_id": "109_02", "location_type": "0"}, "geometry": {"type": "Point", "coordinates": [136.449218711639, 34.8553914172276]}}, {"type": "Feature", "properties": {"stop_id": "110_01", "stop_name": "京口坂", "zone_id": "110_01", "location_type": "0"}, "geometry": {"type": "Point", "coordinates": [136.445811749091, 34.8554725878756]}}, {"type": "Feature", "properties": {"stop_id": "110_02", "stop_name": "京口坂", "zone_id": "110_02", "location_type": "0"}, "geometry": {"type": "Point", "coordinates": [136.445768163194, 34.8555430201884]}}, {"type": "Feature", "properties": {"stop_id": "111_01", "stop_name": "慈恩寺前", "zone_id": "111_01", "location_type": "0"}, "geometry": {"type": "Point", "coordinates": [136.441918582838, 34.8565699754845]}}, {"type": "Feature", "properties": {"stop_id": "111_02", "stop_name": "慈恩寺前", "zone_id": "111_02", "location_type": "0"}, "geometry": {"type": "Point", "coordinates": [136.441748262565, 34.8566580146916]}}, {"type": "Feature", "properties": {"stop_id": "112_01", "stop_name": "西野公園口", "zone_id": "112_01", "location_type": "0"}, "geometry": {"type": "Point", "coordinates": [136.439435720237, 34.858696]}}, {"type": "Feature", "properties": {"stop_id": "112_02", "stop_name": "西野公園口", "zone_id": "112_02", "location_type": "0"}, "geometry": {"type": "Point", "coordinates": [136.439526915344, 34.8586871963016]}}, {"type": "Feature", "properties": {"stop_id": "113_01", "stop_name": "野村団地", "zone_id": "113_01", "location_type": "0"}, "geometry": {"type": "Point", "coordinates": [136.44254831779, 34.8601564453524]}}, {"type": "Feature", "properties": {"stop_id": "114_01", "stop_name": "歴史博物館前", "zone_id": "114_01", "location_type": "0"}, "geometry": {"type": "Point", "coordinates": [136.44751, 34.859333]}}, {"type": "Feature", "properties": {"stop_id": "115_01", "stop_name": "西野南", "zone_id": "115_01", "location_type": "0"}, "geometry": {"type": "Point", "coordinates": [136.443965038028, 34.8638216466544]}}, {"type": "Feature", "properties": {"stop_id": "115_02", "stop_name": "西野南", "zone_id": "115_02", "location_type": "0"}, "geometry": {"type": "Point", "coordinates": [136.444070985284, 34.8638177952765]}}, {"type": "Feature", "properties": {"stop_id": "116_01", "stop_name": "羽若西野", "zone_id": "116_01", "location_type": "0"}, "geometry": {"type": "Point", "coordinates": [136.443914437417, 34.8671381108349]}}, {"type": "Feature", "properties": {"stop_id": "116_02", "stop_name": "羽若西野", "zone_id": "116_02", "location_type": "0"}, "geometry": {"type": "Point", "coordinates": [136.444010326389, 34.8670709895011]}}, {"type": "Feature", "properties": {"stop_id": "117_01", "stop_name": "医療センター前", "zone_id": "117_01", "location_type": "0"}, "geometry": {"type": "Point", "coordinates": [136.450537189566, 34.8663721039557]}}, {"type": "Feature", "properties": {"stop_id": "118_01", "stop_name": "総合保健福祉センター前", "zone_id": "118_01", "location_type": "0"}, "geometry": {"type": "Point", "coordinates": [136.450768542327, 34.8652695872827]}}, {"type": "Feature", "properties": {"stop_id": "119_01", "stop_name": "亀田", "zone_id": "119_01", "location_type": "0"}, "geometry": {"type": "Point", "coordinates": [136.454689, 34.864453]}}, {"type": "Feature", "properties": {"stop_id": "119_02", "stop_name": "亀田", "zone_id": "119_02", "location_type": "0"}, "geometry": {"type": "Point", "coordinates": [136.454604, 34.864459]}}, {"type": "Feature", "properties": {"stop_id": "119_03", "stop_name": "亀田", "zone_id": "119_03", "location_type": "0"}, "geometry": {"type": "Point", "coordinates": [136.454189371688, 34.8651224467688]}}, {"type": "Feature", "properties": {"stop_id": "120_01", "stop_name": "羽若", "zone_id": "120_01", "location_type": "0"}, "geometry": {"type": "Point", "coordinates": [136.454798728836, 34.8607579824222]}}, {"type": "Feature", "properties": {"stop_id": "120_02", "stop_name": "羽若", "zone_id": "120_02", "location_type": "0"}, "geometry": {"type": "Point", "coordinates": [136.454767883432, 34.8605780611602]}}, {"type": "Feature", "properties": {"stop_id": "121_01", "stop_name": "東丸", "zone_id": "121_01", "location_type": "0"}, "geometry": {"type": "Point", "coordinates": [136.454461542327, 34.8555985476976]}}, {"type": "Feature", "properties": {"stop_id": "121_02", "stop_name": "東丸", "zone_id": "121_02", "location_type": "0"}, "geometry": {"type": "Point", "coordinates": [136.454523233135, 34.8558274521431]}}, {"type": "Feature", "properties": {"stop_id": "122_01", "stop_name": "池の側", "zone_id": "122_01", "location_type": "0"}, "geometry": {"type": "Point", "coordinates": [136.450337, 34.854879]}}, {"type": "Feature", "properties": {"stop_id": "122_02", "stop_name": "池の側", "zone_id": "122_02", "location_type": "0"}, "geometry": {"type": "Point", "coordinates": [136.450253, 34.854876]}}, {"type": "Feature", "properties": {"stop_id": "123_01", "stop_name": "御幸町", "zone_id": "123_01", "location_type": "0"}, "geometry": {"type": "Point", "coordinates": [136.450967139881, 34.8529233124114]}}, {"type": "Feature", "properties": {"stop_id": "123_02", "stop_name": "御幸町", "zone_id": "123_02", "location_type": "0"}, "geometry": {"type": "Point", "coordinates": [136.4509134957, 34.8528253643413]}}, {"type": "Feature", "properties": {"stop_id": "124_01", "stop_name": "井田川駅", "zone_id": "124_01", "location_type": "0"}, "geometry": {"type": "Point", "coordinates": [136.491971565641, 34.8681799966473]}}, {"type": "Feature", "properties": {"stop_id": "125_01", "stop_name": "井田川駅西", "zone_id": "125_01", "location_type": "0"}, "geometry": {"type": "Point", "coordinates": [136.489426321426, 34.8692082490507]}}, {"type": "Feature", "properties": {"stop_id": "125_02", "stop_name": "井田川駅西", "zone_id": "125_02", "location_type": "0"}, "geometry": {"type": "Point", "coordinates": [136.490019089618, 34.8688165336341]}}, {"type": "Feature", "properties": {"stop_id": "126_01", "stop_name": "みどり町", "zone_id": "126_01", "location_type": "0"}, "geometry": {"type": "Point", "coordinates": [136.485929975532, 34.8707379281569]}}, {"type": "Feature", "properties": {"stop_id": "126_02", "stop_name": "みどり町", "zone_id": "126_02", "location_type": "0"}, "geometry": {"type": "Point", "coordinates": [136.484788695596, 34.8713750000332]}}, {"type": "Feature", "properties": {"stop_id": "127_01", "stop_name": "田村公民館", "zone_id": "127_01", "location_type": "0"}, "geometry": {"type": "Point", "coordinates": [136.479312084655, 34.876388405416]}}, {"type": "Feature", "properties": {"stop_id": "128_01", "stop_name": "長明寺口", "zone_id": "128_01", "location_type": "0"}, "geometry": {"type": "Point", "coordinates": [136.47484, 34.87668]}}, {"type": "Feature", "properties": {"stop_id": "128_02", "stop_name": "長明寺口", "zone_id": "128_02", "location_type": "0"}, "geometry": {"type": "Point", "coordinates": [136.4744106, 34.8763096]}}, {"type": "Feature", "properties": {"stop_id": "129_01", "stop_name": "みずきが丘", "zone_id": "129_01", "location_type": "0"}, "geometry": {"type": "Point", "coordinates": [136.468745326389, 34.8782148977894]}}, {"type": "Feature", "properties": {"stop_id": "130_01", "stop_name": "北東分署前", "zone_id": "130_01", "location_type": "0"}, "geometry": {"type": "Point", "coordinates": [136.473311906745, 34.8810942281686]}}, {"type": "Feature", "properties": {"stop_id": "130_02", "stop_name": "北東分署前", "zone_id": "130_02", "location_type": "0"}, "geometry": {"type": "Point", "coordinates": [136.473301177909, 34.8807817814234]}}, {"type": "Feature", "properties": {"stop_id": "131_01", "stop_name": "安楽橋", "zone_id": "131_01", "location_type": "0"}, "geometry": {"type": "Point", "coordinates": [136.473167, 34.884643]}}, {"type": "Feature", "properties": {"stop_id": "132_01", "stop_name": "八島橋東", "zone_id": "132_01", "location_type": "0"}, "geometry": {"type": "Point", "coordinates": [136.470896728836, 34.8909946026314]}}, {"type": "Feature", "properties": {"stop_id": "132_02", "stop_name": "八島橋東", "zone_id": "132_02", "location_type": "0"}, "geometry": {"type": "Point", "coordinates": [136.470841743551, 34.8908053972596]}}, {"type": "Feature", "properties": {"stop_id": "133_01", "stop_name": "川崎", "zone_id": "133_01", "location_type": "0"}, "geometry": {"type": "Point", "coordinates": [136.471392031911, 34.8953820002885]}}, {"type": "Feature", "properties": {"stop_id": "134_01", "stop_name": "徳原", "zone_id": "134_01", "location_type": "0"}, "geometry": {"type": "Point", "coordinates": [136.474338881671, 34.8990043974118]}}, {"type": "Feature", "properties": {"stop_id": "135_01", "stop_name": "原四ツ辻", "zone_id": "135_01", "location_type": "0"}, "geometry": {"type": "Point", "coordinates": [136.478663553984, 34.905755553273]}}, {"type": "Feature", "properties": {"stop_id": "136_01", "stop_name": "のぼの北", "zone_id": "136_01", "location_type": "0"}, "geometry": {"type": "Point", "coordinates": [136.485692271164, 34.9009095499486]}}, {"type": "Feature", "properties": {"stop_id": "137_01", "stop_name": "のぼの東", "zone_id": "137_01", "location_type": "0"}, "geometry": {"type": "Point", "coordinates": [136.490319119626, 34.8954919996981]}}, {"type": "Feature", "properties": {"stop_id": "138_01", "stop_name": "能褒野変電所前", "zone_id": "138_01", "location_type": "0"}, "geometry": {"type": "Point", "coordinates": [136.488649434358, 34.889367597227]}}, {"type": "Feature", "properties": {"stop_id": "139_01", "stop_name": "能褒野町公民館", "zone_id": "139_01", "location_type": "0"}, "geometry": {"type": "Point", "coordinates": [136.484569533729, 34.8876907976332]}}, {"type": "Feature", "properties": {"stop_id": "140_01", "stop_name": "川崎駐在所前", "zone_id": "140_01", "location_type": "0"}, "geometry": {"type": "Point", "coordinates": [136.484198705522, 34.8872397029788]}}, {"type": "Feature", "properties": {"stop_id": "141_01", "stop_name": "のぼのの森公園", "zone_id": "141_01", "location_type": "0"}, "geometry": {"type": "Point", "coordinates": [136.484344, 34.885323]}}, {"type": "Feature", "properties": {"stop_id": "142_01", "stop_name": "郵便局前", "zone_id": "142_01", "location_type": "0"}, "geometry": {"type": "Point", "coordinates": [136.454787230827, 34.8524819455373]}}, {"type": "Feature", "properties": {"stop_id": "142_02", "stop_name": "郵便局前", "zone_id": "142_02", "location_type": "0"}, "geometry": {"type": "Point", "coordinates": [136.454814052917, 34.8523806953016]}}, {"type": "Feature", "properties": {"stop_id": "143_01", "stop_name": "アイリス南", "zone_id": "143_01", "location_type": "0"}, "geometry": {"type": "Point", "coordinates": [136.460540309192, 34.8667047709327]}}, {"type": "Feature", "properties": {"stop_id": "143_02", "stop_name": "アイリス南", "zone_id": "143_02", "location_type": "0"}, "geometry": {"type": "Point", "coordinates": [136.460618093254, 34.866878626852]}}, {"type": "Feature", "properties": {"stop_id": "144_01", "stop_name": "川合西", "zone_id": "144_01", "location_type": "0"}, "geometry": {"type": "Point", "coordinates": [136.470418766864, 34.8688177993464]}}, {"type": "Feature", "properties": {"stop_id": "144_02", "stop_name": "川合西", "zone_id": "144_02", "location_type": "0"}, "geometry": {"type": "Point", "coordinates": [136.470475093254, 34.8688618124069]}}, {"type": "Feature", "properties": {"stop_id": "145_01", "stop_name": "みずほ台口", "zone_id": "145_01", "location_type": "0"}, "geometry": {"type": "Point", "coordinates": [136.472303813491, 34.8710697169237]}}, {"type": "Feature", "properties": {"stop_id": "146_01", "stop_name": "川崎農協", "zone_id": "146_01", "location_type": "0"}, "geometry": {"type": "Point", "coordinates": [136.469012, 34.891761]}}, {"type": "Feature", "properties": {"stop_id": "147_01", "stop_name": "川崎地区コミュニティセンター", "zone_id": "147_01", "location_type": "0"}, "geometry": {"type": "Point", "coordinates": [136.471725, 34.89407]}}, {"type": "Feature", "properties": {"stop_id": "148_01", "stop_name": "東野口", "zone_id": "148_01", "location_type": "0"}, "geometry": {"type": "Point", "coordinates": [136.485369, 34.875205]}}, {"type": "Feature", "properties": {"stop_id": "149_01", "stop_name": "弘法寺", "zone_id": "149_01", "location_type": "0"}, "geometry": {"type": "Point", "coordinates": [136.490257871775, 34.8202460814514]}}, {"type": "Feature", "properties": {"stop_id": "150_01", "stop_name": "下庄駅", "zone_id": "150_01", "location_type": "0"}, "geometry": {"type": "Point", "coordinates": [136.479810813491, 34.8145684042091]}}, {"type": "Feature", "properties": {"stop_id": "151_01", "stop_name": "下庄", "zone_id": "151_01", "location_type": "0"}, "geometry": {"type": "Point", "coordinates": [136.482921626983, 34.822792]}}, {"type": "Feature", "properties": {"stop_id": "152_01", "stop_name": "平田", "zone_id": "152_01", "location_type": "0"}, "geometry": {"type": "Point", "coordinates": [136.479568154596, 34.8248810826285]}}, {"type": "Feature", "properties": {"stop_id": "152_02", "stop_name": "平田", "zone_id": "152_02", "location_type": "0"}, "geometry": {"type": "Point", "coordinates": [136.479634874545, 34.8249251191938]}}, {"type": "Feature", "properties": {"stop_id": "153_01", "stop_name": "神向谷", "zone_id": "153_01", "location_type": "0"}, "geometry": {"type": "Point", "coordinates": [136.470883, 34.828622]}}, {"type": "Feature", "properties": {"stop_id": "153_02", "stop_name": "神向谷", "zone_id": "153_02", "location_type": "0"}, "geometry": {"type": "Point", "coordinates": [136.470983116567, 34.8286014409215]}}, {"type": "Feature", "properties": {"stop_id": "154_01", "stop_name": "農協昼生出張所前", "zone_id": "154_01", "location_type": "0"}, "geometry": {"type": "Point", "coordinates": [136.471961912862, 34.8262985313508]}}, {"type": "Feature", "properties": {"stop_id": "154_02", "stop_name": "農協昼生出張所前", "zone_id": "154_02", "location_type": "0"}, "geometry": {"type": "Point", "coordinates": [136.471929726354, 34.8262225695276]}}, {"type": "Feature", "properties": {"stop_id": "155_01", "stop_name": "中庄", "zone_id": "155_01", "location_type": "0"}, "geometry": {"type": "Point", "coordinates": [136.468036177909, 34.8246031376562]}}, {"type": "Feature", "properties": {"stop_id": "155_02", "stop_name": "中庄", "zone_id": "155_02", "location_type": "0"}, "geometry": {"type": "Point", "coordinates": [136.468101221478, 34.8245491926495]}}, {"type": "Feature", "properties": {"stop_id": "156_01", "stop_name": "三寺", "zone_id": "156_01", "location_type": "0"}, "geometry": {"type": "Point", "coordinates": [136.462282, 34.824352]}}, {"type": "Feature", "properties": {"stop_id": "165_01", "stop_name": "阿野田口", "zone_id": "165_01", "location_type": "0"}, "geometry": {"type": "Point", "coordinates": [136.46347, 34.84131]}}, {"type": "Feature", "properties": {"stop_id": "166_01", "stop_name": "阿野田", "zone_id": "166_01", "location_type": "0"}, "geometry": {"type": "Point", "coordinates": [136.462857720237, 34.8444003895466]}}, {"type": "Feature", "properties": {"stop_id": "166_02", "stop_name": "阿野田", "zone_id": "166_02", "location_type": "0"}, "geometry": {"type": "Point", "coordinates": [136.462943550926, 34.844413597387]}}, {"type": "Feature", "properties": {"stop_id": "167_01", "stop_name": "エコータウン", "zone_id": "167_01", "location_type": "0"}, "geometry": {"type": "Point", "coordinates": [136.4577, 34.85198]}}, {"type": "Feature", "properties": {"stop_id": "168_01", "stop_name": "アイリス西", "zone_id": "168_01", "location_type": "0"}, "geometry": {"type": "Point", "coordinates": [136.454476737434, 34.8701244074279]}}, {"type": "Feature", "properties": {"stop_id": "169_01", "stop_name": "辺法寺口", "zone_id": "169_01", "location_type": "0"}, "geometry": {"type": "Point", "coordinates": [136.451218, 34.891319]}}, {"type": "Feature", "properties": {"stop_id": "170_01", "stop_name": "辺法寺", "zone_id": "170_01", "location_type": "0"}, "geometry": {"type": "Point", "coordinates": [136.451796906745, 34.8926350008737]}}, {"type": "Feature", "properties": {"stop_id": "170_02", "stop_name": "辺法寺", "zone_id": "170_02", "location_type": "0"}, "geometry": {"type": "Point", "coordinates": [136.451888101852, 34.8924061988909]}}, {"type": "Feature", "properties": {"stop_id": "171_01", "stop_name": "平尾", "zone_id": "171_01", "location_type": "0"}, "geometry": {"type": "Point", "coordinates": [136.437563, 34.899208]}}, {"type": "Feature", "properties": {"stop_id": "171_02", "stop_name": "平尾", "zone_id": "171_02", "location_type": "0"}, "geometry": {"type": "Point", "coordinates": [136.438335708003, 34.8987738106851]}}, {"type": "Feature", "properties": {"stop_id": "172_01", "stop_name": "両尾", "zone_id": "172_01", "location_type": "0"}, "geometry": {"type": "Point", "coordinates": [136.434751, 34.89979]}}, {"type": "Feature", "properties": {"stop_id": "172_02", "stop_name": "両尾", "zone_id": "172_02", "location_type": "0"}, "geometry": {"type": "Point", "coordinates": [136.433679380287, 34.8998823960961]}}, {"type": "Feature", "properties": {"stop_id": "173_01", "stop_name": "西両尾", "zone_id": "173_01", "location_type": "0"}, "geometry": {"type": "Point", "coordinates": [136.431796, 34.901351]}}, {"type": "Feature", "properties": {"stop_id": "173_02", "stop_name": "西両尾", "zone_id": "173_02", "location_type": "0"}, "geometry": {"type": "Point", "coordinates": [136.431809093254, 34.9011558098236]}}, {"type": "Feature", "properties": {"stop_id": "174_01", "stop_name": "西平尾", "zone_id": "174_01", "location_type": "0"}, "geometry": {"type": "Point", "coordinates": [136.430628728836, 34.902655997479]}}, {"type": "Feature", "properties": {"stop_id": "175_01", "stop_name": "東安楽", "zone_id": "175_01", "location_type": "0"}, "geometry": {"type": "Point", "coordinates": [136.425287364418, 34.9061763872129]}}, {"type": "Feature", "properties": {"stop_id": "175_02", "stop_name": "東安楽", "zone_id": "175_02", "location_type": "0"}, "geometry": {"type": "Point", "coordinates": [136.425330279762, 34.9059982151012]}}, {"type": "Feature", "properties": {"stop_id": "176_01", "stop_name": "西安楽", "zone_id": "176_01", "location_type": "0"}, "geometry": {"type": "Point", "coordinates": [136.422366084655, 34.9087351809615]}}, {"type": "Feature", "properties": {"stop_id": "176_02", "stop_name": "西安楽", "zone_id": "176_02", "location_type": "0"}, "geometry": {"type": "Point", "coordinates": [136.422468008598, 34.9085108230089]}}, {"type": "Feature", "properties": {"stop_id": "177_01", "stop_name": "池山北", "zone_id": "177_01", "location_type": "0"}, "geometry": {"type": "Point", "coordinates": [136.415726, 34.914973]}}, {"type": "Feature", "properties": {"stop_id": "178_01", "stop_name": "坂本棚田", "zone_id": "178_01", "location_type": "0"}, "geometry": {"type": "Point", "coordinates": [136.412896542327, 34.925858]}}, {"type": "Feature", "properties": {"stop_id": "179_01", "stop_name": "池山東", "zone_id": "179_01", "location_type": "0"}, "geometry": {"type": "Point", "coordinates": [136.413914, 34.913647]}}, {"type": "Feature", "properties": {"stop_id": "179_02", "stop_name": "池山東", "zone_id": "179_02", "location_type": "0"}, "geometry": {"type": "Point", "coordinates": [136.413796449073, 34.9136126065551]}}, {"type": "Feature", "properties": {"stop_id": "180_01", "stop_name": "池山", "zone_id": "180_01", "location_type": "0"}, "geometry": {"type": "Point", "coordinates": [136.412343, 34.914759]}}, {"type": "Feature", "properties": {"stop_id": "180_02", "stop_name": "池山", "zone_id": "180_02", "location_type": "0"}, "geometry": {"type": "Point", "coordinates": [136.412279, 34.914703]}}, {"type": "Feature", "properties": {"stop_id": "181_01", "stop_name": "池山西", "zone_id": "181_01", "location_type": "0"}, "geometry": {"type": "Point", "coordinates": [136.410863, 34.915572]}}, {"type": "Feature", "properties": {"stop_id": "182_01", "stop_name": "仙ヶ岳登山口", "zone_id": "182_01", "location_type": "0"}, "geometry": {"type": "Point", "coordinates": [136.404573474868, 34.9177486144623]}}, {"type": "Feature", "properties": {"stop_id": "183_01", "stop_name": "石水渓", "zone_id": "183_01", "location_type": "0"}, "geometry": {"type": "Point", "coordinates": [136.400879, 34.919998]}}, {"type": "Feature", "properties": {"stop_id": "184_01", "stop_name": "住山口", "zone_id": "184_01", "location_type": "0"}, "geometry": {"type": "Point", "coordinates": [136.441286434358, 34.8680125084442]}}, {"type": "Feature", "properties": {"stop_id": "185_01", "stop_name": "住山", "zone_id": "185_01", "location_type": "0"}, "geometry": {"type": "Point", "coordinates": [136.438864457672, 34.8688062039246]}}, {"type": "Feature", "properties": {"stop_id": "186_01", "stop_name": "円福寺前", "zone_id": "186_01", "location_type": "0"}, "geometry": {"type": "Point", "coordinates": [136.435187550926, 34.8706028024238]}}, {"type": "Feature", "properties": {"stop_id": "187_01", "stop_name": "道野", "zone_id": "187_01", "location_type": "0"}, "geometry": {"type": "Point", "coordinates": [136.425645703041, 34.8673389516207]}}, {"type": "Feature", "properties": {"stop_id": "187_02", "stop_name": "道野", "zone_id": "187_02", "location_type": "0"}, "geometry": {"type": "Point", "coordinates": [136.425994390212, 34.8676866604102]}}, {"type": "Feature", "properties": {"stop_id": "188_01", "stop_name": "農協前", "zone_id": "188_01", "location_type": "0"}, "geometry": {"type": "Point", "coordinates": [136.419751, 34.874897]}}, {"type": "Feature", "properties": {"stop_id": "189_01", "stop_name": "小川口", "zone_id": "189_01", "location_type": "0"}, "geometry": {"type": "Point", "coordinates": [136.418177, 34.876201]}}, {"type": "Feature", "properties": {"stop_id": "190_01", "stop_name": "白川郵便局", "zone_id": "190_01", "location_type": "0"}, "geometry": {"type": "Point", "coordinates": [136.414990915344, 34.8762567995455]}}, {"type": "Feature", "properties": {"stop_id": "191_01", "stop_name": "上白木", "zone_id": "191_01", "location_type": "0"}, "geometry": {"type": "Point", "coordinates": [136.41055, 34.88047]}}, {"type": "Feature", "properties": {"stop_id": "192_01", "stop_name": "国分寺口", "zone_id": "192_01", "location_type": "0"}, "geometry": {"type": "Point", "coordinates": [136.407684, 34.881699]}}, {"type": "Feature", "properties": {"stop_id": "193_01", "stop_name": "白川小学校", "zone_id": "193_01", "location_type": "0"}, "geometry": {"type": "Point", "coordinates": [136.414221705522, 34.8846753521219]}}, {"type": "Feature", "properties": {"stop_id": "194_01", "stop_name": "松山", "zone_id": "194_01", "location_type": "0"}, "geometry": {"type": "Point", "coordinates": [136.424147101852, 34.8837784005064]}}, {"type": "Feature", "properties": {"stop_id": "195_01", "stop_name": "今福", "zone_id": "195_01", "location_type": "0"}, "geometry": {"type": "Point", "coordinates": [136.422819, 34.885195]}}, {"type": "Feature", "properties": {"stop_id": "196_01", "stop_name": "一色", "zone_id": "196_01", "location_type": "0"}, "geometry": {"type": "Point", "coordinates": [136.425146, 34.887387]}}, {"type": "Feature", "properties": {"stop_id": "197_01", "stop_name": "小川", "zone_id": "197_01", "location_type": "0"}, "geometry": {"type": "Point", "coordinates": [136.427689, 34.890054]}}, {"type": "Feature", "properties": {"stop_id": "201_01", "stop_name": "亀山局前", "zone_id": "201_01", "location_type": "0"}, "geometry": {"type": "Point", "coordinates": [136.453692565467, 34.8530078797369]}}, {"type": "Feature", "properties": {"stop_id": "301_01", "stop_name": "伊勢坂下", "zone_id": "301_01", "location_type": "0"}, "geometry": {"type": "Point", "coordinates": [136.354019, 34.888489]}}, {"type": "Feature", "properties": {"stop_id": "302_01", "stop_name": "鈴鹿馬子唄会館前", "zone_id": "302_01", "location_type": "0"}, "geometry": {"type": "Point", "coordinates": [136.359815813491, 34.8819492109144]}}, {"type": "Feature", "properties": {"stop_id": "303_01", "stop_name": "沓掛", "zone_id": "303_01", "location_type": "0"}, "geometry": {"type": "Point", "coordinates": [136.362562, 34.876058]}}, {"type": "Feature", "properties": {"stop_id": "304_01", "stop_name": "楢の木", "zone_id": "304_01", "location_type": "0"}, "geometry": {"type": "Point", "coordinates": [136.364845912903, 34.8703665766749]}}, {"type": "Feature", "properties": {"stop_id": "305_01", "stop_name": "筆捨山", "zone_id": "305_01", "location_type": "0"}, "geometry": {"type": "Point", "coordinates": [136.369533660049, 34.8697660821684]}}, {"type": "Feature", "properties": {"stop_id": "305_02", "stop_name": "筆捨山", "zone_id": "305_02", "location_type": "0"}, "geometry": {"type": "Point", "coordinates": [136.370284, 34.869243]}}, {"type": "Feature", "properties": {"stop_id": "306_01", "stop_name": "市瀬", "zone_id": "306_01", "location_type": "0"}, "geometry": {"type": "Point", "coordinates": [136.374058271163, 34.8615273255411]}}, {"type": "Feature", "properties": {"stop_id": "306_02", "stop_name": "市瀬", "zone_id": "306_02", "location_type": "0"}, "geometry": {"type": "Point", "coordinates": [136.374074364418, 34.8619278790318]}}, {"type": "Feature", "properties": {"stop_id": "307_01", "stop_name": "関西口", "zone_id": "307_01", "location_type": "0"}, "geometry": {"type": "Point", "coordinates": [136.376829296958, 34.8575391961787]}}, {"type": "Feature", "properties": {"stop_id": "307_02", "stop_name": "関西口", "zone_id": "307_02", "location_type": "0"}, "geometry": {"type": "Point", "coordinates": [136.37646988095, 34.8575524019102]}}, {"type": "Feature", "properties": {"stop_id": "308_01", "stop_name": "西の追分", "zone_id": "308_01", "location_type": "0"}, "geometry": {"type": "Point", "coordinates": [136.382187, 34.855752]}}, {"type": "Feature", "properties": {"stop_id": "308_02", "stop_name": "西の追分", "zone_id": "308_02", "location_type": "0"}, "geometry": {"type": "Point", "coordinates": [136.382079, 34.85562]}}, {"type": "Feature", "properties": {"stop_id": "309_01", "stop_name": "長徳寺前", "zone_id": "309_01", "location_type": "0"}, "geometry": {"type": "Point", "coordinates": [136.386293186508, 34.8534054021321]}}, {"type": "Feature", "properties": {"stop_id": "309_02", "stop_name": "長徳寺前", "zone_id": "309_02", "location_type": "0"}, "geometry": {"type": "Point", "coordinates": [136.386126889549, 34.8534274127894]}}, {"type": "Feature", "properties": {"stop_id": "310_01", "stop_name": "国道地蔵前", "zone_id": "310_01", "location_type": "0"}, "geometry": {"type": "Point", "coordinates": [136.388747504299, 34.8503867212254]}}, {"type": "Feature", "properties": {"stop_id": "310_02", "stop_name": "国道地蔵前", "zone_id": "310_02", "location_type": "0"}, "geometry": {"type": "Point", "coordinates": [136.388675419931, 34.8503168347856]}}, {"type": "Feature", "properties": {"stop_id": "311_01", "stop_name": "地蔵院前", "zone_id": "311_01", "location_type": "0"}, "geometry": {"type": "Point", "coordinates": [136.389652177909, 34.851966597791]}}, {"type": "Feature", "properties": {"stop_id": "312_01", "stop_name": "関支所前", "zone_id": "312_01", "location_type": "0"}, "geometry": {"type": "Point", "coordinates": [136.391388, 34.854679]}}, {"type": "Feature", "properties": {"stop_id": "313_01", "stop_name": "関文化交流センター前", "zone_id": "313_01", "location_type": "0"}, "geometry": {"type": "Point", "coordinates": [136.391471262565, 34.8567690097632]}}, {"type": "Feature", "properties": {"stop_id": "314_01", "stop_name": "泉ヶ丘", "zone_id": "314_01", "location_type": "0"}, "geometry": {"type": "Point", "coordinates": [136.391554906745, 34.8584581962771]}}, {"type": "Feature", "properties": {"stop_id": "315_01", "stop_name": "鷲山", "zone_id": "315_01", "location_type": "0"}, "geometry": {"type": "Point", "coordinates": [136.39357, 34.862625]}}, {"type": "Feature", "properties": {"stop_id": "316_01", "stop_name": "会下", "zone_id": "316_01", "location_type": "0"}, "geometry": {"type": "Point", "coordinates": [136.397375880373, 34.8583331746496]}}, {"type": "Feature", "properties": {"stop_id": "317_01", "stop_name": "関宿中町", "zone_id": "317_01", "location_type": "0"}, "geometry": {"type": "Point", "coordinates": [136.39444210491, 34.8525407989108]}}, {"type": "Feature", "properties": {"stop_id": "318_01", "stop_name": "関駅前", "zone_id": "318_01", "location_type": "0"}, "geometry": {"type": "Point", "coordinates": [136.394261023313, 34.8495063842572]}}, {"type": "Feature", "properties": {"stop_id": "319_01", "stop_name": "関東口", "zone_id": "319_01", "location_type": "0"}, "geometry": {"type": "Point", "coordinates": [136.398932229499, 34.8497892186117]}}, {"type": "Feature", "properties": {"stop_id": "319_02", "stop_name": "関東口", "zone_id": "319_02", "location_type": "0"}, "geometry": {"type": "Point", "coordinates": [136.398422609786, 34.8496923673932]}}, {"type": "Feature", "properties": {"stop_id": "320_01", "stop_name": "小野橋", "zone_id": "320_01", "location_type": "0"}, "geometry": {"type": "Point", "coordinates": [136.407266542327, 34.85264663044]}}, {"type": "Feature", "properties": {"stop_id": "320_02", "stop_name": "小野橋", "zone_id": "320_02", "location_type": "0"}, "geometry": {"type": "Point", "coordinates": [136.407228991401, 34.8523692930962]}}, {"type": "Feature", "properties": {"stop_id": "321_01", "stop_name": "朝明山", "zone_id": "321_01", "location_type": "0"}, "geometry": {"type": "Point", "coordinates": [136.4128, 34.85806]}}, {"type": "Feature", "properties": {"stop_id": "321_02", "stop_name": "朝明山", "zone_id": "321_02", "location_type": "0"}, "geometry": {"type": "Point", "coordinates": [136.41279, 34.857885]}}, {"type": "Feature", "properties": {"stop_id": "322_01", "stop_name": "太岡寺", "zone_id": "322_01", "location_type": "0"}, "geometry": {"type": "Point", "coordinates": [136.417864, 34.859154]}}, {"type": "Feature", "properties": {"stop_id": "322_02", "stop_name": "太岡寺", "zone_id": "322_02", "location_type": "0"}, "geometry": {"type": "Point", "coordinates": [136.417828, 34.859057]}}, {"type": "Feature", "properties": {"stop_id": "323_01", "stop_name": "布気", "zone_id": "323_01", "location_type": "0"}, "geometry": {"type": "Point", "coordinates": [136.423854, 34.857434]}}, {"type": "Feature", "properties": {"stop_id": "323_02", "stop_name": "布気", "zone_id": "323_02", "location_type": "0"}, "geometry": {"type": "Point", "coordinates": [136.421603728836, 34.8579949717296]}}, {"type": "Feature", "properties": {"stop_id": "324_01", "stop_name": "古厩北", "zone_id": "324_01", "location_type": "0"}, "geometry": {"type": "Point", "coordinates": [136.40531, 34.84551]}}, {"type": "Feature", "properties": {"stop_id": "325_01", "stop_name": "木下", "zone_id": "325_01", "location_type": "0"}, "geometry": {"type": "Point", "coordinates": [136.414156, 34.852071]}}, {"type": "Feature", "properties": {"stop_id": "326_01", "stop_name": "山下", "zone_id": "326_01", "location_type": "0"}, "geometry": {"type": "Point", "coordinates": [136.425347, 34.853668]}}, {"type": "Feature", "properties": {"stop_id": "326_02", "stop_name": "山下", "zone_id": "326_02", "location_type": "0"}, "geometry": {"type": "Point", "coordinates": [136.425538, 34.853579]}}, {"type": "Feature", "properties": {"stop_id": "327_01", "stop_name": "野尻", "zone_id": "327_01", "location_type": "0"}, "geometry": {"type": "Point", "coordinates": [136.431217, 34.858342]}}, {"type": "Feature", "properties": {"stop_id": "327_02", "stop_name": "野尻", "zone_id": "327_02", "location_type": "0"}, "geometry": {"type": "Point", "coordinates": [136.4313, 34.858301]}}, {"type": "Feature", "properties": {"stop_id": "328_01", "stop_name": "野村", "zone_id": "328_01", "location_type": "0"}, "geometry": {"type": "Point", "coordinates": [136.436397, 34.857223]}}, {"type": "Feature", "properties": {"stop_id": "328_02", "stop_name": "野村", "zone_id": "328_02", "location_type": "0"}, "geometry": {"type": "Point", "coordinates": [136.436134, 34.857148]}}, {"type": "Feature", "properties": {"stop_id": "401_01", "stop_name": "中在家車庫", "zone_id": "401_01", "location_type": "0"}, "geometry": {"type": "Point", "coordinates": [136.311108224536, 34.8373704571015]}}, {"type": "Feature", "properties": {"stop_id": "402_01", "stop_name": "中在家", "zone_id": "402_01", "location_type": "0"}, "geometry": {"type": "Point", "coordinates": [136.312494387731, 34.8390403883998]}}, {"type": "Feature", "properties": {"stop_id": "403_01", "stop_name": "北在家", "zone_id": "403_01", "location_type": "0"}, "geometry": {"type": "Point", "coordinates": [136.313760387731, 34.8429900134492]}}, {"type": "Feature", "properties": {"stop_id": "404_01", "stop_name": "東北在家", "zone_id": "404_01", "location_type": "0"}, "geometry": {"type": "Point", "coordinates": [136.31575, 34.84251]}}, {"type": "Feature", "properties": {"stop_id": "405_01", "stop_name": "板屋", "zone_id": "405_01", "location_type": "0"}, "geometry": {"type": "Point", "coordinates": [136.319253294477, 34.8408326838771]}}, {"type": "Feature", "properties": {"stop_id": "406_01", "stop_name": "加太保育園", "zone_id": "406_01", "location_type": "0"}, "geometry": {"type": "Point", "coordinates": [136.32160631779, 34.8406631873406]}}, {"type": "Feature", "properties": {"stop_id": "407_01", "stop_name": "加太小学校", "zone_id": "407_01", "location_type": "0"}, "geometry": {"type": "Point", "coordinates": [136.323321775463, 34.8411737777163]}}, {"type": "Feature", "properties": {"stop_id": "408_01", "stop_name": "神武口", "zone_id": "408_01", "location_type": "0"}, "geometry": {"type": "Point", "coordinates": [136.32679382209, 34.8420280205619]}}, {"type": "Feature", "properties": {"stop_id": "409_01", "stop_name": "神武", "zone_id": "409_01", "location_type": "0"}, "geometry": {"type": "Point", "coordinates": [136.321095, 34.836614]}}, {"type": "Feature", "properties": {"stop_id": "410_01", "stop_name": "梶ヶ坂口", "zone_id": "410_01", "location_type": "0"}, "geometry": {"type": "Point", "coordinates": [136.333327906745, 34.8414929792366]}}, {"type": "Feature", "properties": {"stop_id": "411_01", "stop_name": "梶ヶ坂中", "zone_id": "411_01", "location_type": "0"}, "geometry": {"type": "Point", "coordinates": [136.33241, 34.83852]}}, {"type": "Feature", "properties": {"stop_id": "412_01", "stop_name": "市場", "zone_id": "412_01", "location_type": "0"}, "geometry": {"type": "Point", "coordinates": [136.336524550926, 34.8398957843023]}}, {"type": "Feature", "properties": {"stop_id": "413_01", "stop_name": "加太駅前", "zone_id": "413_01", "location_type": "0"}, "geometry": {"type": "Point", "coordinates": [136.340317, 34.842445]}}, {"type": "Feature", "properties": {"stop_id": "414_01", "stop_name": "加太駅下", "zone_id": "414_01", "location_type": "0"}, "geometry": {"type": "Point", "coordinates": [136.339903, 34.8411167]}}, {"type": "Feature", "properties": {"stop_id": "415_01", "stop_name": "金場口", "zone_id": "415_01", "location_type": "0"}, "geometry": {"type": "Point", "coordinates": [136.359224682209, 34.848592219124]}}, {"type": "Feature", "properties": {"stop_id": "416_01", "stop_name": "西新田", "zone_id": "416_01", "location_type": "0"}, "geometry": {"type": "Point", "coordinates": [136.378723, 34.8534779893621]}}, {"type": "Feature", "properties": {"stop_id": "501_01", "stop_name": "松阪", "zone_id": "501_01", "location_type": "0"}, "geometry": {"type": "Point", "coordinates": [136.482111635582, 34.8205690680804]}}, {"type": "Feature", "properties": {"stop_id": "501_02", "stop_name": "松阪", "zone_id": "501_02", "location_type": "0"}, "geometry": {"type": "Point", "coordinates": [136.482157233135, 34.8204105279508]}}, {"type": "Feature", "properties": {"stop_id": "502_01", "stop_name": "出屋公民館前", "zone_id": "502_01", "location_type": "0"}, "geometry": {"type": "Point", "coordinates": [136.480264887213, 34.8085859876006]}}, {"type": "Feature", "properties": {"stop_id": "503_01", "stop_name": "出屋", "zone_id": "503_01", "location_type": "0"}, "geometry": {"type": "Point", "coordinates": [136.480509, 34.81255]}}, {"type": "Feature", "properties": {"stop_id": "504_01", "stop_name": "下庄駅口", "zone_id": "504_01", "location_type": "0"}, "geometry": {"type": "Point", "coordinates": [136.479837347221, 34.8150455717223]}}, {"type": "Feature", "properties": {"stop_id": "505_01", "stop_name": "昼生地区コミュニティセンター", "zone_id": "505_01", "location_type": "0"}, "geometry": {"type": "Point", "coordinates": [136.470745667493, 34.8271682673074]}}, {"type": "Feature", "properties": {"stop_id": "506_01", "stop_name": "三寺東", "zone_id": "506_01", "location_type": "0"}, "geometry": {"type": "Point", "coordinates": [136.465147658895, 34.8233770467449]}}, {"type": "Feature", "properties": {"stop_id": "507_01", "stop_name": "神向谷南", "zone_id": "507_01", "location_type": "0"}, "geometry": {"type": "Point", "coordinates": [136.472695782733, 34.8271263080081]}}, {"type": "Feature", "properties": {"stop_id": "507_02", "stop_name": "神向谷南", "zone_id": "507_02", "location_type": "0"}, "geometry": {"type": "Point", "coordinates": [136.47289694841, 34.8271285097769]}}, {"type": "Feature", "properties": {"stop_id": "508_01", "stop_name": "二本松団地", "zone_id": "508_01", "location_type": "0"}, "geometry": {"type": "Point", "coordinates": [136.46659, 34.8389]}}, {"type": "Feature", "properties": {"stop_id": "509_01", "stop_name": "二本松", "zone_id": "509_01", "location_type": "0"}, "geometry": {"type": "Point", "coordinates": [136.466536, 34.83757]}}, {"type": "Feature", "properties": {"stop_id": "509_02", "stop_name": "二本松", "zone_id": "509_02", "location_type": "0"}, "geometry": {"type": "Point", "coordinates": [136.466829, 34.837588]}}]}