{"type": "FeatureCollection", "name": "stops", "crs": {"type": "name", "properties": {"name": "urn:ogc:def:crs:OGC:1.3:CRS84"}}, "features": [{"type": "Feature", "properties": {"stop_id": "1_1", "stop_name": "入善駅前", "zone_id": null, "location_type": "0"}, "geometry": {"type": "Point", "coordinates": [137.499997, 36.941264]}}, {"type": "Feature", "properties": {"stop_id": "2_1", "stop_name": "うるおい館", "zone_id": null, "location_type": "0"}, "geometry": {"type": "Point", "coordinates": [137.501707, 36.93847]}}, {"type": "Feature", "properties": {"stop_id": "3_1", "stop_name": "町民会館", "zone_id": null, "location_type": "0"}, "geometry": {"type": "Point", "coordinates": [137.502277, 36.934594]}}, {"type": "Feature", "properties": {"stop_id": "4_1", "stop_name": "入善郵便局", "zone_id": null, "location_type": "0"}, "geometry": {"type": "Point", "coordinates": [137.503874, 36.938076]}}, {"type": "Feature", "properties": {"stop_id": "5_1", "stop_name": "入善南公園", "zone_id": null, "location_type": "0"}, "geometry": {"type": "Point", "coordinates": [137.499538, 36.932528]}}, {"type": "Feature", "properties": {"stop_id": "6_1", "stop_name": "きららの里", "zone_id": null, "location_type": "0"}, "geometry": {"type": "Point", "coordinates": [137.49763, 36.930804]}}, {"type": "Feature", "properties": {"stop_id": "7_1", "stop_name": "コスモ21", "zone_id": null, "location_type": "0"}, "geometry": {"type": "Point", "coordinates": [137.514131, 36.9419]}}, {"type": "Feature", "properties": {"stop_id": "8_1", "stop_name": "サンウェル", "zone_id": null, "location_type": "0"}, "geometry": {"type": "Point", "coordinates": [137.502195, 36.923638]}}, {"type": "Feature", "properties": {"stop_id": "9_1", "stop_name": "ふれあい温泉", "zone_id": null, "location_type": "0"}, "geometry": {"type": "Point", "coordinates": [137.559123, 36.877888]}}, {"type": "Feature", "properties": {"stop_id": "10_1", "stop_name": "バーデン明日", "zone_id": null, "location_type": "0"}, "geometry": {"type": "Point", "coordinates": [137.560222, 36.87744]}}, {"type": "Feature", "properties": {"stop_id": "11_1", "stop_name": "入善高校西", "zone_id": null, "location_type": "0"}, "geometry": {"type": "Point", "coordinates": [137.504454, 36.933634]}}, {"type": "Feature", "properties": {"stop_id": "12_1", "stop_name": "寺田町", "zone_id": null, "location_type": "0"}, "geometry": {"type": "Point", "coordinates": [137.503338, 36.935537]}}, {"type": "Feature", "properties": {"stop_id": "13_1", "stop_name": "神林", "zone_id": null, "location_type": "0"}, "geometry": {"type": "Point", "coordinates": [137.510419, 36.918847]}}, {"type": "Feature", "properties": {"stop_id": "14_1", "stop_name": "上田", "zone_id": null, "location_type": "0"}, "geometry": {"type": "Point", "coordinates": [137.507887, 36.927047]}}, {"type": "Feature", "properties": {"stop_id": "15_1", "stop_name": "町新屋", "zone_id": null, "location_type": "0"}, "geometry": {"type": "Point", "coordinates": [137.512951, 36.911813]}}, {"type": "Feature", "properties": {"stop_id": "16_1", "stop_name": "中坪", "zone_id": null, "location_type": "0"}, "geometry": {"type": "Point", "coordinates": [137.5175, 36.906872]}}, {"type": "Feature", "properties": {"stop_id": "17_1", "stop_name": "黒東小学校前", "zone_id": null, "location_type": "0"}, "geometry": {"type": "Point", "coordinates": [137.520568, 36.89982]}}, {"type": "Feature", "properties": {"stop_id": "18_1", "stop_name": "新屋", "zone_id": null, "location_type": "0"}, "geometry": {"type": "Point", "coordinates": [137.52162, 36.897555]}}, {"type": "Feature", "properties": {"stop_id": "19_1", "stop_name": "島", "zone_id": null, "location_type": "0"}, "geometry": {"type": "Point", "coordinates": [137.523422, 36.890056]}}, {"type": "Feature", "properties": {"stop_id": "20_1", "stop_name": "新田", "zone_id": null, "location_type": "0"}, "geometry": {"type": "Point", "coordinates": [137.529774, 36.880685]}}, {"type": "Feature", "properties": {"stop_id": "21_1", "stop_name": "浦山新", "zone_id": null, "location_type": "0"}, "geometry": {"type": "Point", "coordinates": [137.525568, 36.883603]}}, {"type": "Feature", "properties": {"stop_id": "22_1", "stop_name": "墓ノ木", "zone_id": null, "location_type": "0"}, "geometry": {"type": "Point", "coordinates": [137.54252, 36.881474]}}, {"type": "Feature", "properties": {"stop_id": "23_1", "stop_name": "墓ノ木公民館前", "zone_id": null, "location_type": "0"}, "geometry": {"type": "Point", "coordinates": [137.539243, 36.881266]}}, {"type": "Feature", "properties": {"stop_id": "24_1", "stop_name": "浦野", "zone_id": null, "location_type": "0"}, "geometry": {"type": "Point", "coordinates": [137.545953, 36.880942]}}, {"type": "Feature", "properties": {"stop_id": "25_1", "stop_name": "舟見中町", "zone_id": null, "location_type": "0"}, "geometry": {"type": "Point", "coordinates": [137.552948, 36.881491]}}, {"type": "Feature", "properties": {"stop_id": "26_1", "stop_name": "舟見", "zone_id": null, "location_type": "0"}, "geometry": {"type": "Point", "coordinates": [137.551789, 36.881354]}}, {"type": "Feature", "properties": {"stop_id": "27_1", "stop_name": "舟見上町", "zone_id": null, "location_type": "0"}, "geometry": {"type": "Point", "coordinates": [137.552691, 36.878917]}}, {"type": "Feature", "properties": {"stop_id": "28_1", "stop_name": "舟見5区", "zone_id": null, "location_type": "0"}, "geometry": {"type": "Point", "coordinates": [137.552804, 36.883853]}}, {"type": "Feature", "properties": {"stop_id": "29_1", "stop_name": "舟見下町", "zone_id": null, "location_type": "0"}, "geometry": {"type": "Point", "coordinates": [137.552433, 36.887722]}}, {"type": "Feature", "properties": {"stop_id": "30_1", "stop_name": "舟見7区公民館", "zone_id": null, "location_type": "0"}, "geometry": {"type": "Point", "coordinates": [137.550716, 36.89287]}}, {"type": "Feature", "properties": {"stop_id": "31_1", "stop_name": "野中", "zone_id": null, "location_type": "0"}, "geometry": {"type": "Point", "coordinates": [137.545824, 36.903097]}}, {"type": "Feature", "properties": {"stop_id": "32_1", "stop_name": "愛場公民館", "zone_id": null, "location_type": "0"}, "geometry": {"type": "Point", "coordinates": [137.549, 36.898361]}}, {"type": "Feature", "properties": {"stop_id": "33_1", "stop_name": "中沢公民館", "zone_id": null, "location_type": "0"}, "geometry": {"type": "Point", "coordinates": [137.540043, 36.904293]}}, {"type": "Feature", "properties": {"stop_id": "34_1", "stop_name": "旧愛本支所前", "zone_id": null, "location_type": "0"}, "geometry": {"type": "Point", "coordinates": [137.554321, 36.870008]}}, {"type": "Feature", "properties": {"stop_id": "35_1", "stop_name": "中ノ口", "zone_id": null, "location_type": "0"}, "geometry": {"type": "Point", "coordinates": [137.554579, 36.864446]}}, {"type": "Feature", "properties": {"stop_id": "36_1", "stop_name": "愛本橋詰", "zone_id": null, "location_type": "0"}, "geometry": {"type": "Point", "coordinates": [137.553136, 36.859908]}}, {"type": "Feature", "properties": {"stop_id": "37_1", "stop_name": "宇奈月市民サービスセンター前", "zone_id": null, "location_type": "0"}, "geometry": {"type": "Point", "coordinates": [137.554707, 36.85693]}}, {"type": "Feature", "properties": {"stop_id": "38_1", "stop_name": "新屋公民館", "zone_id": null, "location_type": "0"}, "geometry": {"type": "Point", "coordinates": [137.523422, 36.897915]}}, {"type": "Feature", "properties": {"stop_id": "39_1", "stop_name": "下山", "zone_id": null, "location_type": "0"}, "geometry": {"type": "Point", "coordinates": [137.531559, 36.899809]}}, {"type": "Feature", "properties": {"stop_id": "40_1", "stop_name": "入善西口", "zone_id": null, "location_type": "0"}, "geometry": {"type": "Point", "coordinates": [137.496238, 36.936858]}}, {"type": "Feature", "properties": {"stop_id": "1", "stop_name": "入善駅前", "zone_id": null, "location_type": "1"}, "geometry": {"type": "Point", "coordinates": [137.499997, 36.941264]}}, {"type": "Feature", "properties": {"stop_id": "2", "stop_name": "うるおい館", "zone_id": null, "location_type": "1"}, "geometry": {"type": "Point", "coordinates": [137.501707, 36.93847]}}, {"type": "Feature", "properties": {"stop_id": "3", "stop_name": "町民会館", "zone_id": null, "location_type": "1"}, "geometry": {"type": "Point", "coordinates": [137.502277, 36.934594]}}, {"type": "Feature", "properties": {"stop_id": "4", "stop_name": "入善郵便局", "zone_id": null, "location_type": "1"}, "geometry": {"type": "Point", "coordinates": [137.503874, 36.938076]}}, {"type": "Feature", "properties": {"stop_id": "5", "stop_name": "入善南公園", "zone_id": null, "location_type": "1"}, "geometry": {"type": "Point", "coordinates": [137.499538, 36.932528]}}, {"type": "Feature", "properties": {"stop_id": "6", "stop_name": "きららの里", "zone_id": null, "location_type": "1"}, "geometry": {"type": "Point", "coordinates": [137.49763, 36.930804]}}, {"type": "Feature", "properties": {"stop_id": "7", "stop_name": "コスモ21", "zone_id": null, "location_type": "1"}, "geometry": {"type": "Point", "coordinates": [137.514131, 36.9419]}}, {"type": "Feature", "properties": {"stop_id": "8", "stop_name": "サンウェル", "zone_id": null, "location_type": "1"}, "geometry": {"type": "Point", "coordinates": [137.502195, 36.923638]}}, {"type": "Feature", "properties": {"stop_id": "9", "stop_name": "ふれあい温泉", "zone_id": null, "location_type": "1"}, "geometry": {"type": "Point", "coordinates": [137.559123, 36.877888]}}, {"type": "Feature", "properties": {"stop_id": "10", "stop_name": "バーデン明日", "zone_id": null, "location_type": "1"}, "geometry": {"type": "Point", "coordinates": [137.560222, 36.87744]}}, {"type": "Feature", "properties": {"stop_id": "11", "stop_name": "入善高校西", "zone_id": null, "location_type": "1"}, "geometry": {"type": "Point", "coordinates": [137.504454, 36.933634]}}, {"type": "Feature", "properties": {"stop_id": "12", "stop_name": "寺田町", "zone_id": null, "location_type": "1"}, "geometry": {"type": "Point", "coordinates": [137.503338, 36.935537]}}, {"type": "Feature", "properties": {"stop_id": "13", "stop_name": "神林", "zone_id": null, "location_type": "1"}, "geometry": {"type": "Point", "coordinates": [137.510419, 36.918847]}}, {"type": "Feature", "properties": {"stop_id": "14", "stop_name": "上田", "zone_id": null, "location_type": "1"}, "geometry": {"type": "Point", "coordinates": [137.507887, 36.927047]}}, {"type": "Feature", "properties": {"stop_id": "15", "stop_name": "町新屋", "zone_id": null, "location_type": "1"}, "geometry": {"type": "Point", "coordinates": [137.512951, 36.911813]}}, {"type": "Feature", "properties": {"stop_id": "16", "stop_name": "中坪", "zone_id": null, "location_type": "1"}, "geometry": {"type": "Point", "coordinates": [137.5175, 36.906872]}}, {"type": "Feature", "properties": {"stop_id": "17", "stop_name": "黒東小学校前", "zone_id": null, "location_type": "1"}, "geometry": {"type": "Point", "coordinates": [137.520568, 36.89982]}}, {"type": "Feature", "properties": {"stop_id": "18", "stop_name": "新屋", "zone_id": null, "location_type": "1"}, "geometry": {"type": "Point", "coordinates": [137.52162, 36.897555]}}, {"type": "Feature", "properties": {"stop_id": "19", "stop_name": "島", "zone_id": null, "location_type": "1"}, "geometry": {"type": "Point", "coordinates": [137.523422, 36.890056]}}, {"type": "Feature", "properties": {"stop_id": "20", "stop_name": "新田", "zone_id": null, "location_type": "1"}, "geometry": {"type": "Point", "coordinates": [137.529774, 36.880685]}}, {"type": "Feature", "properties": {"stop_id": "21", "stop_name": "浦山新", "zone_id": null, "location_type": "1"}, "geometry": {"type": "Point", "coordinates": [137.525568, 36.883603]}}, {"type": "Feature", "properties": {"stop_id": "22", "stop_name": "墓ノ木", "zone_id": null, "location_type": "1"}, "geometry": {"type": "Point", "coordinates": [137.54252, 36.881474]}}, {"type": "Feature", "properties": {"stop_id": "23", "stop_name": "墓ノ木公民館前", "zone_id": null, "location_type": "1"}, "geometry": {"type": "Point", "coordinates": [137.539243, 36.881266]}}, {"type": "Feature", "properties": {"stop_id": "24", "stop_name": "浦野", "zone_id": null, "location_type": "1"}, "geometry": {"type": "Point", "coordinates": [137.545953, 36.880942]}}, {"type": "Feature", "properties": {"stop_id": "25", "stop_name": "舟見中町", "zone_id": null, "location_type": "1"}, "geometry": {"type": "Point", "coordinates": [137.552948, 36.881491]}}, {"type": "Feature", "properties": {"stop_id": "26", "stop_name": "舟見", "zone_id": null, "location_type": "1"}, "geometry": {"type": "Point", "coordinates": [137.551789, 36.881354]}}, {"type": "Feature", "properties": {"stop_id": "27", "stop_name": "舟見上町", "zone_id": null, "location_type": "1"}, "geometry": {"type": "Point", "coordinates": [137.552691, 36.878917]}}, {"type": "Feature", "properties": {"stop_id": "28", "stop_name": "舟見5区", "zone_id": null, "location_type": "1"}, "geometry": {"type": "Point", "coordinates": [137.552804, 36.883853]}}, {"type": "Feature", "properties": {"stop_id": "29", "stop_name": "舟見下町", "zone_id": null, "location_type": "1"}, "geometry": {"type": "Point", "coordinates": [137.552433, 36.887722]}}, {"type": "Feature", "properties": {"stop_id": "30", "stop_name": "舟見7区公民館", "zone_id": null, "location_type": "1"}, "geometry": {"type": "Point", "coordinates": [137.550716, 36.89287]}}, {"type": "Feature", "properties": {"stop_id": "31", "stop_name": "野中", "zone_id": null, "location_type": "1"}, "geometry": {"type": "Point", "coordinates": [137.545824, 36.903097]}}, {"type": "Feature", "properties": {"stop_id": "32", "stop_name": "愛場公民館", "zone_id": null, "location_type": "1"}, "geometry": {"type": "Point", "coordinates": [137.549, 36.898361]}}, {"type": "Feature", "properties": {"stop_id": "33", "stop_name": "中沢公民館", "zone_id": null, "location_type": "1"}, "geometry": {"type": "Point", "coordinates": [137.540043, 36.904293]}}, {"type": "Feature", "properties": {"stop_id": "34", "stop_name": "旧愛本支所前", "zone_id": null, "location_type": "1"}, "geometry": {"type": "Point", "coordinates": [137.554321, 36.870008]}}, {"type": "Feature", "properties": {"stop_id": "35", "stop_name": "中ノ口", "zone_id": null, "location_type": "1"}, "geometry": {"type": "Point", "coordinates": [137.554579, 36.864446]}}, {"type": "Feature", "properties": {"stop_id": "36", "stop_name": "愛本橋詰", "zone_id": null, "location_type": "1"}, "geometry": {"type": "Point", "coordinates": [137.553136, 36.859908]}}, {"type": "Feature", "properties": {"stop_id": "37", "stop_name": "宇奈月市民サービスセンター前", "zone_id": null, "location_type": "1"}, "geometry": {"type": "Point", "coordinates": [137.554707, 36.85693]}}, {"type": "Feature", "properties": {"stop_id": "38", "stop_name": "新屋公民館", "zone_id": null, "location_type": "1"}, "geometry": {"type": "Point", "coordinates": [137.523422, 36.897915]}}, {"type": "Feature", "properties": {"stop_id": "39", "stop_name": "下山", "zone_id": null, "location_type": "1"}, "geometry": {"type": "Point", "coordinates": [137.531559, 36.899809]}}, {"type": "Feature", "properties": {"stop_id": "40", "stop_name": "入善西口", "zone_id": null, "location_type": "1"}, "geometry": {"type": "Point", "coordinates": [137.496238, 36.936858]}}]}