{"type": "FeatureCollection", "name": "stops", "crs": {"type": "name", "properties": {"name": "urn:ogc:def:crs:OGC:1.3:CRS84"}}, "features": [{"type": "Feature", "properties": {"stop_id": "1_01", "stop_name": "西尾駅", "zone_id": "1_01", "location_type": "0"}, "geometry": {"type": "Point", "coordinates": [137.057361714287, 34.864117]}}, {"type": "Feature", "properties": {"stop_id": "10_01", "stop_name": "文化会館", "zone_id": "10_01", "location_type": "0"}, "geometry": {"type": "Point", "coordinates": [137.044290428571, 34.8637269999999]}}, {"type": "Feature", "properties": {"stop_id": "10_02", "stop_name": "文化会館", "zone_id": "10_02", "location_type": "0"}, "geometry": {"type": "Point", "coordinates": [137.044451197264, 34.8637389914647]}}, {"type": "Feature", "properties": {"stop_id": "100_01", "stop_name": "中畑東", "zone_id": "100_01", "location_type": "0"}, "geometry": {"type": "Point", "coordinates": [137.017350972857, 34.8707265405141]}}, {"type": "Feature", "properties": {"stop_id": "101_01", "stop_name": "中畑", "zone_id": "101_01", "location_type": "0"}, "geometry": {"type": "Point", "coordinates": [137.014482062111, 34.8708004031905]}}, {"type": "Feature", "properties": {"stop_id": "102_01", "stop_name": "中畑橋", "zone_id": "102_01", "location_type": "0"}, "geometry": {"type": "Point", "coordinates": [137.011702942385, 34.8707178285021]}}, {"type": "Feature", "properties": {"stop_id": "103_01", "stop_name": "中畑西", "zone_id": "103_01", "location_type": "0"}, "geometry": {"type": "Point", "coordinates": [137.01105466592, 34.868838981743]}}, {"type": "Feature", "properties": {"stop_id": "104_01", "stop_name": "中畑鵜ノ首", "zone_id": "104_01", "location_type": "0"}, "geometry": {"type": "Point", "coordinates": [137.014049411311, 34.8663965874377]}}, {"type": "Feature", "properties": {"stop_id": "105_01", "stop_name": "奥背戸", "zone_id": "105_01", "location_type": "0"}, "geometry": {"type": "Point", "coordinates": [137.014879, 34.864257]}}, {"type": "Feature", "properties": {"stop_id": "106_01", "stop_name": "平坂北町", "zone_id": "106_01", "location_type": "0"}, "geometry": {"type": "Point", "coordinates": [137.015113, 34.863019]}}, {"type": "Feature", "properties": {"stop_id": "107_01", "stop_name": "平坂小西", "zone_id": "107_01", "location_type": "0"}, "geometry": {"type": "Point", "coordinates": [137.017593191104, 34.8621488118447]}}, {"type": "Feature", "properties": {"stop_id": "108_01", "stop_name": "平坂西口", "zone_id": "108_01", "location_type": "0"}, "geometry": {"type": "Point", "coordinates": [137.014617, 34.86198]}}, {"type": "Feature", "properties": {"stop_id": "109_01", "stop_name": "平坂午築地", "zone_id": "109_01", "location_type": "0"}, "geometry": {"type": "Point", "coordinates": [137.013776, 34.859785]}}, {"type": "Feature", "properties": {"stop_id": "11_01", "stop_name": "歴史公園西", "zone_id": "11_01", "location_type": "0"}, "geometry": {"type": "Point", "coordinates": [137.046059, 34.866818]}}, {"type": "Feature", "properties": {"stop_id": "11_02", "stop_name": "歴史公園西", "zone_id": "11_02", "location_type": "0"}, "geometry": {"type": "Point", "coordinates": [137.046477, 34.867218]}}, {"type": "Feature", "properties": {"stop_id": "110_01", "stop_name": "平坂港前", "zone_id": "110_01", "location_type": "0"}, "geometry": {"type": "Point", "coordinates": [137.015080077329, 34.8570991852524]}}, {"type": "Feature", "properties": {"stop_id": "111_01", "stop_name": "平坂熊野後", "zone_id": "111_01", "location_type": "0"}, "geometry": {"type": "Point", "coordinates": [137.017907942429, 34.8598696113423]}}, {"type": "Feature", "properties": {"stop_id": "112_01", "stop_name": "羽塚西", "zone_id": "112_01", "location_type": "0"}, "geometry": {"type": "Point", "coordinates": [137.025485066823, 34.8610009090659]}}, {"type": "Feature", "properties": {"stop_id": "113_01", "stop_name": "羽塚口", "zone_id": "113_01", "location_type": "0"}, "geometry": {"type": "Point", "coordinates": [137.027095092626, 34.8618949688045]}}, {"type": "Feature", "properties": {"stop_id": "114_01", "stop_name": "羽塚", "zone_id": "114_01", "location_type": "0"}, "geometry": {"type": "Point", "coordinates": [137.031030360511, 34.8622971882159]}}, {"type": "Feature", "properties": {"stop_id": "115_01", "stop_name": "経塚", "zone_id": "115_01", "location_type": "0"}, "geometry": {"type": "Point", "coordinates": [137.034667434617, 34.8622353932792]}}, {"type": "Feature", "properties": {"stop_id": "116_01", "stop_name": "山下", "zone_id": "116_01", "location_type": "0"}, "geometry": {"type": "Point", "coordinates": [137.03843547366, 34.8622808202837]}}, {"type": "Feature", "properties": {"stop_id": "117_01", "stop_name": "住崎北", "zone_id": "117_01", "location_type": "0"}, "geometry": {"type": "Point", "coordinates": [137.041231267335, 34.8631269169666]}}, {"type": "Feature", "properties": {"stop_id": "117_02", "stop_name": "住崎北", "zone_id": "117_02", "location_type": "0"}, "geometry": {"type": "Point", "coordinates": [137.041048410193, 34.8631569169666]}}, {"type": "Feature", "properties": {"stop_id": "118_01", "stop_name": "下町住宅東", "zone_id": "118_01", "location_type": "0"}, "geometry": {"type": "Point", "coordinates": [137.043167704522, 34.8668728170127]}}, {"type": "Feature", "properties": {"stop_id": "118_02", "stop_name": "下町住宅東", "zone_id": "118_02", "location_type": "0"}, "geometry": {"type": "Point", "coordinates": [137.043293418808, 34.8674778170128]}}, {"type": "Feature", "properties": {"stop_id": "119_01", "stop_name": "住崎南", "zone_id": "119_01", "location_type": "0"}, "geometry": {"type": "Point", "coordinates": [137.039160599998, 34.8609899702489]}}, {"type": "Feature", "properties": {"stop_id": "119_02", "stop_name": "住崎南", "zone_id": "119_02", "location_type": "0"}, "geometry": {"type": "Point", "coordinates": [137.038874885711, 34.8609399702488]}}, {"type": "Feature", "properties": {"stop_id": "12_01", "stop_name": "上町東", "zone_id": "12_01", "location_type": "0"}, "geometry": {"type": "Point", "coordinates": [137.047314, 34.868873]}}, {"type": "Feature", "properties": {"stop_id": "12_02", "stop_name": "上町東", "zone_id": "12_02", "location_type": "0"}, "geometry": {"type": "Point", "coordinates": [137.047518, 34.868935]}}, {"type": "Feature", "properties": {"stop_id": "120_01", "stop_name": "新在家", "zone_id": "120_01", "location_type": "0"}, "geometry": {"type": "Point", "coordinates": [137.036529471005, 34.8588433245396]}}, {"type": "Feature", "properties": {"stop_id": "120_02", "stop_name": "新在家", "zone_id": "120_02", "location_type": "0"}, "geometry": {"type": "Point", "coordinates": [137.036420899577, 34.8588983245396]}}, {"type": "Feature", "properties": {"stop_id": "121_01", "stop_name": "矢田小南", "zone_id": "121_01", "location_type": "0"}, "geometry": {"type": "Point", "coordinates": [137.030045638286, 34.8523080107571]}}, {"type": "Feature", "properties": {"stop_id": "121_02", "stop_name": "矢田小南", "zone_id": "121_02", "location_type": "0"}, "geometry": {"type": "Point", "coordinates": [137.029908495429, 34.8523230107571]}}, {"type": "Feature", "properties": {"stop_id": "122_01", "stop_name": "上矢田北", "zone_id": "122_01", "location_type": "0"}, "geometry": {"type": "Point", "coordinates": [137.028548382323, 34.8499646060534]}}, {"type": "Feature", "properties": {"stop_id": "123_01", "stop_name": "富山北", "zone_id": "123_01", "location_type": "0"}, "geometry": {"type": "Point", "coordinates": [137.023824078718, 34.8532376299462]}}, {"type": "Feature", "properties": {"stop_id": "124_01", "stop_name": "上矢田南", "zone_id": "124_01", "location_type": "0"}, "geometry": {"type": "Point", "coordinates": [137.025913403467, 34.8477817912092]}}, {"type": "Feature", "properties": {"stop_id": "125_01", "stop_name": "下矢田", "zone_id": "125_01", "location_type": "0"}, "geometry": {"type": "Point", "coordinates": [137.024197605177, 34.845786934422]}}, {"type": "Feature", "properties": {"stop_id": "126_01", "stop_name": "徳永東", "zone_id": "126_01", "location_type": "0"}, "geometry": {"type": "Point", "coordinates": [137.022712362437, 34.8428961876767]}}, {"type": "Feature", "properties": {"stop_id": "127_01", "stop_name": "田地山住宅", "zone_id": "127_01", "location_type": "0"}, "geometry": {"type": "Point", "coordinates": [137.020766010574, 34.838696248516]}}, {"type": "Feature", "properties": {"stop_id": "128_01", "stop_name": "東脇", "zone_id": "128_01", "location_type": "0"}, "geometry": {"type": "Point", "coordinates": [137.019183741379, 34.8352704279667]}}, {"type": "Feature", "properties": {"stop_id": "129_01", "stop_name": "巨海住宅", "zone_id": "129_01", "location_type": "0"}, "geometry": {"type": "Point", "coordinates": [137.01702491266, 34.8326092854546]}}, {"type": "Feature", "properties": {"stop_id": "13_01", "stop_name": "鶴城会館", "zone_id": "13_01", "location_type": "0"}, "geometry": {"type": "Point", "coordinates": [137.048618, 34.870748]}}, {"type": "Feature", "properties": {"stop_id": "13_02", "stop_name": "鶴城会館", "zone_id": "13_02", "location_type": "0"}, "geometry": {"type": "Point", "coordinates": [137.049245, 34.871237]}}, {"type": "Feature", "properties": {"stop_id": "130_01", "stop_name": "刈宿", "zone_id": "130_01", "location_type": "0"}, "geometry": {"type": "Point", "coordinates": [137.015069466215, 34.83176621057]}}, {"type": "Feature", "properties": {"stop_id": "131_01", "stop_name": "巨海", "zone_id": "131_01", "location_type": "0"}, "geometry": {"type": "Point", "coordinates": [137.014251158011, 34.8352933221731]}}, {"type": "Feature", "properties": {"stop_id": "132_01", "stop_name": "寺津本町", "zone_id": "132_01", "location_type": "0"}, "geometry": {"type": "Point", "coordinates": [137.013648360389, 34.8382701455628]}}, {"type": "Feature", "properties": {"stop_id": "133_01", "stop_name": "寺津神社前", "zone_id": "133_01", "location_type": "0"}, "geometry": {"type": "Point", "coordinates": [137.013947019119, 34.840797916771]}}, {"type": "Feature", "properties": {"stop_id": "134_01", "stop_name": "寺津ふれあいセンター西", "zone_id": "134_01", "location_type": "0"}, "geometry": {"type": "Point", "coordinates": [137.01725628303, 34.8403401637669]}}, {"type": "Feature", "properties": {"stop_id": "135_01", "stop_name": "寺津保育園前", "zone_id": "135_01", "location_type": "0"}, "geometry": {"type": "Point", "coordinates": [137.01841523013, 34.8431729430573]}}, {"type": "Feature", "properties": {"stop_id": "136_01", "stop_name": "北寺津", "zone_id": "136_01", "location_type": "0"}, "geometry": {"type": "Point", "coordinates": [137.014552615024, 34.844256348585]}}, {"type": "Feature", "properties": {"stop_id": "137_01", "stop_name": "寺津二ツ家", "zone_id": "137_01", "location_type": "0"}, "geometry": {"type": "Point", "coordinates": [137.014558679177, 34.8476390004095]}}, {"type": "Feature", "properties": {"stop_id": "138_01", "stop_name": "寺津二丁目", "zone_id": "138_01", "location_type": "0"}, "geometry": {"type": "Point", "coordinates": [137.018601002617, 34.8488412371319]}}, {"type": "Feature", "properties": {"stop_id": "139_01", "stop_name": "道光寺", "zone_id": "139_01", "location_type": "0"}, "geometry": {"type": "Point", "coordinates": [137.062345150431, 34.8720136616655]}}, {"type": "Feature", "properties": {"stop_id": "139_02", "stop_name": "道光寺", "zone_id": "139_02", "location_type": "0"}, "geometry": {"type": "Point", "coordinates": [137.062442293287, 34.8720536616655]}}, {"type": "Feature", "properties": {"stop_id": "14_01", "stop_name": "図書館・岩瀬文庫西", "zone_id": "14_01", "location_type": "0"}, "geometry": {"type": "Point", "coordinates": [137.051107, 34.873789]}}, {"type": "Feature", "properties": {"stop_id": "14_02", "stop_name": "図書館・岩瀬文庫西", "zone_id": "14_02", "location_type": "0"}, "geometry": {"type": "Point", "coordinates": [137.051311, 34.873838]}}, {"type": "Feature", "properties": {"stop_id": "140_01", "stop_name": "戸ケ崎", "zone_id": "140_01", "location_type": "0"}, "geometry": {"type": "Point", "coordinates": [137.061408707968, 34.876635913825]}}, {"type": "Feature", "properties": {"stop_id": "140_02", "stop_name": "戸ケ崎", "zone_id": "140_02", "location_type": "0"}, "geometry": {"type": "Point", "coordinates": [137.06159156511, 34.8763809138249]}}, {"type": "Feature", "properties": {"stop_id": "141_01", "stop_name": "桜町前駅南", "zone_id": "141_01", "location_type": "0"}, "geometry": {"type": "Point", "coordinates": [137.061373256248, 34.879817146012]}}, {"type": "Feature", "properties": {"stop_id": "141_02", "stop_name": "桜町前駅南", "zone_id": "141_02", "location_type": "0"}, "geometry": {"type": "Point", "coordinates": [137.061550399105, 34.879807146012]}}, {"type": "Feature", "properties": {"stop_id": "142_01", "stop_name": "新渡場", "zone_id": "142_01", "location_type": "0"}, "geometry": {"type": "Point", "coordinates": [137.059395301868, 34.8864483844183]}}, {"type": "Feature", "properties": {"stop_id": "143_01", "stop_name": "五郎田", "zone_id": "143_01", "location_type": "0"}, "geometry": {"type": "Point", "coordinates": [137.059679499621, 34.8953972361964]}}, {"type": "Feature", "properties": {"stop_id": "144_01", "stop_name": "八百目", "zone_id": "144_01", "location_type": "0"}, "geometry": {"type": "Point", "coordinates": [137.060613725156, 34.8990356869733]}}, {"type": "Feature", "properties": {"stop_id": "145_01", "stop_name": "南中根北", "zone_id": "145_01", "location_type": "0"}, "geometry": {"type": "Point", "coordinates": [137.058878916948, 34.9052400062046]}}, {"type": "Feature", "properties": {"stop_id": "146_01", "stop_name": "南中根", "zone_id": "146_01", "location_type": "0"}, "geometry": {"type": "Point", "coordinates": [137.054228784632, 34.9011810820654]}}, {"type": "Feature", "properties": {"stop_id": "147_01", "stop_name": "宮浦", "zone_id": "147_01", "location_type": "0"}, "geometry": {"type": "Point", "coordinates": [137.05650574761, 34.8960686040302]}}, {"type": "Feature", "properties": {"stop_id": "148_01", "stop_name": "米津小南", "zone_id": "148_01", "location_type": "0"}, "geometry": {"type": "Point", "coordinates": [137.056186097478, 34.8931936632793]}}, {"type": "Feature", "properties": {"stop_id": "149_01", "stop_name": "中央通り", "zone_id": "149_01", "location_type": "0"}, "geometry": {"type": "Point", "coordinates": [137.054345050512, 34.8667821859913]}}, {"type": "Feature", "properties": {"stop_id": "149_02", "stop_name": "中央通り", "zone_id": "149_02", "location_type": "0"}, "geometry": {"type": "Point", "coordinates": [137.054425050512, 34.8669071859913]}}, {"type": "Feature", "properties": {"stop_id": "15_01", "stop_name": "鶴城中西", "zone_id": "15_01", "location_type": "0"}, "geometry": {"type": "Point", "coordinates": [137.053655, 34.876914]}}, {"type": "Feature", "properties": {"stop_id": "15_02", "stop_name": "鶴城中西", "zone_id": "15_02", "location_type": "0"}, "geometry": {"type": "Point", "coordinates": [137.053666, 34.876729]}}, {"type": "Feature", "properties": {"stop_id": "150_01", "stop_name": "中央児童館", "zone_id": "150_01", "location_type": "0"}, "geometry": {"type": "Point", "coordinates": [137.050484069661, 34.8688334648823]}}, {"type": "Feature", "properties": {"stop_id": "150_02", "stop_name": "中央児童館", "zone_id": "150_02", "location_type": "0"}, "geometry": {"type": "Point", "coordinates": [137.050552641089, 34.8689284648823]}}, {"type": "Feature", "properties": {"stop_id": "151_01", "stop_name": "神明下", "zone_id": "151_01", "location_type": "0"}, "geometry": {"type": "Point", "coordinates": [137.04444606829, 34.8697085095714]}}, {"type": "Feature", "properties": {"stop_id": "151_02", "stop_name": "神明下", "zone_id": "151_02", "location_type": "0"}, "geometry": {"type": "Point", "coordinates": [137.044631374506, 34.8696685095714]}}, {"type": "Feature", "properties": {"stop_id": "152_01", "stop_name": "堀ノ内", "zone_id": "152_01", "location_type": "0"}, "geometry": {"type": "Point", "coordinates": [137.044794522656, 34.8742747801516]}}, {"type": "Feature", "properties": {"stop_id": "152_02", "stop_name": "堀ノ内", "zone_id": "152_02", "location_type": "0"}, "geometry": {"type": "Point", "coordinates": [137.044914522656, 34.8743197801516]}}, {"type": "Feature", "properties": {"stop_id": "153_01", "stop_name": "上町住宅", "zone_id": "153_01", "location_type": "0"}, "geometry": {"type": "Point", "coordinates": [137.042950095395, 34.8760048324876]}}, {"type": "Feature", "properties": {"stop_id": "153_02", "stop_name": "上町住宅", "zone_id": "153_02", "location_type": "0"}, "geometry": {"type": "Point", "coordinates": [137.043030095395, 34.8761098324876]}}, {"type": "Feature", "properties": {"stop_id": "154_01", "stop_name": "横町屋敷", "zone_id": "154_01", "location_type": "0"}, "geometry": {"type": "Point", "coordinates": [137.039938092063, 34.8778260110846]}}, {"type": "Feature", "properties": {"stop_id": "154_02", "stop_name": "横町屋敷", "zone_id": "154_02", "location_type": "0"}, "geometry": {"type": "Point", "coordinates": [137.039943806349, 34.8779310110846]}}, {"type": "Feature", "properties": {"stop_id": "155_01", "stop_name": "西野町ふれあいセンター", "zone_id": "155_01", "location_type": "0"}, "geometry": {"type": "Point", "coordinates": [137.037343461756, 34.8768544367345]}}, {"type": "Feature", "properties": {"stop_id": "156_01", "stop_name": "紅樹院", "zone_id": "156_01", "location_type": "0"}, "geometry": {"type": "Point", "coordinates": [137.035263234885, 34.8799083807062]}}, {"type": "Feature", "properties": {"stop_id": "157_01", "stop_name": "碧南鷲塚", "zone_id": "157_01", "location_type": "0"}, "geometry": {"type": "Point", "coordinates": [137.027145820803, 34.8885201094741]}}, {"type": "Feature", "properties": {"stop_id": "158_01", "stop_name": "今川下落", "zone_id": "158_01", "location_type": "0"}, "geometry": {"type": "Point", "coordinates": [137.056772102111, 34.8551652540242]}}, {"type": "Feature", "properties": {"stop_id": "158_02", "stop_name": "今川下落", "zone_id": "158_02", "location_type": "0"}, "geometry": {"type": "Point", "coordinates": [137.056646387825, 34.8552852540242]}}, {"type": "Feature", "properties": {"stop_id": "159_01", "stop_name": "鵜ケ池北", "zone_id": "159_01", "location_type": "0"}, "geometry": {"type": "Point", "coordinates": [137.063769869358, 34.843316505887]}}, {"type": "Feature", "properties": {"stop_id": "159_02", "stop_name": "鵜ケ池北", "zone_id": "159_02", "location_type": "0"}, "geometry": {"type": "Point", "coordinates": [137.063678440786, 34.843181505887]}}, {"type": "Feature", "properties": {"stop_id": "16_01", "stop_name": "鶴城小南", "zone_id": "16_01", "location_type": "0"}, "geometry": {"type": "Point", "coordinates": [137.056112, 34.878463]}}, {"type": "Feature", "properties": {"stop_id": "16_02", "stop_name": "鶴城小南", "zone_id": "16_02", "location_type": "0"}, "geometry": {"type": "Point", "coordinates": [137.056289, 34.878318]}}, {"type": "Feature", "properties": {"stop_id": "160_01", "stop_name": "鎌谷", "zone_id": "160_01", "location_type": "0"}, "geometry": {"type": "Point", "coordinates": [137.064622228492, 34.8394007960945]}}, {"type": "Feature", "properties": {"stop_id": "161_01", "stop_name": "天竹", "zone_id": "161_01", "location_type": "0"}, "geometry": {"type": "Point", "coordinates": [137.060761828995, 34.8315680006229]}}, {"type": "Feature", "properties": {"stop_id": "162_01", "stop_name": "横手", "zone_id": "162_01", "location_type": "0"}, "geometry": {"type": "Point", "coordinates": [137.057396821698, 34.8293458127144]}}, {"type": "Feature", "properties": {"stop_id": "163_01", "stop_name": "平口", "zone_id": "163_01", "location_type": "0"}, "geometry": {"type": "Point", "coordinates": [137.051880219798, 34.8252978776047]}}, {"type": "Feature", "properties": {"stop_id": "164_01", "stop_name": "笹曽根", "zone_id": "164_01", "location_type": "0"}, "geometry": {"type": "Point", "coordinates": [137.048380751523, 34.8227262617914]}}, {"type": "Feature", "properties": {"stop_id": "165_01", "stop_name": "市子", "zone_id": "165_01", "location_type": "0"}, "geometry": {"type": "Point", "coordinates": [137.042500184016, 34.8254382507901]}}, {"type": "Feature", "properties": {"stop_id": "166_01", "stop_name": "八ケ尻", "zone_id": "166_01", "location_type": "0"}, "geometry": {"type": "Point", "coordinates": [137.031844582089, 34.8271528485737]}}, {"type": "Feature", "properties": {"stop_id": "167_01", "stop_name": "行用", "zone_id": "167_01", "location_type": "0"}, "geometry": {"type": "Point", "coordinates": [137.028523190531, 34.8289581082851]}}, {"type": "Feature", "properties": {"stop_id": "168_01", "stop_name": "針曽根", "zone_id": "168_01", "location_type": "0"}, "geometry": {"type": "Point", "coordinates": [137.029005990132, 34.8371414881177]}}, {"type": "Feature", "properties": {"stop_id": "169_01", "stop_name": "下道目記", "zone_id": "169_01", "location_type": "0"}, "geometry": {"type": "Point", "coordinates": [137.034556064246, 34.833042429235]}}, {"type": "Feature", "properties": {"stop_id": "17_01", "stop_name": "緑町", "zone_id": "17_01", "location_type": "0"}, "geometry": {"type": "Point", "coordinates": [137.058, 34.879638]}}, {"type": "Feature", "properties": {"stop_id": "170_01", "stop_name": "上道目記", "zone_id": "170_01", "location_type": "0"}, "geometry": {"type": "Point", "coordinates": [137.03958030965, 34.8341512763971]}}, {"type": "Feature", "properties": {"stop_id": "171_01", "stop_name": "福地中北", "zone_id": "171_01", "location_type": "0"}, "geometry": {"type": "Point", "coordinates": [137.043309745527, 34.8359479634013]}}, {"type": "Feature", "properties": {"stop_id": "19_01", "stop_name": "米津ふれあいセンター東", "zone_id": "19_01", "location_type": "0"}, "geometry": {"type": "Point", "coordinates": [137.059352, 34.891836]}}, {"type": "Feature", "properties": {"stop_id": "2_01", "stop_name": "市役所", "zone_id": "2_01", "location_type": "0"}, "geometry": {"type": "Point", "coordinates": [137.061718, 34.861655]}}, {"type": "Feature", "properties": {"stop_id": "20_01", "stop_name": "米津駅", "zone_id": "20_01", "location_type": "0"}, "geometry": {"type": "Point", "coordinates": [137.060167, 34.892522]}}, {"type": "Feature", "properties": {"stop_id": "21_01", "stop_name": "桜町", "zone_id": "21_01", "location_type": "0"}, "geometry": {"type": "Point", "coordinates": [137.060194, 34.883792]}}, {"type": "Feature", "properties": {"stop_id": "21_02", "stop_name": "桜町", "zone_id": "21_02", "location_type": "0"}, "geometry": {"type": "Point", "coordinates": [137.060071, 34.883568]}}, {"type": "Feature", "properties": {"stop_id": "22_01", "stop_name": "桜町前駅西", "zone_id": "22_01", "location_type": "0"}, "geometry": {"type": "Point", "coordinates": [137.061142857143, 34.880624]}}, {"type": "Feature", "properties": {"stop_id": "22_02", "stop_name": "桜町前駅西", "zone_id": "22_02", "location_type": "0"}, "geometry": {"type": "Point", "coordinates": [137.061147285714, 34.880492]}}, {"type": "Feature", "properties": {"stop_id": "23_01", "stop_name": "八ツ面ふれあいセンター", "zone_id": "23_01", "location_type": "0"}, "geometry": {"type": "Point", "coordinates": [137.066959, 34.878573]}}, {"type": "Feature", "properties": {"stop_id": "23_02", "stop_name": "八ツ面ふれあいセンター", "zone_id": "23_02", "location_type": "0"}, "geometry": {"type": "Point", "coordinates": [137.06727, 34.878278]}}, {"type": "Feature", "properties": {"stop_id": "24_01", "stop_name": "八ツ面小西", "zone_id": "24_01", "location_type": "0"}, "geometry": {"type": "Point", "coordinates": [137.070258, 34.876619]}}, {"type": "Feature", "properties": {"stop_id": "24_02", "stop_name": "八ツ面小西", "zone_id": "24_02", "location_type": "0"}, "geometry": {"type": "Point", "coordinates": [137.070161, 34.876514]}}, {"type": "Feature", "properties": {"stop_id": "25_01", "stop_name": "市民病院", "zone_id": "25_01", "location_type": "0"}, "geometry": {"type": "Point", "coordinates": [137.068627, 34.873156]}}, {"type": "Feature", "properties": {"stop_id": "26_01", "stop_name": "熊味", "zone_id": "26_01", "location_type": "0"}, "geometry": {"type": "Point", "coordinates": [137.068938, 34.872205]}}, {"type": "Feature", "properties": {"stop_id": "26_02", "stop_name": "熊味", "zone_id": "26_02", "location_type": "0"}, "geometry": {"type": "Point", "coordinates": [137.068627, 34.872121]}}, {"type": "Feature", "properties": {"stop_id": "27_01", "stop_name": "保健センター", "zone_id": "27_01", "location_type": "0"}, "geometry": {"type": "Point", "coordinates": [137.067849, 34.867623]}}, {"type": "Feature", "properties": {"stop_id": "27_02", "stop_name": "保健センター", "zone_id": "27_02", "location_type": "0"}, "geometry": {"type": "Point", "coordinates": [137.067828, 34.86783]}}, {"type": "Feature", "properties": {"stop_id": "28_01", "stop_name": "保健センター南", "zone_id": "28_01", "location_type": "0"}, "geometry": {"type": "Point", "coordinates": [137.067018, 34.866356]}}, {"type": "Feature", "properties": {"stop_id": "28_02", "stop_name": "保健センター南", "zone_id": "28_02", "location_type": "0"}, "geometry": {"type": "Point", "coordinates": [137.066712, 34.866144]}}, {"type": "Feature", "properties": {"stop_id": "29_01", "stop_name": "法務局西尾支局南", "zone_id": "29_01", "location_type": "0"}, "geometry": {"type": "Point", "coordinates": [137.065746, 34.864371]}}, {"type": "Feature", "properties": {"stop_id": "29_02", "stop_name": "法務局西尾支局南", "zone_id": "29_02", "location_type": "0"}, "geometry": {"type": "Point", "coordinates": [137.065623, 34.86445]}}, {"type": "Feature", "properties": {"stop_id": "3_01", "stop_name": "花ノ木保育園東", "zone_id": "3_01", "location_type": "0"}, "geometry": {"type": "Point", "coordinates": [137.063021, 34.86022]}}, {"type": "Feature", "properties": {"stop_id": "3_02", "stop_name": "花ノ木保育園東", "zone_id": "3_02", "location_type": "0"}, "geometry": {"type": "Point", "coordinates": [137.062737, 34.860044]}}, {"type": "Feature", "properties": {"stop_id": "30_01", "stop_name": "郵便局西", "zone_id": "30_01", "location_type": "0"}, "geometry": {"type": "Point", "coordinates": [137.063686, 34.862474]}}, {"type": "Feature", "properties": {"stop_id": "30_02", "stop_name": "郵便局西", "zone_id": "30_02", "location_type": "0"}, "geometry": {"type": "Point", "coordinates": [137.063659, 34.862707]}}, {"type": "Feature", "properties": {"stop_id": "31_01", "stop_name": "保健所西", "zone_id": "31_01", "location_type": "0"}, "geometry": {"type": "Point", "coordinates": [137.061095, 34.863622]}}, {"type": "Feature", "properties": {"stop_id": "31_02", "stop_name": "保健所西", "zone_id": "31_02", "location_type": "0"}, "geometry": {"type": "Point", "coordinates": [137.060924, 34.863922]}}, {"type": "Feature", "properties": {"stop_id": "32_03", "stop_name": "福祉センター", "zone_id": "32_03", "location_type": "0"}, "geometry": {"type": "Point", "coordinates": [137.058923, 34.867658]}}, {"type": "Feature", "properties": {"stop_id": "32_04", "stop_name": "福祉センター", "zone_id": "32_04", "location_type": "0"}, "geometry": {"type": "Point", "coordinates": [137.059051, 34.867447]}}, {"type": "Feature", "properties": {"stop_id": "33_03", "stop_name": "西尾口駅", "zone_id": "33_03", "location_type": "0"}, "geometry": {"type": "Point", "coordinates": [137.062785, 34.871061]}}, {"type": "Feature", "properties": {"stop_id": "33_04", "stop_name": "西尾口駅", "zone_id": "33_04", "location_type": "0"}, "geometry": {"type": "Point", "coordinates": [137.062404, 34.870955]}}, {"type": "Feature", "properties": {"stop_id": "34_03", "stop_name": "八ツ面", "zone_id": "34_03", "location_type": "0"}, "geometry": {"type": "Point", "coordinates": [137.07291, 34.8725909999999]}}, {"type": "Feature", "properties": {"stop_id": "35_03", "stop_name": "八ツ面住宅南", "zone_id": "35_03", "location_type": "0"}, "geometry": {"type": "Point", "coordinates": [137.077194, 34.872782]}}, {"type": "Feature", "properties": {"stop_id": "35_04", "stop_name": "八ツ面住宅南", "zone_id": "35_04", "location_type": "0"}, "geometry": {"type": "Point", "coordinates": [137.077226, 34.872641]}}, {"type": "Feature", "properties": {"stop_id": "36_03", "stop_name": "道の駅にしお岡ノ山", "zone_id": "36_03", "location_type": "0"}, "geometry": {"type": "Point", "coordinates": [137.082639, 34.876945]}}, {"type": "Feature", "properties": {"stop_id": "37_03", "stop_name": "江原", "zone_id": "37_03", "location_type": "0"}, "geometry": {"type": "Point", "coordinates": [137.087753, 34.871393]}}, {"type": "Feature", "properties": {"stop_id": "37_04", "stop_name": "江原", "zone_id": "37_04", "location_type": "0"}, "geometry": {"type": "Point", "coordinates": [137.086625088447, 34.8719325584532]}}, {"type": "Feature", "properties": {"stop_id": "39_03", "stop_name": "三和ふれあいセンター西", "zone_id": "39_03", "location_type": "0"}, "geometry": {"type": "Point", "coordinates": [137.097949761905, 34.8795856666666]}}, {"type": "Feature", "properties": {"stop_id": "4_01", "stop_name": "今川北", "zone_id": "4_01", "location_type": "0"}, "geometry": {"type": "Point", "coordinates": [137.061262, 34.857455]}}, {"type": "Feature", "properties": {"stop_id": "4_02", "stop_name": "今川北", "zone_id": "4_02", "location_type": "0"}, "geometry": {"type": "Point", "coordinates": [137.061192, 34.857662]}}, {"type": "Feature", "properties": {"stop_id": "40_03", "stop_name": "尾花", "zone_id": "40_03", "location_type": "0"}, "geometry": {"type": "Point", "coordinates": [137.097766, 34.873305]}}, {"type": "Feature", "properties": {"stop_id": "41_03", "stop_name": "東部中", "zone_id": "41_03", "location_type": "0"}, "geometry": {"type": "Point", "coordinates": [137.1012, 34.871756]}}, {"type": "Feature", "properties": {"stop_id": "42_03", "stop_name": "下永良", "zone_id": "42_03", "location_type": "0"}, "geometry": {"type": "Point", "coordinates": [137.104053, 34.86963]}}, {"type": "Feature", "properties": {"stop_id": "43_03", "stop_name": "つくしが丘", "zone_id": "43_03", "location_type": "0"}, "geometry": {"type": "Point", "coordinates": [137.111085, 34.869987]}}, {"type": "Feature", "properties": {"stop_id": "44_03", "stop_name": "駒場北", "zone_id": "44_03", "location_type": "0"}, "geometry": {"type": "Point", "coordinates": [137.104343, 34.867179]}}, {"type": "Feature", "properties": {"stop_id": "44_04", "stop_name": "駒場北", "zone_id": "44_04", "location_type": "0"}, "geometry": {"type": "Point", "coordinates": [137.104204, 34.867258]}}, {"type": "Feature", "properties": {"stop_id": "45_03", "stop_name": "家武", "zone_id": "45_03", "location_type": "0"}, "geometry": {"type": "Point", "coordinates": [137.101468, 34.860444]}}, {"type": "Feature", "properties": {"stop_id": "45_04", "stop_name": "家武", "zone_id": "45_04", "location_type": "0"}, "geometry": {"type": "Point", "coordinates": [137.101686080624, 34.8604963343244]}}, {"type": "Feature", "properties": {"stop_id": "46_03", "stop_name": "室場ふれあいセンター", "zone_id": "46_03", "location_type": "0"}, "geometry": {"type": "Point", "coordinates": [137.100041, 34.856756]}}, {"type": "Feature", "properties": {"stop_id": "46_04", "stop_name": "室場ふれあいセンター", "zone_id": "46_04", "location_type": "0"}, "geometry": {"type": "Point", "coordinates": [137.100408, 34.85761]}}, {"type": "Feature", "properties": {"stop_id": "48_03", "stop_name": "ホワイトウェイブ", "zone_id": "48_03", "location_type": "0"}, "geometry": {"type": "Point", "coordinates": [137.078857, 34.846771]}}, {"type": "Feature", "properties": {"stop_id": "48_04", "stop_name": "ホワイトウェイブ", "zone_id": "48_04", "location_type": "0"}, "geometry": {"type": "Point", "coordinates": [137.078674, 34.846767]}}, {"type": "Feature", "properties": {"stop_id": "49_03", "stop_name": "宅野島", "zone_id": "49_03", "location_type": "0"}, "geometry": {"type": "Point", "coordinates": [137.072071, 34.850474]}}, {"type": "Feature", "properties": {"stop_id": "49_04", "stop_name": "宅野島", "zone_id": "49_04", "location_type": "0"}, "geometry": {"type": "Point", "coordinates": [137.072124, 34.850588]}}, {"type": "Feature", "properties": {"stop_id": "5_01", "stop_name": "今川南", "zone_id": "5_01", "location_type": "0"}, "geometry": {"type": "Point", "coordinates": [137.058821, 34.856223]}}, {"type": "Feature", "properties": {"stop_id": "5_02", "stop_name": "今川南", "zone_id": "5_02", "location_type": "0"}, "geometry": {"type": "Point", "coordinates": [137.058601, 34.856478]}}, {"type": "Feature", "properties": {"stop_id": "50_03", "stop_name": "小焼野", "zone_id": "50_03", "location_type": "0"}, "geometry": {"type": "Point", "coordinates": [137.074109, 34.855065]}}, {"type": "Feature", "properties": {"stop_id": "51_03", "stop_name": "中央体育館", "zone_id": "51_03", "location_type": "0"}, "geometry": {"type": "Point", "coordinates": [137.068643, 34.857279]}}, {"type": "Feature", "properties": {"stop_id": "51_04", "stop_name": "中央体育館", "zone_id": "51_04", "location_type": "0"}, "geometry": {"type": "Point", "coordinates": [137.06867, 34.857372]}}, {"type": "Feature", "properties": {"stop_id": "52_03", "stop_name": "丁田", "zone_id": "52_03", "location_type": "0"}, "geometry": {"type": "Point", "coordinates": [137.064432, 34.858653]}}, {"type": "Feature", "properties": {"stop_id": "53_05", "stop_name": "市役所西", "zone_id": "53_05", "location_type": "0"}, "geometry": {"type": "Point", "coordinates": [137.060269, 34.862148]}}, {"type": "Feature", "properties": {"stop_id": "53_06", "stop_name": "市役所西", "zone_id": "53_06", "location_type": "0"}, "geometry": {"type": "Point", "coordinates": [137.060264, 34.861914]}}, {"type": "Feature", "properties": {"stop_id": "54_05", "stop_name": "今川西", "zone_id": "54_05", "location_type": "0"}, "geometry": {"type": "Point", "coordinates": [137.058505, 34.85785]}}, {"type": "Feature", "properties": {"stop_id": "54_06", "stop_name": "今川西", "zone_id": "54_06", "location_type": "0"}, "geometry": {"type": "Point", "coordinates": [137.05827, 34.857677]}}, {"type": "Feature", "properties": {"stop_id": "55_05", "stop_name": "今川", "zone_id": "55_05", "location_type": "0"}, "geometry": {"type": "Point", "coordinates": [137.059357, 34.851328]}}, {"type": "Feature", "properties": {"stop_id": "55_06", "stop_name": "今川", "zone_id": "55_06", "location_type": "0"}, "geometry": {"type": "Point", "coordinates": [137.059205857143, 34.8510189999999]}}, {"type": "Feature", "properties": {"stop_id": "56_05", "stop_name": "福北小北", "zone_id": "56_05", "location_type": "0"}, "geometry": {"type": "Point", "coordinates": [137.060645, 34.845966]}}, {"type": "Feature", "properties": {"stop_id": "56_06", "stop_name": "福北小北", "zone_id": "56_06", "location_type": "0"}, "geometry": {"type": "Point", "coordinates": [137.06014, 34.846243]}}, {"type": "Feature", "properties": {"stop_id": "57_05", "stop_name": "鵜ケ池", "zone_id": "57_05", "location_type": "0"}, "geometry": {"type": "Point", "coordinates": [137.06124, 34.840167]}}, {"type": "Feature", "properties": {"stop_id": "58_05", "stop_name": "十郎島", "zone_id": "58_05", "location_type": "0"}, "geometry": {"type": "Point", "coordinates": [137.059067, 34.838014]}}, {"type": "Feature", "properties": {"stop_id": "59_06", "stop_name": "憩の農園", "zone_id": "59_06", "location_type": "0"}, "geometry": {"type": "Point", "coordinates": [137.051922, 34.836302]}}, {"type": "Feature", "properties": {"stop_id": "6_01", "stop_name": "消防本部南", "zone_id": "6_01", "location_type": "0"}, "geometry": {"type": "Point", "coordinates": [137.055296, 34.857737]}}, {"type": "Feature", "properties": {"stop_id": "6_02", "stop_name": "消防本部南", "zone_id": "6_02", "location_type": "0"}, "geometry": {"type": "Point", "coordinates": [137.055559, 34.857808]}}, {"type": "Feature", "properties": {"stop_id": "60_06", "stop_name": "斉藤", "zone_id": "60_06", "location_type": "0"}, "geometry": {"type": "Point", "coordinates": [137.049159, 34.838124]}}, {"type": "Feature", "properties": {"stop_id": "62_05", "stop_name": "福地駅南", "zone_id": "62_05", "location_type": "0"}, "geometry": {"type": "Point", "coordinates": [137.048532285714, 34.841221]}}, {"type": "Feature", "properties": {"stop_id": "64_06", "stop_name": "若王子", "zone_id": "64_06", "location_type": "0"}, "geometry": {"type": "Point", "coordinates": [137.020272, 34.848752]}}, {"type": "Feature", "properties": {"stop_id": "65_05", "stop_name": "富山", "zone_id": "65_05", "location_type": "0"}, "geometry": {"type": "Point", "coordinates": [137.021071, 34.851244]}}, {"type": "Feature", "properties": {"stop_id": "65_06", "stop_name": "富山", "zone_id": "65_06", "location_type": "0"}, "geometry": {"type": "Point", "coordinates": [137.021219, 34.851185]}}, {"type": "Feature", "properties": {"stop_id": "66_05", "stop_name": "矢田小東", "zone_id": "66_05", "location_type": "0"}, "geometry": {"type": "Point", "coordinates": [137.03121, 34.853467]}}, {"type": "Feature", "properties": {"stop_id": "66_06", "stop_name": "矢田小東", "zone_id": "66_06", "location_type": "0"}, "geometry": {"type": "Point", "coordinates": [137.031127270562, 34.8535719158477]}}, {"type": "Feature", "properties": {"stop_id": "67_06", "stop_name": "国森", "zone_id": "67_06", "location_type": "0"}, "geometry": {"type": "Point", "coordinates": [137.034012571429, 34.8563730000002]}}, {"type": "Feature", "properties": {"stop_id": "7_01", "stop_name": "矢曽根西", "zone_id": "7_01", "location_type": "0"}, "geometry": {"type": "Point", "coordinates": [137.050935, 34.8593]}}, {"type": "Feature", "properties": {"stop_id": "7_02", "stop_name": "矢曽根西", "zone_id": "7_02", "location_type": "0"}, "geometry": {"type": "Point", "coordinates": [137.051091, 34.859428]}}, {"type": "Feature", "properties": {"stop_id": "70_05", "stop_name": "勤労会館", "zone_id": "70_05", "location_type": "0"}, "geometry": {"type": "Point", "coordinates": [137.021281128403, 34.8610194036506]}}, {"type": "Feature", "properties": {"stop_id": "72_06", "stop_name": "中畑保育園", "zone_id": "72_06", "location_type": "0"}, "geometry": {"type": "Point", "coordinates": [137.020556, 34.86746]}}, {"type": "Feature", "properties": {"stop_id": "73_06", "stop_name": "中畑小東", "zone_id": "73_06", "location_type": "0"}, "geometry": {"type": "Point", "coordinates": [137.026087, 34.867874]}}, {"type": "Feature", "properties": {"stop_id": "74_06", "stop_name": "田貫", "zone_id": "74_06", "location_type": "0"}, "geometry": {"type": "Point", "coordinates": [137.026387, 34.869476]}}, {"type": "Feature", "properties": {"stop_id": "75_06", "stop_name": "下町", "zone_id": "75_06", "location_type": "0"}, "geometry": {"type": "Point", "coordinates": [137.037181, 34.87026]}}, {"type": "Feature", "properties": {"stop_id": "76_06", "stop_name": "下町住宅", "zone_id": "76_06", "location_type": "0"}, "geometry": {"type": "Point", "coordinates": [137.041134, 34.869916]}}, {"type": "Feature", "properties": {"stop_id": "77_05", "stop_name": "御城下", "zone_id": "77_05", "location_type": "0"}, "geometry": {"type": "Point", "coordinates": [137.046016, 34.868464]}}, {"type": "Feature", "properties": {"stop_id": "77_06", "stop_name": "御城下", "zone_id": "77_06", "location_type": "0"}, "geometry": {"type": "Point", "coordinates": [137.045871, 34.868327]}}, {"type": "Feature", "properties": {"stop_id": "78_05", "stop_name": "歴史公園北", "zone_id": "78_05", "location_type": "0"}, "geometry": {"type": "Point", "coordinates": [137.048982, 34.867249]}}, {"type": "Feature", "properties": {"stop_id": "78_06", "stop_name": "歴史公園北", "zone_id": "78_06", "location_type": "0"}, "geometry": {"type": "Point", "coordinates": [137.04895, 34.867051]}}, {"type": "Feature", "properties": {"stop_id": "79_05", "stop_name": "四條橋", "zone_id": "79_05", "location_type": "0"}, "geometry": {"type": "Point", "coordinates": [137.054722, 34.864635]}}, {"type": "Feature", "properties": {"stop_id": "79_06", "stop_name": "四條橋", "zone_id": "79_06", "location_type": "0"}, "geometry": {"type": "Point", "coordinates": [137.054781, 34.864388]}}, {"type": "Feature", "properties": {"stop_id": "8_01", "stop_name": "永吉南", "zone_id": "8_01", "location_type": "0"}, "geometry": {"type": "Point", "coordinates": [137.047867, 34.86007]}}, {"type": "Feature", "properties": {"stop_id": "8_02", "stop_name": "永吉南", "zone_id": "8_02", "location_type": "0"}, "geometry": {"type": "Point", "coordinates": [137.04836, 34.860092]}}, {"type": "Feature", "properties": {"stop_id": "80_01", "stop_name": "鶴城ふれあいセンター", "zone_id": "80_01", "location_type": "0"}, "geometry": {"type": "Point", "coordinates": [137.053216, 34.879688]}}, {"type": "Feature", "properties": {"stop_id": "81_01", "stop_name": "江原東", "zone_id": "81_01", "location_type": "0"}, "geometry": {"type": "Point", "coordinates": [137.092317318649, 34.8689205045398]}}, {"type": "Feature", "properties": {"stop_id": "81_02", "stop_name": "江原東", "zone_id": "81_02", "location_type": "0"}, "geometry": {"type": "Point", "coordinates": [137.092243032935, 34.8688105045398]}}, {"type": "Feature", "properties": {"stop_id": "82_01", "stop_name": "岡島", "zone_id": "82_01", "location_type": "0"}, "geometry": {"type": "Point", "coordinates": [137.095919175819, 34.8669228201658]}}, {"type": "Feature", "properties": {"stop_id": "82_02", "stop_name": "岡島", "zone_id": "82_02", "location_type": "0"}, "geometry": {"type": "Point", "coordinates": [137.095223, 34.867138]}}, {"type": "Feature", "properties": {"stop_id": "83_01", "stop_name": "駒場", "zone_id": "83_01", "location_type": "0"}, "geometry": {"type": "Point", "coordinates": [137.102094669915, 34.8637911168381]}}, {"type": "Feature", "properties": {"stop_id": "83_02", "stop_name": "駒場", "zone_id": "83_02", "location_type": "0"}, "geometry": {"type": "Point", "coordinates": [137.102357527057, 34.8642561168383]}}, {"type": "Feature", "properties": {"stop_id": "84_01", "stop_name": "米野橋", "zone_id": "84_01", "location_type": "0"}, "geometry": {"type": "Point", "coordinates": [137.09877980944, 34.8819796571421]}}, {"type": "Feature", "properties": {"stop_id": "85_01", "stop_name": "西浅井南", "zone_id": "85_01", "location_type": "0"}, "geometry": {"type": "Point", "coordinates": [137.100172925192, 34.8873412412504]}}, {"type": "Feature", "properties": {"stop_id": "86_01", "stop_name": "西浅井", "zone_id": "86_01", "location_type": "0"}, "geometry": {"type": "Point", "coordinates": [137.099914383523, 34.8906802219289]}}, {"type": "Feature", "properties": {"stop_id": "87_01", "stop_name": "高落", "zone_id": "87_01", "location_type": "0"}, "geometry": {"type": "Point", "coordinates": [137.109115294304, 34.9004585821309]}}, {"type": "Feature", "properties": {"stop_id": "88_01", "stop_name": "高落北", "zone_id": "88_01", "location_type": "0"}, "geometry": {"type": "Point", "coordinates": [137.111071791012, 34.901787758088]}}, {"type": "Feature", "properties": {"stop_id": "89_01", "stop_name": "新村", "zone_id": "89_01", "location_type": "0"}, "geometry": {"type": "Point", "coordinates": [137.106409412668, 34.8965158107673]}}, {"type": "Feature", "properties": {"stop_id": "9_01", "stop_name": "住崎", "zone_id": "9_01", "location_type": "0"}, "geometry": {"type": "Point", "coordinates": [137.044761, 34.860845]}}, {"type": "Feature", "properties": {"stop_id": "9_02", "stop_name": "住崎", "zone_id": "9_02", "location_type": "0"}, "geometry": {"type": "Point", "coordinates": [137.044659, 34.861021]}}, {"type": "Feature", "properties": {"stop_id": "90_01", "stop_name": "東浅井", "zone_id": "90_01", "location_type": "0"}, "geometry": {"type": "Point", "coordinates": [137.110295816798, 34.8915282422553]}}, {"type": "Feature", "properties": {"stop_id": "90_02", "stop_name": "東浅井", "zone_id": "90_02", "location_type": "0"}, "geometry": {"type": "Point", "coordinates": [137.110147245369, 34.8914382422553]}}, {"type": "Feature", "properties": {"stop_id": "91_01", "stop_name": "岡崎中島", "zone_id": "91_01", "location_type": "0"}, "geometry": {"type": "Point", "coordinates": [137.111402285064, 34.8843646006663]}}, {"type": "Feature", "properties": {"stop_id": "92_01", "stop_name": "黄金堤", "zone_id": "92_01", "location_type": "0"}, "geometry": {"type": "Point", "coordinates": [137.088801174447, 34.8480082056775]}}, {"type": "Feature", "properties": {"stop_id": "92_02", "stop_name": "黄金堤", "zone_id": "92_02", "location_type": "0"}, "geometry": {"type": "Point", "coordinates": [137.089002573918, 34.8479617912092]}}, {"type": "Feature", "properties": {"stop_id": "93_01", "stop_name": "家武東", "zone_id": "93_01", "location_type": "0"}, "geometry": {"type": "Point", "coordinates": [137.105962415314, 34.8606646643341]}}, {"type": "Feature", "properties": {"stop_id": "94_01", "stop_name": "平原", "zone_id": "94_01", "location_type": "0"}, "geometry": {"type": "Point", "coordinates": [137.114610675954, 34.8572178219032]}}, {"type": "Feature", "properties": {"stop_id": "95_01", "stop_name": "西尾本町", "zone_id": "95_01", "location_type": "0"}, "geometry": {"type": "Point", "coordinates": [137.051318585543, 34.8659176343579]}}, {"type": "Feature", "properties": {"stop_id": "95_02", "stop_name": "西尾本町", "zone_id": "95_02", "location_type": "0"}, "geometry": {"type": "Point", "coordinates": [137.052364299829, 34.8656476343578]}}, {"type": "Feature", "properties": {"stop_id": "96_01", "stop_name": "法光寺", "zone_id": "96_01", "location_type": "0"}, "geometry": {"type": "Point", "coordinates": [137.033472448507, 34.8696845601964]}}, {"type": "Feature", "properties": {"stop_id": "97_01", "stop_name": "法光寺工業団地前", "zone_id": "97_01", "location_type": "0"}, "geometry": {"type": "Point", "coordinates": [137.031407615814, 34.8696329424776]}}, {"type": "Feature", "properties": {"stop_id": "98_01", "stop_name": "中畑小南", "zone_id": "98_01", "location_type": "0"}, "geometry": {"type": "Point", "coordinates": [137.024554223562, 34.8663913397015]}}, {"type": "Feature", "properties": {"stop_id": "99_01", "stop_name": "中畑小北", "zone_id": "99_01", "location_type": "0"}, "geometry": {"type": "Point", "coordinates": [137.019244148789, 34.8706417200238]}}]}