{"type": "FeatureCollection", "name": "stops", "crs": {"type": "name", "properties": {"name": "urn:ogc:def:crs:OGC:1.3:CRS84"}}, "features": [{"type": "Feature", "properties": {"stop_id": "1_1", "stop_name": "大庄駅前", "zone_id": "1_1", "location_type": "0"}, "geometry": {"type": "Point", "coordinates": [137.276303, 36.619348]}}, {"type": "Feature", "properties": {"stop_id": "2_1", "stop_name": "津羽見", "zone_id": "2_1", "location_type": "0"}, "geometry": {"type": "Point", "coordinates": [137.271179, 36.611969]}}, {"type": "Feature", "properties": {"stop_id": "3_1", "stop_name": "南大場", "zone_id": "3_1", "location_type": "0"}, "geometry": {"type": "Point", "coordinates": [137.286568, 36.616881]}}, {"type": "Feature", "properties": {"stop_id": "4_1", "stop_name": "殿様林", "zone_id": "4_1", "location_type": "0"}, "geometry": {"type": "Point", "coordinates": [137.293538, 36.620753]}}, {"type": "Feature", "properties": {"stop_id": "5_1", "stop_name": "新栄町", "zone_id": "5_1", "location_type": "0"}, "geometry": {"type": "Point", "coordinates": [137.297657, 36.613557]}}, {"type": "Feature", "properties": {"stop_id": "6_1", "stop_name": "善名", "zone_id": "6_1", "location_type": "0"}, "geometry": {"type": "Point", "coordinates": [137.274655, 36.626426]}}, {"type": "Feature", "properties": {"stop_id": "7_1", "stop_name": "下番", "zone_id": "7_1", "location_type": "0"}, "geometry": {"type": "Point", "coordinates": [137.275977, 36.629567]}}, {"type": "Feature", "properties": {"stop_id": "8_1", "stop_name": "ライスセンター前", "zone_id": "8_1", "location_type": "0"}, "geometry": {"type": "Point", "coordinates": [137.280663, 36.628024]}}, {"type": "Feature", "properties": {"stop_id": "9_1", "stop_name": "開発駅前", "zone_id": "9_1", "location_type": "0"}, "geometry": {"type": "Point", "coordinates": [137.242172, 36.636058]}}, {"type": "Feature", "properties": {"stop_id": "10_1", "stop_name": "上滝中学校前", "zone_id": "10_1", "location_type": "0"}, "geometry": {"type": "Point", "coordinates": [137.291799, 36.609544]}}, {"type": "Feature", "properties": {"stop_id": "11_1", "stop_name": "大山行政サービスセンター前", "zone_id": "11_1", "location_type": "0"}, "geometry": {"type": "Point", "coordinates": [137.299059, 36.609352]}}, {"type": "Feature", "properties": {"stop_id": "12_1", "stop_name": "上滝駅前", "zone_id": "12_1", "location_type": "0"}, "geometry": {"type": "Point", "coordinates": [137.296275, 36.609642]}}, {"type": "Feature", "properties": {"stop_id": "13_1", "stop_name": "花崎", "zone_id": "13_1", "location_type": "0"}, "geometry": {"type": "Point", "coordinates": [137.285876, 36.608207]}}, {"type": "Feature", "properties": {"stop_id": "14_1", "stop_name": "おおやま病院前", "zone_id": "14_1", "location_type": "0"}, "geometry": {"type": "Point", "coordinates": [137.280964, 36.609972]}}, {"type": "Feature", "properties": {"stop_id": "15_1", "stop_name": "老人センター前", "zone_id": "15_1", "location_type": "0"}, "geometry": {"type": "Point", "coordinates": [137.279065, 36.609073]}}, {"type": "Feature", "properties": {"stop_id": "16_1", "stop_name": "上大浦", "zone_id": "16_1", "location_type": "0"}, "geometry": {"type": "Point", "coordinates": [137.276781, 36.60798]}}, {"type": "Feature", "properties": {"stop_id": "17_1", "stop_name": "中大浦", "zone_id": "17_1", "location_type": "0"}, "geometry": {"type": "Point", "coordinates": [137.267731, 36.60765]}}, {"type": "Feature", "properties": {"stop_id": "18_1", "stop_name": "東黒牧T字路", "zone_id": "18_1", "location_type": "0"}, "geometry": {"type": "Point", "coordinates": [137.26719, 36.603777]}}, {"type": "Feature", "properties": {"stop_id": "19_1", "stop_name": "津毛", "zone_id": "19_1", "location_type": "0"}, "geometry": {"type": "Point", "coordinates": [137.258318, 36.604692]}}, {"type": "Feature", "properties": {"stop_id": "20_1", "stop_name": "福沢地区コミュニティセンター前", "zone_id": "20_1", "location_type": "0"}, "geometry": {"type": "Point", "coordinates": [137.260272, 36.598689]}}, {"type": "Feature", "properties": {"stop_id": "21_1", "stop_name": "福沢小学校前", "zone_id": "21_1", "location_type": "0"}, "geometry": {"type": "Point", "coordinates": [137.256003, 36.601547]}}, {"type": "Feature", "properties": {"stop_id": "22_1", "stop_name": "谷入", "zone_id": "22_1", "location_type": "0"}, "geometry": {"type": "Point", "coordinates": [137.258927, 36.584127]}}, {"type": "Feature", "properties": {"stop_id": "23_1", "stop_name": "火土呂", "zone_id": "23_1", "location_type": "0"}, "geometry": {"type": "Point", "coordinates": [137.258215, 36.569938]}}, {"type": "Feature", "properties": {"stop_id": "24_1", "stop_name": "小佐波", "zone_id": "24_1", "location_type": "0"}, "geometry": {"type": "Point", "coordinates": [137.256461, 36.564831]}}, {"type": "Feature", "properties": {"stop_id": "25_1", "stop_name": "上新町", "zone_id": "25_1", "location_type": "0"}, "geometry": {"type": "Point", "coordinates": [137.302945, 36.609074]}}, {"type": "Feature", "properties": {"stop_id": "26_1", "stop_name": "大川寺口", "zone_id": "26_1", "location_type": "0"}, "geometry": {"type": "Point", "coordinates": [137.306957, 36.608219]}}, {"type": "Feature", "properties": {"stop_id": "27_1", "stop_name": "新上野", "zone_id": "27_1", "location_type": "0"}, "geometry": {"type": "Point", "coordinates": [137.304257, 36.607081]}}, {"type": "Feature", "properties": {"stop_id": "28_1", "stop_name": "上野", "zone_id": "28_1", "location_type": "0"}, "geometry": {"type": "Point", "coordinates": [137.308714, 36.599774]}}, {"type": "Feature", "properties": {"stop_id": "29_1", "stop_name": "新町", "zone_id": "29_1", "location_type": "0"}, "geometry": {"type": "Point", "coordinates": [137.317606, 36.591003]}}, {"type": "Feature", "properties": {"stop_id": "30_1", "stop_name": "岡田", "zone_id": "30_1", "location_type": "0"}, "geometry": {"type": "Point", "coordinates": [137.326472, 36.582549]}}, {"type": "Feature", "properties": {"stop_id": "31_1", "stop_name": "上岡田", "zone_id": "31_1", "location_type": "0"}, "geometry": {"type": "Point", "coordinates": [137.330762, 36.581153]}}, {"type": "Feature", "properties": {"stop_id": "32_1", "stop_name": "松ノ木", "zone_id": "32_1", "location_type": "0"}, "geometry": {"type": "Point", "coordinates": [137.346136, 36.571982]}}, {"type": "Feature", "properties": {"stop_id": "33_1", "stop_name": "牧", "zone_id": "33_1", "location_type": "0"}, "geometry": {"type": "Point", "coordinates": [137.352252, 36.570074]}}, {"type": "Feature", "properties": {"stop_id": "34_1", "stop_name": "才覚地", "zone_id": "34_1", "location_type": "0"}, "geometry": {"type": "Point", "coordinates": [137.358905, 36.570083]}}, {"type": "Feature", "properties": {"stop_id": "35_1", "stop_name": "中地山発電所前", "zone_id": "35_1", "location_type": "0"}, "geometry": {"type": "Point", "coordinates": [137.365663, 36.5686]}}, {"type": "Feature", "properties": {"stop_id": "36_1", "stop_name": "中地山口", "zone_id": "36_1", "location_type": "0"}, "geometry": {"type": "Point", "coordinates": [137.367931, 36.571061]}}, {"type": "Feature", "properties": {"stop_id": "37_1", "stop_name": "牧野橋詰", "zone_id": "37_1", "location_type": "0"}, "geometry": {"type": "Point", "coordinates": [137.263054, 36.596531]}}, {"type": "Feature", "properties": {"stop_id": "38_1", "stop_name": "牧野", "zone_id": "38_1", "location_type": "0"}, "geometry": {"type": "Point", "coordinates": [137.267021, 36.593372]}}, {"type": "Feature", "properties": {"stop_id": "39_1", "stop_name": "日尾口", "zone_id": "39_1", "location_type": "0"}, "geometry": {"type": "Point", "coordinates": [137.273986, 36.578367]}}, {"type": "Feature", "properties": {"stop_id": "40_1", "stop_name": "日尾", "zone_id": "40_1", "location_type": "0"}, "geometry": {"type": "Point", "coordinates": [137.273715, 36.57704]}}, {"type": "Feature", "properties": {"stop_id": "41_1", "stop_name": "瀬戸", "zone_id": "41_1", "location_type": "0"}, "geometry": {"type": "Point", "coordinates": [137.273119, 36.572012]}}, {"type": "Feature", "properties": {"stop_id": "42_1", "stop_name": "石渕", "zone_id": "42_1", "location_type": "0"}, "geometry": {"type": "Point", "coordinates": [137.274375, 36.55993]}}, {"type": "Feature", "properties": {"stop_id": "43_1", "stop_name": "下双嶺", "zone_id": "43_1", "location_type": "0"}, "geometry": {"type": "Point", "coordinates": [137.275929, 36.545929]}}, {"type": "Feature", "properties": {"stop_id": "44_1", "stop_name": "下小坂", "zone_id": "44_1", "location_type": "0"}, "geometry": {"type": "Point", "coordinates": [137.275641, 36.540945]}}, {"type": "Feature", "properties": {"stop_id": "45_1", "stop_name": "小坂", "zone_id": "45_1", "location_type": "0"}, "geometry": {"type": "Point", "coordinates": [137.27752, 36.537815]}}, {"type": "Feature", "properties": {"stop_id": "46_1", "stop_name": "文華橋", "zone_id": "46_1", "location_type": "0"}, "geometry": {"type": "Point", "coordinates": [137.290728, 36.60565]}}, {"type": "Feature", "properties": {"stop_id": "47_1", "stop_name": "文珠寺", "zone_id": "47_1", "location_type": "0"}, "geometry": {"type": "Point", "coordinates": [137.293622, 36.603909]}}, {"type": "Feature", "properties": {"stop_id": "48_1", "stop_name": "中坪", "zone_id": "48_1", "location_type": "0"}, "geometry": {"type": "Point", "coordinates": [137.297202, 36.601832]}}, {"type": "Feature", "properties": {"stop_id": "49_1", "stop_name": "大上", "zone_id": "49_1", "location_type": "0"}, "geometry": {"type": "Point", "coordinates": [137.302735, 36.59841]}}, {"type": "Feature", "properties": {"stop_id": "50_1", "stop_name": "西小俣", "zone_id": "50_1", "location_type": "0"}, "geometry": {"type": "Point", "coordinates": [137.310989, 36.585094]}}, {"type": "Feature", "properties": {"stop_id": "51_1", "stop_name": "東小俣", "zone_id": "51_1", "location_type": "0"}, "geometry": {"type": "Point", "coordinates": [137.312694, 36.587329]}}, {"type": "Feature", "properties": {"stop_id": "52_1", "stop_name": "和田平", "zone_id": "52_1", "location_type": "0"}, "geometry": {"type": "Point", "coordinates": [137.305547, 36.597993]}}, {"type": "Feature", "properties": {"stop_id": "53_1", "stop_name": "新大上", "zone_id": "53_1", "location_type": "0"}, "geometry": {"type": "Point", "coordinates": [137.302695, 36.599005]}}, {"type": "Feature", "properties": {"stop_id": "54_1", "stop_name": "稗田", "zone_id": "54_1", "location_type": "0"}, "geometry": {"type": "Point", "coordinates": [137.287198, 36.604285]}}, {"type": "Feature", "properties": {"stop_id": "55_1", "stop_name": "瀧谷口", "zone_id": "55_1", "location_type": "0"}, "geometry": {"type": "Point", "coordinates": [137.279322, 36.604115]}}, {"type": "Feature", "properties": {"stop_id": "56_1", "stop_name": "東黒牧", "zone_id": "56_1", "location_type": "0"}, "geometry": {"type": "Point", "coordinates": [137.269515, 36.603286]}}, {"type": "Feature", "properties": {"stop_id": "57_1", "stop_name": "楜ヶ原", "zone_id": "57_1", "location_type": "0"}, "geometry": {"type": "Point", "coordinates": [137.282998, 36.585087]}}, {"type": "Feature", "properties": {"stop_id": "58_1", "stop_name": "円段", "zone_id": "58_1", "location_type": "0"}, "geometry": {"type": "Point", "coordinates": [137.287931, 36.579184]}}, {"type": "Feature", "properties": {"stop_id": "59_1", "stop_name": "中地山", "zone_id": "59_1", "location_type": "0"}, "geometry": {"type": "Point", "coordinates": [137.367079, 36.568695]}}, {"type": "Feature", "properties": {"stop_id": "60_1", "stop_name": "上野口", "zone_id": "60_1", "location_type": "0"}, "geometry": {"type": "Point", "coordinates": [137.307026, 36.601415]}}, {"type": "Feature", "properties": {"stop_id": "61_1", "stop_name": "徳林寺前", "zone_id": "61_1", "location_type": "0"}, "geometry": {"type": "Point", "coordinates": [137.255558, 36.59633]}}, {"type": "Feature", "properties": {"stop_id": "62_1", "stop_name": "一ノ瀬", "zone_id": "62_1", "location_type": "0"}, "geometry": {"type": "Point", "coordinates": [137.258416, 36.589282]}}, {"type": "Feature", "properties": {"stop_id": "63_1", "stop_name": "布目", "zone_id": "63_1", "location_type": "0"}, "geometry": {"type": "Point", "coordinates": [137.270436, 36.59501]}}, {"type": "Feature", "properties": {"stop_id": "64_1", "stop_name": "楜ヶ原口", "zone_id": "64_1", "location_type": "0"}, "geometry": {"type": "Point", "coordinates": [137.27493, 36.588935]}}, {"type": "Feature", "properties": {"stop_id": "65_1", "stop_name": "樫ノ木", "zone_id": "65_1", "location_type": "0"}, "geometry": {"type": "Point", "coordinates": [137.289928, 36.577238]}}, {"type": "Feature", "properties": {"stop_id": "66_1", "stop_name": "上瀬戸", "zone_id": "66_1", "location_type": "0"}, "geometry": {"type": "Point", "coordinates": [137.274324, 36.56534]}}, {"type": "Feature", "properties": {"stop_id": "12_2", "stop_name": "上滝駅前", "zone_id": "12_2", "location_type": "0"}, "geometry": {"type": "Point", "coordinates": [137.295875, 36.610286]}}, {"type": "Feature", "properties": {"stop_id": "67_1", "stop_name": "月岡駅口", "zone_id": "67_1", "location_type": "0"}, "geometry": {"type": "Point", "coordinates": [137.26263, 36.624593]}}, {"type": "Feature", "properties": {"stop_id": "68_1", "stop_name": "明日美野", "zone_id": "68_1", "location_type": "0"}, "geometry": {"type": "Point", "coordinates": [137.270003, 36.6152]}}, {"type": "Feature", "properties": {"stop_id": "69_1", "stop_name": "田畠", "zone_id": "69_1", "location_type": "0"}, "geometry": {"type": "Point", "coordinates": [137.273537, 36.616561]}}, {"type": "Feature", "properties": {"stop_id": "70_1", "stop_name": "JAあおば前", "zone_id": "70_1", "location_type": "0"}, "geometry": {"type": "Point", "coordinates": [137.275848, 36.617701]}}, {"type": "Feature", "properties": {"stop_id": "71_1", "stop_name": "風見台", "zone_id": "71_1", "location_type": "0"}, "geometry": {"type": "Point", "coordinates": [137.267565, 36.619551]}}, {"type": "Feature", "properties": {"stop_id": "72_1", "stop_name": "月岡団地", "zone_id": "72_1", "location_type": "0"}, "geometry": {"type": "Point", "coordinates": [137.244783, 36.629588]}}, {"type": "Feature", "properties": {"stop_id": "73_1", "stop_name": "大栗", "zone_id": "73_1", "location_type": "0"}, "geometry": {"type": "Point", "coordinates": [137.278361, 36.610692]}}, {"type": "Feature", "properties": {"stop_id": "74_1", "stop_name": "月岡町四丁目", "zone_id": "74_1", "location_type": "0"}, "geometry": {"type": "Point", "coordinates": [137.254344, 36.62419]}}, {"type": "Feature", "properties": {"stop_id": "75_1", "stop_name": "和田", "zone_id": "75_1", "location_type": "0"}, "geometry": {"type": "Point", "coordinates": [137.379074, 36.570335]}}, {"type": "Feature", "properties": {"stop_id": "76_1", "stop_name": "小見小学校前", "zone_id": "76_1", "location_type": "0"}, "geometry": {"type": "Point", "coordinates": [137.384811, 36.572871]}}, {"type": "Feature", "properties": {"stop_id": "77_1", "stop_name": "亀谷", "zone_id": "77_1", "location_type": "0"}, "geometry": {"type": "Point", "coordinates": [137.386485, 36.567563]}}, {"type": "Feature", "properties": {"stop_id": "78_1", "stop_name": "白樺の湯・歴史民俗資料館前", "zone_id": "78_1", "location_type": "0"}, "geometry": {"type": "Point", "coordinates": [137.390383, 36.5665]}}]}