{"type": "FeatureCollection", "name": "stops", "crs": {"type": "name", "properties": {"name": "urn:ogc:def:crs:OGC:1.3:CRS84"}}, "features": [{"type": "Feature", "properties": {"stop_id": "1", "stop_name": "海洋センター前", "zone_id": null, "location_type": "1"}, "geometry": {"type": "Point", "coordinates": [138.328278, 37.187429]}}, {"type": "Feature", "properties": {"stop_id": "1_1", "stop_name": "海洋センター前", "zone_id": null, "location_type": "0"}, "geometry": {"type": "Point", "coordinates": [138.328278, 37.187429]}}, {"type": "Feature", "properties": {"stop_id": "2", "stop_name": "大瀁小学校前", "zone_id": null, "location_type": "1"}, "geometry": {"type": "Point", "coordinates": [138.32993, 37.189613]}}, {"type": "Feature", "properties": {"stop_id": "2_1", "stop_name": "大瀁小学校前", "zone_id": null, "location_type": "0"}, "geometry": {"type": "Point", "coordinates": [138.32993, 37.189613]}}, {"type": "Feature", "properties": {"stop_id": "2_2", "stop_name": "大瀁小学校前", "zone_id": null, "location_type": "0"}, "geometry": {"type": "Point", "coordinates": [138.32993, 37.189613]}}, {"type": "Feature", "properties": {"stop_id": "3", "stop_name": "鵜ノ木入口", "zone_id": null, "location_type": "1"}, "geometry": {"type": "Point", "coordinates": [138.339769, 37.182476]}}, {"type": "Feature", "properties": {"stop_id": "3_1", "stop_name": "鵜ノ木入口", "zone_id": null, "location_type": "0"}, "geometry": {"type": "Point", "coordinates": [138.339769, 37.182476]}}, {"type": "Feature", "properties": {"stop_id": "3_2", "stop_name": "鵜ノ木入口", "zone_id": null, "location_type": "0"}, "geometry": {"type": "Point", "coordinates": [138.339769, 37.182476]}}, {"type": "Feature", "properties": {"stop_id": "4", "stop_name": "中城", "zone_id": null, "location_type": "1"}, "geometry": {"type": "Point", "coordinates": [138.343534, 37.187305]}}, {"type": "Feature", "properties": {"stop_id": "4_1", "stop_name": "中城", "zone_id": null, "location_type": "0"}, "geometry": {"type": "Point", "coordinates": [138.343534, 37.187305]}}, {"type": "Feature", "properties": {"stop_id": "4_2", "stop_name": "中城", "zone_id": null, "location_type": "0"}, "geometry": {"type": "Point", "coordinates": [138.343534, 37.187305]}}, {"type": "Feature", "properties": {"stop_id": "5", "stop_name": "仁野分西", "zone_id": null, "location_type": "1"}, "geometry": {"type": "Point", "coordinates": [138.353148, 37.184596]}}, {"type": "Feature", "properties": {"stop_id": "5_1", "stop_name": "仁野分西", "zone_id": null, "location_type": "0"}, "geometry": {"type": "Point", "coordinates": [138.353148, 37.184596]}}, {"type": "Feature", "properties": {"stop_id": "5_2", "stop_name": "仁野分西", "zone_id": null, "location_type": "0"}, "geometry": {"type": "Point", "coordinates": [138.353148, 37.184596]}}, {"type": "Feature", "properties": {"stop_id": "6", "stop_name": "仁野分南", "zone_id": null, "location_type": "1"}, "geometry": {"type": "Point", "coordinates": [138.352804, 37.18245]}}, {"type": "Feature", "properties": {"stop_id": "6_1", "stop_name": "仁野分南", "zone_id": null, "location_type": "0"}, "geometry": {"type": "Point", "coordinates": [138.352804, 37.18245]}}, {"type": "Feature", "properties": {"stop_id": "6_2", "stop_name": "仁野分南", "zone_id": null, "location_type": "0"}, "geometry": {"type": "Point", "coordinates": [138.352804, 37.18245]}}, {"type": "Feature", "properties": {"stop_id": "7", "stop_name": "中野", "zone_id": null, "location_type": "1"}, "geometry": {"type": "Point", "coordinates": [138.355916, 37.185177]}}, {"type": "Feature", "properties": {"stop_id": "7_1", "stop_name": "中野", "zone_id": null, "location_type": "0"}, "geometry": {"type": "Point", "coordinates": [138.355916, 37.185177]}}, {"type": "Feature", "properties": {"stop_id": "7_2", "stop_name": "中野", "zone_id": null, "location_type": "0"}, "geometry": {"type": "Point", "coordinates": [138.355916, 37.185177]}}, {"type": "Feature", "properties": {"stop_id": "8", "stop_name": "日根津", "zone_id": null, "location_type": "1"}, "geometry": {"type": "Point", "coordinates": [138.357514, 37.190006]}}, {"type": "Feature", "properties": {"stop_id": "8_1", "stop_name": "日根津", "zone_id": null, "location_type": "0"}, "geometry": {"type": "Point", "coordinates": [138.357514, 37.190006]}}, {"type": "Feature", "properties": {"stop_id": "8_2", "stop_name": "日根津", "zone_id": null, "location_type": "0"}, "geometry": {"type": "Point", "coordinates": [138.357514, 37.190006]}}, {"type": "Feature", "properties": {"stop_id": "9", "stop_name": "明治小学校南門", "zone_id": null, "location_type": "1"}, "geometry": {"type": "Point", "coordinates": [138.358362, 37.190211]}}, {"type": "Feature", "properties": {"stop_id": "9_1", "stop_name": "明治小学校南門", "zone_id": null, "location_type": "0"}, "geometry": {"type": "Point", "coordinates": [138.358362, 37.190211]}}, {"type": "Feature", "properties": {"stop_id": "9_2", "stop_name": "明治小学校南門", "zone_id": null, "location_type": "0"}, "geometry": {"type": "Point", "coordinates": [138.358362, 37.190211]}}, {"type": "Feature", "properties": {"stop_id": "10", "stop_name": "仁野分", "zone_id": null, "location_type": "1"}, "geometry": {"type": "Point", "coordinates": [138.354456, 37.18149]}}, {"type": "Feature", "properties": {"stop_id": "10_1", "stop_name": "仁野分", "zone_id": null, "location_type": "0"}, "geometry": {"type": "Point", "coordinates": [138.354456, 37.18149]}}, {"type": "Feature", "properties": {"stop_id": "10_2", "stop_name": "仁野分", "zone_id": null, "location_type": "0"}, "geometry": {"type": "Point", "coordinates": [138.354456, 37.18149]}}, {"type": "Feature", "properties": {"stop_id": "11", "stop_name": "森本", "zone_id": null, "location_type": "1"}, "geometry": {"type": "Point", "coordinates": [138.35245, 37.175476]}}, {"type": "Feature", "properties": {"stop_id": "11_1", "stop_name": "森本", "zone_id": null, "location_type": "0"}, "geometry": {"type": "Point", "coordinates": [138.35245, 37.175476]}}, {"type": "Feature", "properties": {"stop_id": "11_2", "stop_name": "森本", "zone_id": null, "location_type": "0"}, "geometry": {"type": "Point", "coordinates": [138.35245, 37.175476]}}, {"type": "Feature", "properties": {"stop_id": "12", "stop_name": "日根津東", "zone_id": null, "location_type": "1"}, "geometry": {"type": "Point", "coordinates": [138.360958, 37.190023]}}, {"type": "Feature", "properties": {"stop_id": "12_1", "stop_name": "日根津東", "zone_id": null, "location_type": "0"}, "geometry": {"type": "Point", "coordinates": [138.360958, 37.190023]}}, {"type": "Feature", "properties": {"stop_id": "12_2", "stop_name": "日根津東", "zone_id": null, "location_type": "0"}, "geometry": {"type": "Point", "coordinates": [138.360958, 37.190023]}}, {"type": "Feature", "properties": {"stop_id": "13", "stop_name": "大池いこいの森駅", "zone_id": null, "location_type": "1"}, "geometry": {"type": "Point", "coordinates": [138.373028, 37.184527]}}, {"type": "Feature", "properties": {"stop_id": "13_1", "stop_name": "大池いこいの森駅", "zone_id": null, "location_type": "0"}, "geometry": {"type": "Point", "coordinates": [138.373028, 37.184527]}}, {"type": "Feature", "properties": {"stop_id": "14", "stop_name": "大蒲生田", "zone_id": null, "location_type": "1"}, "geometry": {"type": "Point", "coordinates": [138.381343, 37.183963]}}, {"type": "Feature", "properties": {"stop_id": "14_1", "stop_name": "大蒲生田", "zone_id": null, "location_type": "0"}, "geometry": {"type": "Point", "coordinates": [138.381343, 37.183963]}}, {"type": "Feature", "properties": {"stop_id": "14_2", "stop_name": "大蒲生田", "zone_id": null, "location_type": "0"}, "geometry": {"type": "Point", "coordinates": [138.381343, 37.183963]}}, {"type": "Feature", "properties": {"stop_id": "15", "stop_name": "玄僧西", "zone_id": null, "location_type": "1"}, "geometry": {"type": "Point", "coordinates": [138.393627, 37.181493]}}, {"type": "Feature", "properties": {"stop_id": "15_1", "stop_name": "玄僧西", "zone_id": null, "location_type": "0"}, "geometry": {"type": "Point", "coordinates": [138.393627, 37.181493]}}, {"type": "Feature", "properties": {"stop_id": "15_2", "stop_name": "玄僧西", "zone_id": null, "location_type": "0"}, "geometry": {"type": "Point", "coordinates": [138.393627, 37.181493]}}, {"type": "Feature", "properties": {"stop_id": "16", "stop_name": "玄僧東", "zone_id": null, "location_type": "1"}, "geometry": {"type": "Point", "coordinates": [138.399925, 37.180706]}}, {"type": "Feature", "properties": {"stop_id": "16_1", "stop_name": "玄僧東", "zone_id": null, "location_type": "0"}, "geometry": {"type": "Point", "coordinates": [138.399925, 37.180706]}}, {"type": "Feature", "properties": {"stop_id": "17", "stop_name": "ビジター入口", "zone_id": null, "location_type": "1"}, "geometry": {"type": "Point", "coordinates": [138.365775, 37.182296]}}, {"type": "Feature", "properties": {"stop_id": "17_1", "stop_name": "ビジター入口", "zone_id": null, "location_type": "0"}, "geometry": {"type": "Point", "coordinates": [138.365775, 37.182296]}}, {"type": "Feature", "properties": {"stop_id": "17_2", "stop_name": "ビジター入口", "zone_id": null, "location_type": "0"}, "geometry": {"type": "Point", "coordinates": [138.365775, 37.182296]}}, {"type": "Feature", "properties": {"stop_id": "18", "stop_name": "第３キャンプ場前", "zone_id": null, "location_type": "1"}, "geometry": {"type": "Point", "coordinates": [138.365883, 37.174817]}}, {"type": "Feature", "properties": {"stop_id": "18_1", "stop_name": "第３キャンプ場前", "zone_id": null, "location_type": "0"}, "geometry": {"type": "Point", "coordinates": [138.365883, 37.174817]}}, {"type": "Feature", "properties": {"stop_id": "18_2", "stop_name": "第３キャンプ場前", "zone_id": null, "location_type": "0"}, "geometry": {"type": "Point", "coordinates": [138.365883, 37.174817]}}, {"type": "Feature", "properties": {"stop_id": "19", "stop_name": "頚城大池", "zone_id": null, "location_type": "1"}, "geometry": {"type": "Point", "coordinates": [138.369477, 37.171406]}}, {"type": "Feature", "properties": {"stop_id": "19_1", "stop_name": "頚城大池", "zone_id": null, "location_type": "0"}, "geometry": {"type": "Point", "coordinates": [138.369477, 37.171406]}}, {"type": "Feature", "properties": {"stop_id": "19_2", "stop_name": "頚城大池", "zone_id": null, "location_type": "0"}, "geometry": {"type": "Point", "coordinates": [138.369477, 37.171406]}}, {"type": "Feature", "properties": {"stop_id": "20", "stop_name": "石神", "zone_id": null, "location_type": "1"}, "geometry": {"type": "Point", "coordinates": [138.366634, 37.171884]}}, {"type": "Feature", "properties": {"stop_id": "20_1", "stop_name": "石神", "zone_id": null, "location_type": "0"}, "geometry": {"type": "Point", "coordinates": [138.366634, 37.171884]}}, {"type": "Feature", "properties": {"stop_id": "20_2", "stop_name": "石神", "zone_id": null, "location_type": "0"}, "geometry": {"type": "Point", "coordinates": [138.366634, 37.171884]}}, {"type": "Feature", "properties": {"stop_id": "21", "stop_name": "大池入口", "zone_id": null, "location_type": "1"}, "geometry": {"type": "Point", "coordinates": [138.36319, 37.171491]}}, {"type": "Feature", "properties": {"stop_id": "21_1", "stop_name": "大池入口", "zone_id": null, "location_type": "0"}, "geometry": {"type": "Point", "coordinates": [138.36319, 37.171491]}}, {"type": "Feature", "properties": {"stop_id": "21_2", "stop_name": "大池入口", "zone_id": null, "location_type": "0"}, "geometry": {"type": "Point", "coordinates": [138.36319, 37.171491]}}, {"type": "Feature", "properties": {"stop_id": "22", "stop_name": "花ヶ崎", "zone_id": null, "location_type": "1"}, "geometry": {"type": "Point", "coordinates": [138.359059, 37.171773]}}, {"type": "Feature", "properties": {"stop_id": "22_1", "stop_name": "花ヶ崎", "zone_id": null, "location_type": "0"}, "geometry": {"type": "Point", "coordinates": [138.359059, 37.171773]}}, {"type": "Feature", "properties": {"stop_id": "22_2", "stop_name": "花ヶ崎", "zone_id": null, "location_type": "0"}, "geometry": {"type": "Point", "coordinates": [138.359059, 37.171773]}}, {"type": "Feature", "properties": {"stop_id": "23", "stop_name": "森本東", "zone_id": null, "location_type": "1"}, "geometry": {"type": "Point", "coordinates": [138.351817, 37.175543]}}, {"type": "Feature", "properties": {"stop_id": "23_1", "stop_name": "森本東", "zone_id": null, "location_type": "0"}, "geometry": {"type": "Point", "coordinates": [138.351817, 37.175543]}}, {"type": "Feature", "properties": {"stop_id": "23_2", "stop_name": "森本東", "zone_id": null, "location_type": "0"}, "geometry": {"type": "Point", "coordinates": [138.351817, 37.175543]}}, {"type": "Feature", "properties": {"stop_id": "24", "stop_name": "森本西", "zone_id": null, "location_type": "1"}, "geometry": {"type": "Point", "coordinates": [138.348427, 37.176518]}}, {"type": "Feature", "properties": {"stop_id": "24_1", "stop_name": "森本西", "zone_id": null, "location_type": "0"}, "geometry": {"type": "Point", "coordinates": [138.348427, 37.176518]}}, {"type": "Feature", "properties": {"stop_id": "24_2", "stop_name": "森本西", "zone_id": null, "location_type": "0"}, "geometry": {"type": "Point", "coordinates": [138.348427, 37.176518]}}, {"type": "Feature", "properties": {"stop_id": "25", "stop_name": "鵜ノ木", "zone_id": null, "location_type": "1"}, "geometry": {"type": "Point", "coordinates": [138.342601, 37.17927]}}, {"type": "Feature", "properties": {"stop_id": "25_1", "stop_name": "鵜ノ木", "zone_id": null, "location_type": "0"}, "geometry": {"type": "Point", "coordinates": [138.342601, 37.17927]}}, {"type": "Feature", "properties": {"stop_id": "25_2", "stop_name": "鵜ノ木", "zone_id": null, "location_type": "0"}, "geometry": {"type": "Point", "coordinates": [138.342601, 37.17927]}}, {"type": "Feature", "properties": {"stop_id": "26", "stop_name": "中城入口", "zone_id": null, "location_type": "1"}, "geometry": {"type": "Point", "coordinates": [138.338449, 37.181433]}}, {"type": "Feature", "properties": {"stop_id": "26_1", "stop_name": "中城入口", "zone_id": null, "location_type": "0"}, "geometry": {"type": "Point", "coordinates": [138.338449, 37.181433]}}, {"type": "Feature", "properties": {"stop_id": "26_2", "stop_name": "中城入口", "zone_id": null, "location_type": "0"}, "geometry": {"type": "Point", "coordinates": [138.338449, 37.181433]}}, {"type": "Feature", "properties": {"stop_id": "27", "stop_name": "柿野", "zone_id": null, "location_type": "1"}, "geometry": {"type": "Point", "coordinates": [138.334544, 37.183519]}}, {"type": "Feature", "properties": {"stop_id": "27_1", "stop_name": "柿野", "zone_id": null, "location_type": "0"}, "geometry": {"type": "Point", "coordinates": [138.334544, 37.183519]}}, {"type": "Feature", "properties": {"stop_id": "27_2", "stop_name": "柿野", "zone_id": null, "location_type": "0"}, "geometry": {"type": "Point", "coordinates": [138.334544, 37.183519]}}, {"type": "Feature", "properties": {"stop_id": "28", "stop_name": "百間町東", "zone_id": null, "location_type": "1"}, "geometry": {"type": "Point", "coordinates": [138.331459, 37.184741]}}, {"type": "Feature", "properties": {"stop_id": "28_1", "stop_name": "百間町東", "zone_id": null, "location_type": "0"}, "geometry": {"type": "Point", "coordinates": [138.331459, 37.184741]}}, {"type": "Feature", "properties": {"stop_id": "28_2", "stop_name": "百間町東", "zone_id": null, "location_type": "0"}, "geometry": {"type": "Point", "coordinates": [138.331459, 37.184741]}}, {"type": "Feature", "properties": {"stop_id": "29", "stop_name": "百間町十字路", "zone_id": null, "location_type": "1"}, "geometry": {"type": "Point", "coordinates": [138.328734, 37.185955]}}, {"type": "Feature", "properties": {"stop_id": "29_1", "stop_name": "百間町十字路", "zone_id": null, "location_type": "0"}, "geometry": {"type": "Point", "coordinates": [138.328734, 37.185955]}}, {"type": "Feature", "properties": {"stop_id": "29_2", "stop_name": "百間町十字路", "zone_id": null, "location_type": "0"}, "geometry": {"type": "Point", "coordinates": [138.328734, 37.185955]}}, {"type": "Feature", "properties": {"stop_id": "30", "stop_name": "頸城中学校前", "zone_id": null, "location_type": "1"}, "geometry": {"type": "Point", "coordinates": [138.329576, 37.190117]}}, {"type": "Feature", "properties": {"stop_id": "30_1", "stop_name": "頸城中学校前", "zone_id": null, "location_type": "0"}, "geometry": {"type": "Point", "coordinates": [138.329576, 37.190117]}}]}