{"type": "FeatureCollection", "name": "stops", "crs": {"type": "name", "properties": {"name": "urn:ogc:def:crs:OGC:1.3:CRS84"}}, "features": [{"type": "Feature", "properties": {"stop_id": "1_1", "stop_name": "上市高校口", "zone_id": null, "location_type": "0"}, "geometry": {"type": "Point", "coordinates": [137.366899, 36.708132]}}, {"type": "Feature", "properties": {"stop_id": "2_1", "stop_name": "正印西", "zone_id": null, "location_type": "0"}, "geometry": {"type": "Point", "coordinates": [137.342357, 36.701273]}}, {"type": "Feature", "properties": {"stop_id": "3_1", "stop_name": "新相ノ木駅北", "zone_id": null, "location_type": "0"}, "geometry": {"type": "Point", "coordinates": [137.342577, 36.703909]}}, {"type": "Feature", "properties": {"stop_id": "4_1", "stop_name": "神田橋口", "zone_id": null, "location_type": "0"}, "geometry": {"type": "Point", "coordinates": [137.337642, 36.697642]}}, {"type": "Feature", "properties": {"stop_id": "5_1", "stop_name": "広野中北", "zone_id": null, "location_type": "0"}, "geometry": {"type": "Point", "coordinates": [137.388368, 36.712338]}}, {"type": "Feature", "properties": {"stop_id": "6_1", "stop_name": "下経田北", "zone_id": null, "location_type": "0"}, "geometry": {"type": "Point", "coordinates": [137.338023, 36.706373]}}, {"type": "Feature", "properties": {"stop_id": "7_1", "stop_name": "稗田", "zone_id": null, "location_type": "0"}, "geometry": {"type": "Point", "coordinates": [137.354084, 36.695608]}}, {"type": "Feature", "properties": {"stop_id": "8_1", "stop_name": "若杉新", "zone_id": null, "location_type": "0"}, "geometry": {"type": "Point", "coordinates": [137.35, 36.705553]}}, {"type": "Feature", "properties": {"stop_id": "9_1", "stop_name": "正印", "zone_id": null, "location_type": "0"}, "geometry": {"type": "Point", "coordinates": [137.349178, 36.701937]}}, {"type": "Feature", "properties": {"stop_id": "10_1", "stop_name": "新相ノ木駅前", "zone_id": null, "location_type": "0"}, "geometry": {"type": "Point", "coordinates": [137.34263, 36.703054]}}, {"type": "Feature", "properties": {"stop_id": "11_1", "stop_name": "川原田", "zone_id": null, "location_type": "0"}, "geometry": {"type": "Point", "coordinates": [137.342614, 36.697687]}}, {"type": "Feature", "properties": {"stop_id": "12_1", "stop_name": "神田", "zone_id": null, "location_type": "0"}, "geometry": {"type": "Point", "coordinates": [137.337708, 36.692864]}}, {"type": "Feature", "properties": {"stop_id": "13_1", "stop_name": "横越", "zone_id": null, "location_type": "0"}, "geometry": {"type": "Point", "coordinates": [137.341816, 36.689829]}}, {"type": "Feature", "properties": {"stop_id": "14_1", "stop_name": "和合団地", "zone_id": null, "location_type": "0"}, "geometry": {"type": "Point", "coordinates": [137.344851, 36.686898]}}, {"type": "Feature", "properties": {"stop_id": "15_1", "stop_name": "和合公民館", "zone_id": null, "location_type": "0"}, "geometry": {"type": "Point", "coordinates": [137.346567, 36.685353]}}, {"type": "Feature", "properties": {"stop_id": "16_1", "stop_name": "上荒又", "zone_id": null, "location_type": "0"}, "geometry": {"type": "Point", "coordinates": [137.329571, 36.708762]}}, {"type": "Feature", "properties": {"stop_id": "17_1", "stop_name": "相ノ木会館", "zone_id": null, "location_type": "0"}, "geometry": {"type": "Point", "coordinates": [137.328792, 36.714806]}}, {"type": "Feature", "properties": {"stop_id": "18_1", "stop_name": "久金新", "zone_id": null, "location_type": "0"}, "geometry": {"type": "Point", "coordinates": [137.325889, 36.718706]}}, {"type": "Feature", "properties": {"stop_id": "19_1", "stop_name": "下青出", "zone_id": null, "location_type": "0"}, "geometry": {"type": "Point", "coordinates": [137.330243, 36.722271]}}, {"type": "Feature", "properties": {"stop_id": "20_1", "stop_name": "飯坂", "zone_id": null, "location_type": "0"}, "geometry": {"type": "Point", "coordinates": [137.337308, 36.712986]}}, {"type": "Feature", "properties": {"stop_id": "21_1", "stop_name": "放士ケ瀬", "zone_id": null, "location_type": "0"}, "geometry": {"type": "Point", "coordinates": [137.31964, 36.710679]}}, {"type": "Feature", "properties": {"stop_id": "22_1", "stop_name": "江又団地", "zone_id": null, "location_type": "0"}, "geometry": {"type": "Point", "coordinates": [137.347232, 36.712031]}}, {"type": "Feature", "properties": {"stop_id": "23_1", "stop_name": "江上", "zone_id": null, "location_type": "0"}, "geometry": {"type": "Point", "coordinates": [137.346583, 36.716277]}}, {"type": "Feature", "properties": {"stop_id": "24_1", "stop_name": "石仏", "zone_id": null, "location_type": "0"}, "geometry": {"type": "Point", "coordinates": [137.34368, 36.730448]}}, {"type": "Feature", "properties": {"stop_id": "25_1", "stop_name": "大永田", "zone_id": null, "location_type": "0"}, "geometry": {"type": "Point", "coordinates": [137.354763, 36.726524]}}, {"type": "Feature", "properties": {"stop_id": "26_1", "stop_name": "剱町", "zone_id": null, "location_type": "0"}, "geometry": {"type": "Point", "coordinates": [137.357076, 36.715417]}}, {"type": "Feature", "properties": {"stop_id": "27_1", "stop_name": "かみいち総合病院", "zone_id": null, "location_type": "0"}, "geometry": {"type": "Point", "coordinates": [137.361531, 36.703176]}}, {"type": "Feature", "properties": {"stop_id": "28_1", "stop_name": "三杉町", "zone_id": null, "location_type": "0"}, "geometry": {"type": "Point", "coordinates": [137.369637, 36.712498]}}, {"type": "Feature", "properties": {"stop_id": "29_1", "stop_name": "田島野", "zone_id": null, "location_type": "0"}, "geometry": {"type": "Point", "coordinates": [137.375413, 36.709785]}}, {"type": "Feature", "properties": {"stop_id": "30_1", "stop_name": "南加積会館", "zone_id": null, "location_type": "0"}, "geometry": {"type": "Point", "coordinates": [137.380135, 36.711599]}}, {"type": "Feature", "properties": {"stop_id": "31_1", "stop_name": "郷柿沢", "zone_id": null, "location_type": "0"}, "geometry": {"type": "Point", "coordinates": [137.369536, 36.717951]}}, {"type": "Feature", "properties": {"stop_id": "32_1", "stop_name": "上市児童館", "zone_id": null, "location_type": "0"}, "geometry": {"type": "Point", "coordinates": [137.363112, 36.703913]}}, {"type": "Feature", "properties": {"stop_id": "33_1", "stop_name": "湯上野", "zone_id": null, "location_type": "0"}, "geometry": {"type": "Point", "coordinates": [137.366663, 36.698111]}}, {"type": "Feature", "properties": {"stop_id": "34_1", "stop_name": "柿沢二区", "zone_id": null, "location_type": "0"}, "geometry": {"type": "Point", "coordinates": [137.368868, 36.680031]}}, {"type": "Feature", "properties": {"stop_id": "35_1", "stop_name": "柿沢一区", "zone_id": null, "location_type": "0"}, "geometry": {"type": "Point", "coordinates": [137.371152, 36.677165]}}, {"type": "Feature", "properties": {"stop_id": "36_1", "stop_name": "大岩", "zone_id": null, "location_type": "0"}, "geometry": {"type": "Point", "coordinates": [137.389526, 36.662912]}}, {"type": "Feature", "properties": {"stop_id": "37_1", "stop_name": "パル", "zone_id": null, "location_type": "0"}, "geometry": {"type": "Point", "coordinates": [137.360526, 36.698451]}}, {"type": "Feature", "properties": {"stop_id": "38_1", "stop_name": "上市駅前", "zone_id": null, "location_type": "0"}, "geometry": {"type": "Point", "coordinates": [137.357683, 36.704158]}}, {"type": "Feature", "properties": {"stop_id": "39_1", "stop_name": "湯神子", "zone_id": null, "location_type": "0"}, "geometry": {"type": "Point", "coordinates": [137.368498, 36.690235]}}, {"type": "Feature", "properties": {"stop_id": "40_1", "stop_name": "正源寺", "zone_id": null, "location_type": "0"}, "geometry": {"type": "Point", "coordinates": [137.373884, 36.673565]}}, {"type": "Feature", "properties": {"stop_id": "41_1", "stop_name": "旭町", "zone_id": null, "location_type": "0"}, "geometry": {"type": "Point", "coordinates": [137.367897, 36.710093]}}, {"type": "Feature", "properties": {"stop_id": "42_1", "stop_name": "広野", "zone_id": null, "location_type": "0"}, "geometry": {"type": "Point", "coordinates": [137.384157, 36.708756]}}, {"type": "Feature", "properties": {"stop_id": "43_1", "stop_name": "つるぎの味蔵", "zone_id": null, "location_type": "0"}, "geometry": {"type": "Point", "coordinates": [137.383411, 36.717086]}}, {"type": "Feature", "properties": {"stop_id": "44_1", "stop_name": "野開発", "zone_id": null, "location_type": "0"}, "geometry": {"type": "Point", "coordinates": [137.374506, 36.716153]}}, {"type": "Feature", "properties": {"stop_id": "45_1", "stop_name": "南加積小学校", "zone_id": null, "location_type": "0"}, "geometry": {"type": "Point", "coordinates": [137.379178, 36.712472]}}, {"type": "Feature", "properties": {"stop_id": "46_1", "stop_name": "中江上", "zone_id": null, "location_type": "0"}, "geometry": {"type": "Point", "coordinates": [137.349948, 36.718316]}}, {"type": "Feature", "properties": {"stop_id": "47_1", "stop_name": "東江上", "zone_id": null, "location_type": "0"}, "geometry": {"type": "Point", "coordinates": [137.347818, 36.722065]}}, {"type": "Feature", "properties": {"stop_id": "48_1", "stop_name": "森尻", "zone_id": null, "location_type": "0"}, "geometry": {"type": "Point", "coordinates": [137.359201, 36.722035]}}, {"type": "Feature", "properties": {"stop_id": "49_1", "stop_name": "森尻団地", "zone_id": null, "location_type": "0"}, "geometry": {"type": "Point", "coordinates": [137.356836, 36.717937]}}, {"type": "Feature", "properties": {"stop_id": "50_1", "stop_name": "正印新", "zone_id": null, "location_type": "0"}, "geometry": {"type": "Point", "coordinates": [137.334927, 36.701384]}}, {"type": "Feature", "properties": {"stop_id": "51_1", "stop_name": "保健福祉総合センター", "zone_id": null, "location_type": "0"}, "geometry": {"type": "Point", "coordinates": [137.361293, 36.696589]}}, {"type": "Feature", "properties": {"stop_id": "52_1", "stop_name": "上市町役場", "zone_id": null, "location_type": "0"}, "geometry": {"type": "Point", "coordinates": [137.362543, 36.698929]}}, {"type": "Feature", "properties": {"stop_id": "53_1", "stop_name": "上法音寺", "zone_id": null, "location_type": "0"}, "geometry": {"type": "Point", "coordinates": [137.365912, 36.701316]}}, {"type": "Feature", "properties": {"stop_id": "54_1", "stop_name": "荒田", "zone_id": null, "location_type": "0"}, "geometry": {"type": "Point", "coordinates": [137.359255, 36.712115]}}, {"type": "Feature", "properties": {"stop_id": "55_1", "stop_name": "カミール（南）", "zone_id": null, "location_type": "0"}, "geometry": {"type": "Point", "coordinates": [137.363278, 36.705995]}}, {"type": "Feature", "properties": {"stop_id": "56_1", "stop_name": "カミール（北）", "zone_id": null, "location_type": "0"}, "geometry": {"type": "Point", "coordinates": [137.363343, 36.70609]}}, {"type": "Feature", "properties": {"stop_id": "57_1", "stop_name": "三日市", "zone_id": null, "location_type": "0"}, "geometry": {"type": "Point", "coordinates": [137.359207, 36.708154]}}, {"type": "Feature", "properties": {"stop_id": "58_1", "stop_name": "広野新", "zone_id": null, "location_type": "0"}, "geometry": {"type": "Point", "coordinates": [137.376276, 36.719928]}}, {"type": "Feature", "properties": {"stop_id": "59_1", "stop_name": "黒川", "zone_id": null, "location_type": "0"}, "geometry": {"type": "Point", "coordinates": [137.395792, 36.717081]}}, {"type": "Feature", "properties": {"stop_id": "60_1", "stop_name": "中青出", "zone_id": null, "location_type": "0"}, "geometry": {"type": "Point", "coordinates": [137.336649, 36.717739]}}, {"type": "Feature", "properties": {"stop_id": "61_1", "stop_name": "竹鼻", "zone_id": null, "location_type": "0"}, "geometry": {"type": "Point", "coordinates": [137.344798, 36.733747]}}, {"type": "Feature", "properties": {"stop_id": "62_1", "stop_name": "相ノ木新町", "zone_id": null, "location_type": "0"}, "geometry": {"type": "Point", "coordinates": [137.335035, 36.707307]}}, {"type": "Feature", "properties": {"stop_id": "63_1", "stop_name": "大松", "zone_id": null, "location_type": "0"}, "geometry": {"type": "Point", "coordinates": [137.382563, 36.667946]}}, {"type": "Feature", "properties": {"stop_id": "64_1", "stop_name": "大岩西", "zone_id": null, "location_type": "0"}, "geometry": {"type": "Point", "coordinates": [137.387354, 36.666526]}}, {"type": "Feature", "properties": {"stop_id": "65_1", "stop_name": "大松新", "zone_id": null, "location_type": "0"}, "geometry": {"type": "Point", "coordinates": [137.376888, 36.670833]}}, {"type": "Feature", "properties": {"stop_id": "66_1", "stop_name": "柿沢四区", "zone_id": null, "location_type": "0"}, "geometry": {"type": "Point", "coordinates": [137.36573, 36.68414]}}, {"type": "Feature", "properties": {"stop_id": "67_1", "stop_name": "湯崎野", "zone_id": null, "location_type": "0"}, "geometry": {"type": "Point", "coordinates": [137.367457, 36.694417]}}, {"type": "Feature", "properties": {"stop_id": "68_1", "stop_name": "柿沢三区", "zone_id": null, "location_type": "0"}, "geometry": {"type": "Point", "coordinates": [137.367328, 36.681898]}}, {"type": "Feature", "properties": {"stop_id": "69_1", "stop_name": "黒川（東）", "zone_id": null, "location_type": "0"}, "geometry": {"type": "Point", "coordinates": [137.399595, 36.716071]}}]}