{"type": "FeatureCollection", "name": "stops", "crs": {"type": "name", "properties": {"name": "urn:ogc:def:crs:OGC:1.3:CRS84"}}, "features": [{"type": "Feature", "properties": {"stop_id": "i-1_01", "stop_name": "法花寺", "zone_id": "i-1_01", "location_type": "0"}, "geometry": {"type": "Point", "coordinates": [137.357699750519, 36.7589497321708]}}, {"type": "Feature", "properties": {"stop_id": "9575_01", "stop_name": "河端町", "zone_id": "9575_01", "location_type": "0"}, "geometry": {"type": "Point", "coordinates": [137.334597134142, 36.7626225157001]}}, {"type": "Feature", "properties": {"stop_id": "9580_01", "stop_name": "滑川駅前", "zone_id": "9580_01", "location_type": "0"}, "geometry": {"type": "Point", "coordinates": [137.348214705144, 36.7697875325]}}, {"type": "Feature", "properties": {"stop_id": "10141_01", "stop_name": "市民交流プラザ・エール前", "zone_id": "10141_01", "location_type": "0"}, "geometry": {"type": "Point", "coordinates": [137.34593109757, 36.769145445]}}, {"type": "Feature", "properties": {"stop_id": "10142_01", "stop_name": "市役所前", "zone_id": "10142_01", "location_type": "0"}, "geometry": {"type": "Point", "coordinates": [137.341339407095, 36.7635911699333]}}, {"type": "Feature", "properties": {"stop_id": "10143_01", "stop_name": "中滑川駅前", "zone_id": "10143_01", "location_type": "0"}, "geometry": {"type": "Point", "coordinates": [137.34085076119, 36.7623859687001]}}, {"type": "Feature", "properties": {"stop_id": "10144_01", "stop_name": "泉ケ丘・児童館口", "zone_id": "10144_01", "location_type": "0"}, "geometry": {"type": "Point", "coordinates": [137.345120493143, 36.7600336962]}}, {"type": "Feature", "properties": {"stop_id": "10145_01", "stop_name": "行田公園口", "zone_id": "10145_01", "location_type": "0"}, "geometry": {"type": "Point", "coordinates": [137.34948538, 36.7624610083]}}, {"type": "Feature", "properties": {"stop_id": "10146_01", "stop_name": "柳原大橋", "zone_id": "10146_01", "location_type": "0"}, "geometry": {"type": "Point", "coordinates": [137.354784634238, 36.7655327803667]}}, {"type": "Feature", "properties": {"stop_id": "10147_01", "stop_name": "JAアルプスなめりかわ支店前", "zone_id": "10147_01", "location_type": "0"}, "geometry": {"type": "Point", "coordinates": [137.358832511666, 36.7642016629668]}}, {"type": "Feature", "properties": {"stop_id": "10147_02", "stop_name": "JAアルプスなめりかわ支店前", "zone_id": "10147_02", "location_type": "0"}, "geometry": {"type": "Point", "coordinates": [137.36017536881, 36.7653183296334]}}, {"type": "Feature", "properties": {"stop_id": "10148_01", "stop_name": "野町", "zone_id": "10148_01", "location_type": "0"}, "geometry": {"type": "Point", "coordinates": [137.363705799857, 36.7628770235334]}}, {"type": "Feature", "properties": {"stop_id": "10149_01", "stop_name": "早月中学校口", "zone_id": "10149_01", "location_type": "0"}, "geometry": {"type": "Point", "coordinates": [137.366326736762, 36.7625818641334]}}, {"type": "Feature", "properties": {"stop_id": "10150_01", "stop_name": "大島新", "zone_id": "10150_01", "location_type": "0"}, "geometry": {"type": "Point", "coordinates": [137.373963022, 36.7618085106]}}, {"type": "Feature", "properties": {"stop_id": "10151_01", "stop_name": "北加積小学校口", "zone_id": "10151_01", "location_type": "0"}, "geometry": {"type": "Point", "coordinates": [137.374054357714, 36.7586125834]}}, {"type": "Feature", "properties": {"stop_id": "10152_01", "stop_name": "中新", "zone_id": "10152_01", "location_type": "0"}, "geometry": {"type": "Point", "coordinates": [137.373412220714, 36.7547318276]}}, {"type": "Feature", "properties": {"stop_id": "10153_01", "stop_name": "横道", "zone_id": "10153_01", "location_type": "0"}, "geometry": {"type": "Point", "coordinates": [137.380081804381, 36.7553936092334]}}, {"type": "Feature", "properties": {"stop_id": "10154_01", "stop_name": "二塚", "zone_id": "10154_01", "location_type": "0"}, "geometry": {"type": "Point", "coordinates": [137.382039085619, 36.7593219156]}}, {"type": "Feature", "properties": {"stop_id": "10155_01", "stop_name": "大榎", "zone_id": "10155_01", "location_type": "0"}, "geometry": {"type": "Point", "coordinates": [137.392302946429, 36.7554096804667]}}, {"type": "Feature", "properties": {"stop_id": "10156_01", "stop_name": "森野新", "zone_id": "10156_01", "location_type": "0"}, "geometry": {"type": "Point", "coordinates": [137.395185384381, 36.7536343486333]}}, {"type": "Feature", "properties": {"stop_id": "10157_01", "stop_name": "杉本", "zone_id": "10157_01", "location_type": "0"}, "geometry": {"type": "Point", "coordinates": [137.402735333095, 36.7545025782999]}}, {"type": "Feature", "properties": {"stop_id": "10157_02", "stop_name": "杉本", "zone_id": "10157_02", "location_type": "0"}, "geometry": {"type": "Point", "coordinates": [137.401889618809, 36.7553475782999]}}, {"type": "Feature", "properties": {"stop_id": "10158_01", "stop_name": "下大浦", "zone_id": "10158_01", "location_type": "0"}, "geometry": {"type": "Point", "coordinates": [137.406851180095, 36.7528540183667]}}, {"type": "Feature", "properties": {"stop_id": "10159_01", "stop_name": "発電所口", "zone_id": "10159_01", "location_type": "0"}, "geometry": {"type": "Point", "coordinates": [137.413227764428, 36.7517143299001]}}, {"type": "Feature", "properties": {"stop_id": "10160_01", "stop_name": "大浦", "zone_id": "10160_01", "location_type": "0"}, "geometry": {"type": "Point", "coordinates": [137.416979284, 36.7498407555]}}, {"type": "Feature", "properties": {"stop_id": "10161_01", "stop_name": "上大浦", "zone_id": "10161_01", "location_type": "0"}, "geometry": {"type": "Point", "coordinates": [137.421982884, 36.7484094268]}}, {"type": "Feature", "properties": {"stop_id": "10163_01", "stop_name": "みのわ温泉", "zone_id": "10163_01", "location_type": "0"}, "geometry": {"type": "Point", "coordinates": [137.436759480143, 36.7272244338]}}, {"type": "Feature", "properties": {"stop_id": "10164_01", "stop_name": "あづま公園前", "zone_id": "10164_01", "location_type": "0"}, "geometry": {"type": "Point", "coordinates": [137.343162883857, 36.7678190221]}}, {"type": "Feature", "properties": {"stop_id": "10165_01", "stop_name": "厚生連滑川病院前", "zone_id": "10165_01", "location_type": "0"}, "geometry": {"type": "Point", "coordinates": [137.344686456, 36.7698327107]}}, {"type": "Feature", "properties": {"stop_id": "10166_01", "stop_name": "中川原", "zone_id": "10166_01", "location_type": "0"}, "geometry": {"type": "Point", "coordinates": [137.346496409429, 36.7724916857]}}, {"type": "Feature", "properties": {"stop_id": "10167_01", "stop_name": "アクアポケット前", "zone_id": "10167_01", "location_type": "0"}, "geometry": {"type": "Point", "coordinates": [137.348434801, 36.7754070166]}}, {"type": "Feature", "properties": {"stop_id": "10168_01", "stop_name": "ほたるいかミュージアム前", "zone_id": "10168_01", "location_type": "0"}, "geometry": {"type": "Point", "coordinates": [137.345514283714, 36.7747535726667]}}, {"type": "Feature", "properties": {"stop_id": "10169_01", "stop_name": "常盤町2区公民館口", "zone_id": "10169_01", "location_type": "0"}, "geometry": {"type": "Point", "coordinates": [137.342770603857, 36.7704707303]}}, {"type": "Feature", "properties": {"stop_id": "10170_01", "stop_name": "櫟原神社前", "zone_id": "10170_01", "location_type": "0"}, "geometry": {"type": "Point", "coordinates": [137.340892735143, 36.7686937103]}}, {"type": "Feature", "properties": {"stop_id": "10171_01", "stop_name": "中町会館前", "zone_id": "10171_01", "location_type": "0"}, "geometry": {"type": "Point", "coordinates": [137.338226840714, 36.7668480924]}}, {"type": "Feature", "properties": {"stop_id": "10172_01", "stop_name": "本陣遊園前", "zone_id": "10172_01", "location_type": "0"}, "geometry": {"type": "Point", "coordinates": [137.336706080239, 36.7656722777333]}}, {"type": "Feature", "properties": {"stop_id": "10173_01", "stop_name": "橋場", "zone_id": "10173_01", "location_type": "0"}, "geometry": {"type": "Point", "coordinates": [137.336087756, 36.764109637]}}, {"type": "Feature", "properties": {"stop_id": "10174_01", "stop_name": "雪嶋神社前", "zone_id": "10174_01", "location_type": "0"}, "geometry": {"type": "Point", "coordinates": [137.332167074, 36.7617900177]}}, {"type": "Feature", "properties": {"stop_id": "10175_01", "stop_name": "加島町3区", "zone_id": "10175_01", "location_type": "0"}, "geometry": {"type": "Point", "coordinates": [137.329584673, 36.7609737485]}}, {"type": "Feature", "properties": {"stop_id": "10176_01", "stop_name": "領家町公民館前", "zone_id": "10176_01", "location_type": "0"}, "geometry": {"type": "Point", "coordinates": [137.328043011286, 36.7606106105]}}, {"type": "Feature", "properties": {"stop_id": "10177_01", "stop_name": "高月東部公民館前", "zone_id": "10177_01", "location_type": "0"}, "geometry": {"type": "Point", "coordinates": [137.326546922714, 36.7602024725]}}, {"type": "Feature", "properties": {"stop_id": "10178_01", "stop_name": "高月西部", "zone_id": "10178_01", "location_type": "0"}, "geometry": {"type": "Point", "coordinates": [137.324615782143, 36.759756183]}}, {"type": "Feature", "properties": {"stop_id": "10179_01", "stop_name": "魚躬西", "zone_id": "10179_01", "location_type": "0"}, "geometry": {"type": "Point", "coordinates": [137.317022902, 36.7568091906]}}, {"type": "Feature", "properties": {"stop_id": "10180_01", "stop_name": "魚躬公民館前", "zone_id": "10180_01", "location_type": "0"}, "geometry": {"type": "Point", "coordinates": [137.324227917, 36.7540048711]}}, {"type": "Feature", "properties": {"stop_id": "10181_01", "stop_name": "大阪屋ショップ前", "zone_id": "10181_01", "location_type": "0"}, "geometry": {"type": "Point", "coordinates": [137.325527102285, 36.7560659094333]}}, {"type": "Feature", "properties": {"stop_id": "10182_01", "stop_name": "緑町公民館前", "zone_id": "10182_01", "location_type": "0"}, "geometry": {"type": "Point", "coordinates": [137.328831198, 36.7568520978]}}, {"type": "Feature", "properties": {"stop_id": "10183_01", "stop_name": "加島町消防分団前", "zone_id": "10183_01", "location_type": "0"}, "geometry": {"type": "Point", "coordinates": [137.333929381, 36.7582487398]}}, {"type": "Feature", "properties": {"stop_id": "10184_01", "stop_name": "幸町会館前", "zone_id": "10184_01", "location_type": "0"}, "geometry": {"type": "Point", "coordinates": [137.33212567, 36.7541091546]}}, {"type": "Feature", "properties": {"stop_id": "10185_01", "stop_name": "江尻公民館前", "zone_id": "10185_01", "location_type": "0"}, "geometry": {"type": "Point", "coordinates": [137.330334397, 36.7495950465]}}, {"type": "Feature", "properties": {"stop_id": "10187_01", "stop_name": "西滑川駅前", "zone_id": "10187_01", "location_type": "0"}, "geometry": {"type": "Point", "coordinates": [137.334147925, 36.7558426935]}}, {"type": "Feature", "properties": {"stop_id": "10188_01", "stop_name": "下島公民館口", "zone_id": "10188_01", "location_type": "0"}, "geometry": {"type": "Point", "coordinates": [137.336832859143, 36.758058018]}}, {"type": "Feature", "properties": {"stop_id": "10189_01", "stop_name": "市民健康センター口", "zone_id": "10189_01", "location_type": "0"}, "geometry": {"type": "Point", "coordinates": [137.33903375, 36.759652405]}}, {"type": "Feature", "properties": {"stop_id": "10190_01", "stop_name": "滑川中学校前", "zone_id": "10190_01", "location_type": "0"}, "geometry": {"type": "Point", "coordinates": [137.34132323, 36.7552446245]}}, {"type": "Feature", "properties": {"stop_id": "10191_01", "stop_name": "上島", "zone_id": "10191_01", "location_type": "0"}, "geometry": {"type": "Point", "coordinates": [137.343953883, 36.7522456574]}}, {"type": "Feature", "properties": {"stop_id": "10194_01", "stop_name": "プラント3前", "zone_id": "10194_01", "location_type": "0"}, "geometry": {"type": "Point", "coordinates": [137.352430938857, 36.7518159459333]}}, {"type": "Feature", "properties": {"stop_id": "10195_01", "stop_name": "宮窪台口", "zone_id": "10195_01", "location_type": "0"}, "geometry": {"type": "Point", "coordinates": [137.360856449239, 36.7548007641667]}}, {"type": "Feature", "properties": {"stop_id": "10196_01", "stop_name": "宮窪", "zone_id": "10196_01", "location_type": "0"}, "geometry": {"type": "Point", "coordinates": [137.363916365857, 36.753382319]}}, {"type": "Feature", "properties": {"stop_id": "10197_01", "stop_name": "七口西", "zone_id": "10197_01", "location_type": "0"}, "geometry": {"type": "Point", "coordinates": [137.3668938, 36.7490946265]}}, {"type": "Feature", "properties": {"stop_id": "10198_01", "stop_name": "小林", "zone_id": "10198_01", "location_type": "0"}, "geometry": {"type": "Point", "coordinates": [137.368035497, 36.7454553745]}}, {"type": "Feature", "properties": {"stop_id": "10199_01", "stop_name": "高柳", "zone_id": "10199_01", "location_type": "0"}, "geometry": {"type": "Point", "coordinates": [137.369519104, 36.7424817107]}}, {"type": "Feature", "properties": {"stop_id": "10200_01", "stop_name": "柴", "zone_id": "10200_01", "location_type": "0"}, "geometry": {"type": "Point", "coordinates": [137.372770698286, 36.7399958766]}}, {"type": "Feature", "properties": {"stop_id": "10201_01", "stop_name": "安田", "zone_id": "10201_01", "location_type": "0"}, "geometry": {"type": "Point", "coordinates": [137.3760153, 36.7343757259]}}, {"type": "Feature", "properties": {"stop_id": "10202_01", "stop_name": "田林公民館前", "zone_id": "10202_01", "location_type": "0"}, "geometry": {"type": "Point", "coordinates": [137.384401707286, 36.7332477946]}}, {"type": "Feature", "properties": {"stop_id": "10203_01", "stop_name": "東福寺野", "zone_id": "10203_01", "location_type": "0"}, "geometry": {"type": "Point", "coordinates": [137.407897172429, 36.7314642762667]}}, {"type": "Feature", "properties": {"stop_id": "10204_01", "stop_name": "東福寺野自然公園", "zone_id": "10204_01", "location_type": "0"}, "geometry": {"type": "Point", "coordinates": [137.418848369857, 36.7273069305999]}}, {"type": "Feature", "properties": {"stop_id": "10205_01", "stop_name": "小杉谷", "zone_id": "10205_01", "location_type": "0"}, "geometry": {"type": "Point", "coordinates": [137.391481281857, 36.7287503928]}}, {"type": "Feature", "properties": {"stop_id": "10206_01", "stop_name": "小杉谷口", "zone_id": "10206_01", "location_type": "0"}, "geometry": {"type": "Point", "coordinates": [137.38687050719, 36.7278436509]}}, {"type": "Feature", "properties": {"stop_id": "10207_01", "stop_name": "小森新", "zone_id": "10207_01", "location_type": "0"}, "geometry": {"type": "Point", "coordinates": [137.390236917, 36.7227669921]}}, {"type": "Feature", "properties": {"stop_id": "10208_01", "stop_name": "小森", "zone_id": "10208_01", "location_type": "0"}, "geometry": {"type": "Point", "coordinates": [137.392065623, 36.7203093654]}}, {"type": "Feature", "properties": {"stop_id": "10209_01", "stop_name": "旧JA山加積支店前", "zone_id": "10209_01", "location_type": "0"}, "geometry": {"type": "Point", "coordinates": [137.383908503286, 36.7278332528]}}, {"type": "Feature", "properties": {"stop_id": "10210_01", "stop_name": "本江", "zone_id": "10210_01", "location_type": "0"}, "geometry": {"type": "Point", "coordinates": [137.378971153, 36.730422657]}}, {"type": "Feature", "properties": {"stop_id": "10211_01", "stop_name": "滑川駅南口", "zone_id": "10211_01", "location_type": "0"}, "geometry": {"type": "Point", "coordinates": [137.348954657715, 36.7688014863334]}}, {"type": "Feature", "properties": {"stop_id": "10212_01", "stop_name": "辰野新町", "zone_id": "10212_01", "location_type": "0"}, "geometry": {"type": "Point", "coordinates": [137.355244395095, 36.7715110898]}}, {"type": "Feature", "properties": {"stop_id": "10213_01", "stop_name": "藤栄公民館口", "zone_id": "10213_01", "location_type": "0"}, "geometry": {"type": "Point", "coordinates": [137.358376711667, 36.7718724815333]}}, {"type": "Feature", "properties": {"stop_id": "10214_01", "stop_name": "浜加積保育園前", "zone_id": "10214_01", "location_type": "0"}, "geometry": {"type": "Point", "coordinates": [137.363202794, 36.7740173645]}}, {"type": "Feature", "properties": {"stop_id": "10215_01", "stop_name": "北野西部", "zone_id": "10215_01", "location_type": "0"}, "geometry": {"type": "Point", "coordinates": [137.368338668, 36.7716090685]}}, {"type": "Feature", "properties": {"stop_id": "10216_01", "stop_name": "東部小学校前", "zone_id": "10216_01", "location_type": "0"}, "geometry": {"type": "Point", "coordinates": [137.373749949286, 36.7753031616333]}}, {"type": "Feature", "properties": {"stop_id": "10217_01", "stop_name": "追分会館前", "zone_id": "10217_01", "location_type": "0"}, "geometry": {"type": "Point", "coordinates": [137.377532668143, 36.7788383981]}}, {"type": "Feature", "properties": {"stop_id": "10219_01", "stop_name": "大島公民館前", "zone_id": "10219_01", "location_type": "0"}, "geometry": {"type": "Point", "coordinates": [137.388094022762, 36.7868354705]}}, {"type": "Feature", "properties": {"stop_id": "10220_01", "stop_name": "中村", "zone_id": "10220_01", "location_type": "0"}, "geometry": {"type": "Point", "coordinates": [137.385223495571, 36.7902341913667]}}, {"type": "Feature", "properties": {"stop_id": "10221_01", "stop_name": "東滑川駅口", "zone_id": "10221_01", "location_type": "0"}, "geometry": {"type": "Point", "coordinates": [137.380745431143, 36.7902258891]}}, {"type": "Feature", "properties": {"stop_id": "10223_01", "stop_name": "中村西", "zone_id": "10223_01", "location_type": "0"}, "geometry": {"type": "Point", "coordinates": [137.379110944429, 36.7937990688333]}}, {"type": "Feature", "properties": {"stop_id": "10224_01", "stop_name": "カモメ荘口", "zone_id": "10224_01", "location_type": "0"}, "geometry": {"type": "Point", "coordinates": [137.373164480714, 36.7909220828]}}, {"type": "Feature", "properties": {"stop_id": "10225_01", "stop_name": "笠木", "zone_id": "10225_01", "location_type": "0"}, "geometry": {"type": "Point", "coordinates": [137.370885695, 36.786719135]}}, {"type": "Feature", "properties": {"stop_id": "10226_01", "stop_name": "浜四ツ屋", "zone_id": "10226_01", "location_type": "0"}, "geometry": {"type": "Point", "coordinates": [137.368408891429, 36.7829743165]}}, {"type": "Feature", "properties": {"stop_id": "10229_01", "stop_name": "高塚西", "zone_id": "10229_01", "location_type": "0"}, "geometry": {"type": "Point", "coordinates": [137.353805649667, 36.7774527162667]}}, {"type": "Feature", "properties": {"stop_id": "10230_01", "stop_name": "坪川", "zone_id": "10230_01", "location_type": "0"}, "geometry": {"type": "Point", "coordinates": [137.352054197809, 36.7762093135]}}, {"type": "Feature", "properties": {"stop_id": "10231_01", "stop_name": "中川原西", "zone_id": "10231_01", "location_type": "0"}, "geometry": {"type": "Point", "coordinates": [137.344947686667, 36.7724680914]}}, {"type": "Feature", "properties": {"stop_id": "10232_01", "stop_name": "滑川郵便局前", "zone_id": "10232_01", "location_type": "0"}, "geometry": {"type": "Point", "coordinates": [137.343741999, 36.763732131]}}, {"type": "Feature", "properties": {"stop_id": "10233_01", "stop_name": "上小泉東", "zone_id": "10233_01", "location_type": "0"}, "geometry": {"type": "Point", "coordinates": [137.353961125715, 36.7570729809666]}}, {"type": "Feature", "properties": {"stop_id": "10234_01", "stop_name": "パスタ前", "zone_id": "10234_01", "location_type": "0"}, "geometry": {"type": "Point", "coordinates": [137.355712349429, 36.7588305644333]}}, {"type": "Feature", "properties": {"stop_id": "10236_01", "stop_name": "稲泉", "zone_id": "10236_01", "location_type": "0"}, "geometry": {"type": "Point", "coordinates": [137.365634873714, 36.7572341493333]}}, {"type": "Feature", "properties": {"stop_id": "10237_01", "stop_name": "宮窪公民館口", "zone_id": "10237_01", "location_type": "0"}, "geometry": {"type": "Point", "coordinates": [137.365643241095, 36.7537890161]}}, {"type": "Feature", "properties": {"stop_id": "10238_01", "stop_name": "七口", "zone_id": "10238_01", "location_type": "0"}, "geometry": {"type": "Point", "coordinates": [137.368824211524, 36.7509481002667]}}, {"type": "Feature", "properties": {"stop_id": "10239_01", "stop_name": "四屋新", "zone_id": "10239_01", "location_type": "0"}, "geometry": {"type": "Point", "coordinates": [137.371641842762, 36.7490682911334]}}, {"type": "Feature", "properties": {"stop_id": "10240_01", "stop_name": "栃山", "zone_id": "10240_01", "location_type": "0"}, "geometry": {"type": "Point", "coordinates": [137.374569512619, 36.7482004971333]}}, {"type": "Feature", "properties": {"stop_id": "10241_01", "stop_name": "金屋", "zone_id": "10241_01", "location_type": "0"}, "geometry": {"type": "Point", "coordinates": [137.378480142048, 36.7472229140667]}}, {"type": "Feature", "properties": {"stop_id": "10242_01", "stop_name": "東金屋", "zone_id": "10242_01", "location_type": "0"}, "geometry": {"type": "Point", "coordinates": [137.38371074381, 36.7451799452666]}}, {"type": "Feature", "properties": {"stop_id": "10243_01", "stop_name": "金屋開", "zone_id": "10243_01", "location_type": "0"}, "geometry": {"type": "Point", "coordinates": [137.388229095286, 36.7420964620333]}}, {"type": "Feature", "properties": {"stop_id": "10244_01", "stop_name": "開", "zone_id": "10244_01", "location_type": "0"}, "geometry": {"type": "Point", "coordinates": [137.390512746191, 36.7405159451334]}}, {"type": "Feature", "properties": {"stop_id": "10245_01", "stop_name": "博物館前", "zone_id": "10245_01", "location_type": "0"}, "geometry": {"type": "Point", "coordinates": [137.391577273191, 36.7416267929666]}}, {"type": "Feature", "properties": {"stop_id": "10246_01", "stop_name": "東加積小学校前", "zone_id": "10246_01", "location_type": "0"}, "geometry": {"type": "Point", "coordinates": [137.396039224857, 36.745137916]}}, {"type": "Feature", "properties": {"stop_id": "10247_01", "stop_name": "東加積コミュニティセンター前", "zone_id": "10247_01", "location_type": "0"}, "geometry": {"type": "Point", "coordinates": [137.399412119619, 36.7497220862667]}}, {"type": "Feature", "properties": {"stop_id": "10248_01", "stop_name": "大崎野", "zone_id": "10248_01", "location_type": "0"}, "geometry": {"type": "Point", "coordinates": [137.404932939, 36.7507013674667]}}, {"type": "Feature", "properties": {"stop_id": "10249_01", "stop_name": "下大浦西", "zone_id": "10249_01", "location_type": "0"}, "geometry": {"type": "Point", "coordinates": [137.408390971, 36.7499813411]}}, {"type": "Feature", "properties": {"stop_id": "10250_01", "stop_name": "下大浦東", "zone_id": "10250_01", "location_type": "0"}, "geometry": {"type": "Point", "coordinates": [137.410588435, 36.7473503698]}}, {"type": "Feature", "properties": {"stop_id": "10251_01", "stop_name": "室山", "zone_id": "10251_01", "location_type": "0"}, "geometry": {"type": "Point", "coordinates": [137.42053661881, 36.7412153197333]}}, {"type": "Feature", "properties": {"stop_id": "10252_01", "stop_name": "大日", "zone_id": "10252_01", "location_type": "0"}, "geometry": {"type": "Point", "coordinates": [137.421661775, 36.7398545005]}}, {"type": "Feature", "properties": {"stop_id": "10253_01", "stop_name": "千鳥", "zone_id": "10253_01", "location_type": "0"}, "geometry": {"type": "Point", "coordinates": [137.415887054286, 36.7394354984]}}, {"type": "Feature", "properties": {"stop_id": "10254_01", "stop_name": "中野", "zone_id": "10254_01", "location_type": "0"}, "geometry": {"type": "Point", "coordinates": [137.411250822, 36.7406195464]}}, {"type": "Feature", "properties": {"stop_id": "10255_01", "stop_name": "中野口", "zone_id": "10255_01", "location_type": "0"}, "geometry": {"type": "Point", "coordinates": [137.408760425, 36.7411760088]}}, {"type": "Feature", "properties": {"stop_id": "10256_01", "stop_name": "下野", "zone_id": "10256_01", "location_type": "0"}, "geometry": {"type": "Point", "coordinates": [137.405136696, 36.740079849]}}, {"type": "Feature", "properties": {"stop_id": "10257_01", "stop_name": "東福寺開", "zone_id": "10257_01", "location_type": "0"}, "geometry": {"type": "Point", "coordinates": [137.402279842, 36.7390178913]}}, {"type": "Feature", "properties": {"stop_id": "10258_01", "stop_name": "上開", "zone_id": "10258_01", "location_type": "0"}, "geometry": {"type": "Point", "coordinates": [137.398210331, 36.739054444]}}, {"type": "Feature", "properties": {"stop_id": "10259_01", "stop_name": "中開", "zone_id": "10259_01", "location_type": "0"}, "geometry": {"type": "Point", "coordinates": [137.394044702, 36.7398476025]}}, {"type": "Feature", "properties": {"stop_id": "10261_01", "stop_name": "中野島公民館前", "zone_id": "10261_01", "location_type": "0"}, "geometry": {"type": "Point", "coordinates": [137.368901639, 36.7684042865]}}, {"type": "Feature", "properties": {"stop_id": "10262_01", "stop_name": "北野中部", "zone_id": "10262_01", "location_type": "0"}, "geometry": {"type": "Point", "coordinates": [137.373765617, 36.769824195]}}, {"type": "Feature", "properties": {"stop_id": "10263_01", "stop_name": "北野公民館前", "zone_id": "10263_01", "location_type": "0"}, "geometry": {"type": "Point", "coordinates": [137.378622318143, 36.7692215517]}}, {"type": "Feature", "properties": {"stop_id": "10264_01", "stop_name": "四ツ屋東", "zone_id": "10264_01", "location_type": "0"}, "geometry": {"type": "Point", "coordinates": [137.379048434, 36.7731611457]}}, {"type": "Feature", "properties": {"stop_id": "10265_01", "stop_name": "早月加積地区公民館口", "zone_id": "10265_01", "location_type": "0"}, "geometry": {"type": "Point", "coordinates": [137.381202889, 36.7775345602]}}, {"type": "Feature", "properties": {"stop_id": "10266_01", "stop_name": "追分東", "zone_id": "10266_01", "location_type": "0"}, "geometry": {"type": "Point", "coordinates": [137.382207590476, 36.7820169376]}}, {"type": "Feature", "properties": {"stop_id": "10267_01", "stop_name": "日本カーバイド早月工場前", "zone_id": "10267_01", "location_type": "0"}, "geometry": {"type": "Point", "coordinates": [137.387801714, 36.7789601127]}}, {"type": "Feature", "properties": {"stop_id": "10268_01", "stop_name": "大掛", "zone_id": "10268_01", "location_type": "0"}, "geometry": {"type": "Point", "coordinates": [137.391231912857, 36.7737145063]}}, {"type": "Feature", "properties": {"stop_id": "10269_01", "stop_name": "グリーンタウン北野口", "zone_id": "10269_01", "location_type": "0"}, "geometry": {"type": "Point", "coordinates": [137.385258524, 36.7706899806]}}, {"type": "Feature", "properties": {"stop_id": "10271_01", "stop_name": "大窪口", "zone_id": "10271_01", "location_type": "0"}, "geometry": {"type": "Point", "coordinates": [137.387749977, 36.7665426418]}}, {"type": "Feature", "properties": {"stop_id": "10272_01", "stop_name": "大窪", "zone_id": "10272_01", "location_type": "0"}, "geometry": {"type": "Point", "coordinates": [137.391943169857, 36.7643395661]}}, {"type": "Feature", "properties": {"stop_id": "10273_01", "stop_name": "YKKAP滑川製造所前", "zone_id": "10273_01", "location_type": "0"}, "geometry": {"type": "Point", "coordinates": [137.392242777095, 36.7596859298333]}}, {"type": "Feature", "properties": {"stop_id": "10274_01", "stop_name": "栗山橋", "zone_id": "10274_01", "location_type": "0"}, "geometry": {"type": "Point", "coordinates": [137.401167322238, 36.7627666808334]}}, {"type": "Feature", "properties": {"stop_id": "10275_01", "stop_name": "栗山公民館前", "zone_id": "10275_01", "location_type": "0"}, "geometry": {"type": "Point", "coordinates": [137.399873027286, 36.7644466621]}}, {"type": "Feature", "properties": {"stop_id": "10276_01", "stop_name": "栗山北", "zone_id": "10276_01", "location_type": "0"}, "geometry": {"type": "Point", "coordinates": [137.393016470857, 36.7688219204]}}, {"type": "Feature", "properties": {"stop_id": "10279_01", "stop_name": "上小泉中吉川", "zone_id": "10279_01", "location_type": "0"}, "geometry": {"type": "Point", "coordinates": [137.34535473, 36.7570143814]}}, {"type": "Feature", "properties": {"stop_id": "10280_01", "stop_name": "明文堂書店口", "zone_id": "10280_01", "location_type": "0"}, "geometry": {"type": "Point", "coordinates": [137.347778566, 36.7544358818]}}, {"type": "Feature", "properties": {"stop_id": "10281_01", "stop_name": "上梅沢公民館前", "zone_id": "10281_01", "location_type": "0"}, "geometry": {"type": "Point", "coordinates": [137.354619204, 36.7485086899]}}, {"type": "Feature", "properties": {"stop_id": "10282_01", "stop_name": "上梅沢ニュータウン", "zone_id": "10282_01", "location_type": "0"}, "geometry": {"type": "Point", "coordinates": [137.349399565143, 36.7452601684]}}, {"type": "Feature", "properties": {"stop_id": "10283_01", "stop_name": "西加積地区公民館前", "zone_id": "10283_01", "location_type": "0"}, "geometry": {"type": "Point", "coordinates": [137.343282054, 36.7477112318]}}, {"type": "Feature", "properties": {"stop_id": "10284_01", "stop_name": "下梅沢公民館前", "zone_id": "10284_01", "location_type": "0"}, "geometry": {"type": "Point", "coordinates": [137.339606394571, 36.7465977169]}}, {"type": "Feature", "properties": {"stop_id": "10285_01", "stop_name": "有金新町口", "zone_id": "10285_01", "location_type": "0"}, "geometry": {"type": "Point", "coordinates": [137.341944415714, 36.7409553324]}}, {"type": "Feature", "properties": {"stop_id": "10286_01", "stop_name": "有金公民館前", "zone_id": "10286_01", "location_type": "0"}, "geometry": {"type": "Point", "coordinates": [137.343461396, 36.7395862462]}}, {"type": "Feature", "properties": {"stop_id": "10287_01", "stop_name": "運動公園前", "zone_id": "10287_01", "location_type": "0"}, "geometry": {"type": "Point", "coordinates": [137.347455845, 36.7376059538]}}, {"type": "Feature", "properties": {"stop_id": "10288_01", "stop_name": "中加積駅口", "zone_id": "10288_01", "location_type": "0"}, "geometry": {"type": "Point", "coordinates": [137.350339719, 36.7363107032]}}, {"type": "Feature", "properties": {"stop_id": "10290_01", "stop_name": "堀江東", "zone_id": "10290_01", "location_type": "0"}, "geometry": {"type": "Point", "coordinates": [137.36225722619, 36.7367783599333]}}, {"type": "Feature", "properties": {"stop_id": "10291_01", "stop_name": "南部小学校前", "zone_id": "10291_01", "location_type": "0"}, "geometry": {"type": "Point", "coordinates": [137.368606118857, 36.7353751873]}}, {"type": "Feature", "properties": {"stop_id": "10292_01", "stop_name": "寺町", "zone_id": "10292_01", "location_type": "0"}, "geometry": {"type": "Point", "coordinates": [137.367800193286, 36.7277242651]}}, {"type": "Feature", "properties": {"stop_id": "10293_01", "stop_name": "清寿荘前", "zone_id": "10293_01", "location_type": "0"}, "geometry": {"type": "Point", "coordinates": [137.363576466, 36.7356763392]}}, {"type": "Feature", "properties": {"stop_id": "10294_01", "stop_name": "赤浜", "zone_id": "10294_01", "location_type": "0"}, "geometry": {"type": "Point", "coordinates": [137.361362139428, 36.732097873]}}, {"type": "Feature", "properties": {"stop_id": "i-165_01", "stop_name": "日医工スポーツアカデミー前", "zone_id": "i-165_01", "location_type": "0"}, "geometry": {"type": "Point", "coordinates": [137.322017809523, 36.7585036666667]}}, {"type": "Feature", "properties": {"stop_id": "i-166_01", "stop_name": "児童館前", "zone_id": "i-166_01", "location_type": "0"}, "geometry": {"type": "Point", "coordinates": [137.347219714286, 36.761017]}}, {"type": "Feature", "properties": {"stop_id": "i-167_01", "stop_name": "スポーツ・健康の森公園口", "zone_id": "i-167_01", "location_type": "0"}, "geometry": {"type": "Point", "coordinates": [137.354774857143, 36.7679083333333]}}, {"type": "Feature", "properties": {"stop_id": "i-168_01", "stop_name": "スポーツ・健康の森公園駐車場", "zone_id": "i-168_01", "location_type": "0"}, "geometry": {"type": "Point", "coordinates": [137.358527238095, 36.76789]}}, {"type": "Feature", "properties": {"stop_id": "i-169_01", "stop_name": "横道配水場前", "zone_id": "i-169_01", "location_type": "0"}, "geometry": {"type": "Point", "coordinates": [137.385945857143, 36.758038]}}, {"type": "Feature", "properties": {"stop_id": "i-170_01", "stop_name": "大崎野北", "zone_id": "i-170_01", "location_type": "0"}, "geometry": {"type": "Point", "coordinates": [137.399659809523, 36.7522623333334]}}, {"type": "Feature", "properties": {"stop_id": "i-171_01", "stop_name": "上大浦公民館前", "zone_id": "i-171_01", "location_type": "0"}, "geometry": {"type": "Point", "coordinates": [137.418728428571, 36.749161]}}, {"type": "Feature", "properties": {"stop_id": "i-172_01", "stop_name": "鉢", "zone_id": "i-172_01", "location_type": "0"}, "geometry": {"type": "Point", "coordinates": [137.435929619048, 36.7315913333334]}}, {"type": "Feature", "properties": {"stop_id": "i-173_01", "stop_name": "海老源前", "zone_id": "i-173_01", "location_type": "0"}, "geometry": {"type": "Point", "coordinates": [137.350635, 36.7579743333333]}}, {"type": "Feature", "properties": {"stop_id": "i-174_01", "stop_name": "サンコーポラス上小泉前", "zone_id": "i-174_01", "location_type": "0"}, "geometry": {"type": "Point", "coordinates": [137.344099, 36.758998]}}, {"type": "Feature", "properties": {"stop_id": "i-175_01", "stop_name": "上島公民館前", "zone_id": "i-175_01", "location_type": "0"}, "geometry": {"type": "Point", "coordinates": [137.346944, 36.749862]}}, {"type": "Feature", "properties": {"stop_id": "i-176_01", "stop_name": "宮窪新", "zone_id": "i-176_01", "location_type": "0"}, "geometry": {"type": "Point", "coordinates": [137.365284428571, 36.751671]}}, {"type": "Feature", "properties": {"stop_id": "i-177_01", "stop_name": "富士フイルム前", "zone_id": "i-177_01", "location_type": "0"}, "geometry": {"type": "Point", "coordinates": [137.384839, 36.781085]}}, {"type": "Feature", "properties": {"stop_id": "i-178_01", "stop_name": "不二越滑川事業所前", "zone_id": "i-178_01", "location_type": "0"}, "geometry": {"type": "Point", "coordinates": [137.39127, 36.775685]}}, {"type": "Feature", "properties": {"stop_id": "i-179_01", "stop_name": "北野南部", "zone_id": "i-179_01", "location_type": "0"}, "geometry": {"type": "Point", "coordinates": [137.383499714286, 36.76764]}}, {"type": "Feature", "properties": {"stop_id": "i-180_01", "stop_name": "柳原新町", "zone_id": "i-180_01", "location_type": "0"}, "geometry": {"type": "Point", "coordinates": [137.348648, 36.7647933333333]}}, {"type": "Feature", "properties": {"stop_id": "i-181_01", "stop_name": "菰原八幡社口", "zone_id": "i-181_01", "location_type": "0"}, "geometry": {"type": "Point", "coordinates": [137.336021095238, 36.7513393333333]}}, {"type": "Feature", "properties": {"stop_id": "i-182_01", "stop_name": "柳原柿木", "zone_id": "i-182_01", "location_type": "0"}, "geometry": {"type": "Point", "coordinates": [137.35306, 36.763699]}}, {"type": "Feature", "properties": {"stop_id": "i-183_01", "stop_name": "下梅沢南", "zone_id": "i-183_01", "location_type": "0"}, "geometry": {"type": "Point", "coordinates": [137.340082, 36.74402]}}, {"type": "Feature", "properties": {"stop_id": "i-184_01", "stop_name": "堀江北", "zone_id": "i-184_01", "location_type": "0"}, "geometry": {"type": "Point", "coordinates": [137.3542, 36.736424]}}, {"type": "Feature", "properties": {"stop_id": "i-185_01", "stop_name": "堀江", "zone_id": "i-185_01", "location_type": "0"}, "geometry": {"type": "Point", "coordinates": [137.355303142857, 36.7347453333333]}}, {"type": "Feature", "properties": {"stop_id": "i-186_01", "stop_name": "四ツ屋北", "zone_id": "i-186_01", "location_type": "0"}, "geometry": {"type": "Point", "coordinates": [137.375275, 36.776852]}}, {"type": "Feature", "properties": {"stop_id": "i-187_01", "stop_name": "三ケ", "zone_id": "i-187_01", "location_type": "0"}, "geometry": {"type": "Point", "coordinates": [137.381452190476, 36.7955163333334]}}, {"type": "Feature", "properties": {"stop_id": "i-188_01", "stop_name": "水族館前", "zone_id": "i-188_01", "location_type": "0"}, "geometry": {"type": "Point", "coordinates": [137.387695, 36.798777]}}, {"type": "Feature", "properties": {"stop_id": "i-189_01", "stop_name": "四ツ屋荒俣", "zone_id": "i-189_01", "location_type": "0"}, "geometry": {"type": "Point", "coordinates": [137.36436, 36.780098]}}, {"type": "Feature", "properties": {"stop_id": "i-190_01", "stop_name": "荒俣公民館前", "zone_id": "i-190_01", "location_type": "0"}, "geometry": {"type": "Point", "coordinates": [137.360064285714, 36.780552]}}, {"type": "Feature", "properties": {"stop_id": "i-191_01", "stop_name": "あいのかぜ", "zone_id": "i-191_01", "location_type": "0"}, "geometry": {"type": "Point", "coordinates": [137.358276, 36.777797]}}]}